Time,header.seq,header.stamp.secs,header.stamp.nsecs,header.frame_id,cartesian_point.pose.position.x,cartesian_point.pose.position.y,cartesian_point.pose.position.z,cartesian_point.pose.orientation.w,cartesian_point.pose.orientation.x,cartesian_point.pose.orientation.y,cartesian_point.pose.orientation.z,cartesian_point.pose.euler_orientation.phi,cartesian_point.pose.euler_orientation.theta,cartesian_point.pose.euler_orientation.psi,cartesian_point.velocity.linear.x,cartesian_point.velocity.linear.y,cartesian_point.velocity.linear.z,cartesian_point.velocity.angular.x,cartesian_point.velocity.angular.y,cartesian_point.velocity.angular.z,cartesian_point.acceleration.linear.x,cartesian_point.acceleration.linear.y,cartesian_point.acceleration.linear.z,cartesian_point.acceleration.angular.x,cartesian_point.acceleration.angular.y,cartesian_point.acceleration.angular.z
18.233,92,18,233000000,,0.599369452352654,-8.601410878629476e-05,0.011097001431721905,0.9998465853239011,0.0,0.0,0.01751587326212894,0.0,0.0,0.03503353809554843,-0.0024714292948377317,-0.0003316160114929131,0.044746471031952645,0.0,0.0,0.0,-0.006659540603798975,-0.0008642768023073075,0.127669842951121,0.0,0.0,0.0
18.243,93,18,243000000,,0.5993444036137607,-8.937365199355543e-05,0.011550883513351463,0.9998401934344937,0.0,0.0,0.01787701297404832,0.0,0.0,0.03575593064588041,-0.0025384650999742977,-0.00034030950220101126,0.04603333337465322,0.0,0.0,0.0,-0.006747509866715816,-0.000874400092326167,0.1297026854391489,0.0,0.0,0.0
18.253,94,18,253000000,,0.5993186801295134,-9.282063413399484e-05,0.01201773586503896,0.9998336127003049,0.0,0.0,0.018241351777124576,0.0,0.0,0.036484727108437275,-0.002606377239103887,-0.0003491035829208618,0.04734052534653363,0.0,0.0,0.0,-0.006834803218829904,-0.0008843942585562159,0.13173570977861893,0.0,0.0,0.0
18.263,95,18,263000000,,0.5992922731707849,-9.635605459715362e-05,0.01249776178628192,0.9998268399021983,0.0,0.0,0.01860887452759789,0.0,0.0,0.037219897413689286,-0.002675158828093048,-0.00035799694612059346,0.048668047001450665,0.0,0.0,0.0,-0.006921395703201505,-0.0008942560510994082,0.13376856359728137,0.0,0.0,0.0
18.273,96,18,273000000,,0.5992651740785323,-9.998089953564762e-05,0.012991164559553684,0.9998198718126446,0.0,0.0,0.01897956607899365,0.0,0.0,0.037961411492106814,-0.0027448027346815827,-0.0003669882520359239,0.050015894886298685,0.0,0.0,0.0,-0.007007262651251535,-0.0009039822733328656,0.13580089787308103,0.0,0.0,0.0
18.283,97,18,283000000,,0.5992373742662641,-0.00010369614154550387,0.013498147415401162,0.9998127051962012,0.0,0.0,0.01935341128209584,0.0,0.0,0.03870923927416015,-0.00281530158136109,-0.00037607612920174905,0.05138406207445659,0.0,0.0,0.0,-0.007092379681749833,-0.0009135697816761652,0.13783236692311715,0.0,0.0,0.0
18.293,98,18,293000000,,0.5992088652224778,-0.0001075027393518003,0.014018913497876397,0.9998053368099907,0.0,0.0,0.019730394984921015,0.0,0.0,0.03946335069031962,-0.0028866477482433948,-0.0003852591749814025,0.052772538199123975,0.0,0.0,0.0,-0.007176722699803465,-0.0009230154853586345,0.13986262839260358,0.0,0.0,0.0
18.303,99,18,303000000,,0.5991796385130703,-0.000111401637499587,0.014553665830301033,0.9997977634041763,0.0,0.0,0.020110502032692826,0.0,0.0,0.04022371567105555,-0.0029588333759188626,-0.00039453595609359086,0.054181309486547126,0.0,0.0,0.0,-0.007260267895844946,-0.0009323163461866339,0.14189134324382788,0.0,0.0,0.0
18.313,100,18,313000000,,0.5991496857837177,-0.0001153937660500648,0.015102607281362425,0.9997899817224349,0.0,0.0,0.020493717267817062,0.0,0.0,0.04099030414683822,-0.0030318503683045965,-0.00040390500913699913,0.05561035878913461,0.0,0.0,0.0,-0.007342991744620561,-0.000941469378310852,0.14391817574511148,0.0,0.0,0.0
18.323,101,18,323000000,,0.5991189987622292,-0.00011948004028199837,0.015665940531540405,0.9997819885024297,0.0,0.0,0.020880025529857335,0.0,0.0,0.041763086048137985,-0.0031056903954825165,-0.000413364841112572,0.0570596656184624,0.0,0.0,0.0,-0.007424871004178604,-0.0009504716479935905,0.1459427934597694,0.0,0.0,0.0
18.333,102,18,333000000,,0.5990875692608698,-0.00012366136039834063,0.016243868039863503,0.9997737804762777,0.0,0.0,0.021269411655511244,0.0,0.0,0.04254203130542513,-0.0031803448965273193,-0.00042291392994346503,0.05852920617816851,0.0,0.0,0.0,-0.007505882714857676,-0.0009593202733760569,0.14796486723507002,0.0,0.0,0.0
18.343,103,18,343000000,,0.5990553891786577,-0.0001279386112380448,0.016836592010993596,0.9997653543710175,0.0,0.0,0.021661860478587213,0.0,0.0,0.04332710984916999,-0.0032558050823243228,-0.00043255072499267074,0.060018953396737434,0.0,0.0,0.0,-0.007586004198274948,-0.0009680124242456515,0.14998407119119475,0.0,0.0,0.0
18.353,104,18,353000000,,0.5990224505036311,-0.0001323126619930413,0.017444314362637804,0.9997567069090734,0.0,0.0,0.02205735682998185,0.0,0.0,0.04411829160984287,-0.0033320619383771966,-0.0004422736475783179,0.06152887696017411,0.0,0.0,0.0,-0.0076652130563144355,-0.0009765453218032586,0.152000082710198,0.0,0.0,0.0
18.363,105,18,363000000,,0.5989887453150886,-0.00013678436593035574,0.018067236693286647,0.999747834808718,0.0,0.0,0.02245588553765796,0.0,0.0,0.04491554651791409,-0.003409106227605566,-0.00045208109148664065,0.0630589433445673,0.0,0.0,0.0,-0.007743487170115256,-0.0009849162384305337,0.1540125824249665,0.0,0.0,0.0
18.373,106,18,373000000,,0.5989542657858006,-0.0001413545601193455,0.018705560250277215,0.9997387347845322,0.0,0.0,0.02285743142662317,0.0,0.0,0.04571884450385398,-0.0034869284931325108,-0.00046197142348262466,0.06460911584854284,0.0,0.0,0.0,-0.007820804699059943,-0.000993122497457196,0.15602125420817975,0.0,0.0,0.0
18.383,107,18,383000000,,0.5989190041841941,-0.00014602406516403028,0.019359485898180342,0.9997294035478634,0.0,0.0,0.023261979318909096,0.0,0.0,0.04652815549813282,-0.003565519061061934,-0.0004719429838183236,0.0661793546256063,0.0,0.0,0.0,-0.007897144079762664,-0.001001161472928314,0.15802578516126914,0.0,0.0,0.0
18.393,108,18,393000000,,0.5988829528765083,-0.00015079368494049503,0.020029214087510665,0.9997198378072807,0.0,0.0,0.023669514033551265,0.0,0.0,0.04734344943122095,-0.0036448680432458265,-0.00048199408673884833,0.06776961671637532,0.0,0.0,0.0,-0.007972484025057552,-0.0010090305893715975,0.16002586560337811,0.0,0.0,0.0
18.403,109,18,403000000,,0.5988461043289239,-0.00015566420633934073,0.02071494482375846,0.9997100342690287,0.0,0.0,0.02408002038656958,0.0,0.0,0.0481646962335887,-0.0037249653400414006,-0.0004921230209860307,0.06937985608070159,0.0,0.0,0.0,-0.008046803522986938,-0.0010167273215646883,0.1620211890603218,0.0,0.0,0.0
18.413,110,18,413000000,,0.5988084511096639,-0.00016063639901316,0.021416877636742084,0.9996999896374785,0.0,0.0,0.024493483190949426,0.0,0.0,0.04899186583570635,-0.0038058006430581235,-0.0005023280502997596,0.0710100236296822,0.0,0.0,0.0,-0.008120081835789638,-0.0010242491943024453,0.16401145225354677,0.0,0.0,0.0
18.423000000000002,111,18,423000000,,0.5987699858910674,-0.0001657110151290149,0.022135211550280098,0.9996897006155772,0.0,0.0,0.024909887256623506,0.0,0.0,0.04982492816804423,-0.003887363437894609,-0.0005126074139169876,0.07266006725756095,0.0,0.0,0.0,-0.008192298498889222,-0.0010315937821642359,0.16599635508909083,0.0,0.0,0.0
18.433,112,18,433000000,,0.5987307014516365,-0.00017088878912589284,0.022870145052181722,0.9996791639052938,0.0,0.0,0.025329217390454253,0.0,0.0,0.05066385316107267,-0.003969643006865423,-0.0005229593270684149,0.07432993187351901,0.0,0.0,0.0,-0.008263433319882297,-0.0010387587092812263,0.16797560064654263,0.0,0.0,0.0
18.443,113,18,443000000,,0.5986905906780552,-0.00017617043747711764,0.023621876064554716,0.9996683762080643,0.0,0.0,0.025751458396216953,0.0,0.0,0.05150861074526197,-0.004052628431717744,-0.0005333819814728431,0.076019559433355,0.0,0.0,0.0,-0.008333466377526773,-0.001045741649103672,0.169948895168002,0.0,0.0,0.0
18.453,114,18,453000000,,0.5986496465671812,-0.0001815566584576928,0.02439060191442952,0.9996573342252341,0.0,0.0,0.02617659507458352,0.0,0.0,0.05235917085108245,-0.004136308596337917,-0.0005438735458292003,0.07772888897105534,0.0,0.0,0.0,-0.008402378020730135,-0.0010525403241682036,0.17191594804703875,0.0,0.0,0.0
18.463,115,18,463000000,,0.5986078622280121,-0.0001870481319165531,0.025176519304698483,0.9996460346584976,0.0,0.0,0.026604612223106977,0.0,0.0,0.053215503409004425,-0.004220672189447902,-0.0005544321663062457,0.07945785663025333,0.0,0.0,0.0,-0.008470148867537716,-0.0010591525058651163,0.17387647181765342,0.0,0.0,0.0
18.473,116,18,473000000,,0.5985652308836221,-0.00019264551905370168,0.025979824285369192,0.9996344742103364,0.0,0.0,0.027035494636206605,0.0,0.0,0.05407757834949821,-0.004305707707291577,-0.0005650559670299382,0.08120639569557846,0.0,0.0,0.0,-0.008536759804120981,-0.0010655760142056648,0.17583018214323629,0.0,0.0,0.0
18.483,117,18,483000000,,0.5985217458730749,-0.00019834946220220956,0.02680071222513075,0.9996226495844547,0.0,0.0,0.027469227105153773,0.0,0.0,0.05494536560303412,-0.004391403456310958,-0.0005757430505684856,0.08297443662389516,0.0,0.0,0.0,-0.008602191983765793,-0.0010718087175893452,0.1777767978055278,0.0,0.0,0.0
18.493,118,18,493000000,,0.5984774006533071,-0.0002041605846150531,0.027639377783231778,0.9996105574862127,0.0,0.0,0.02790579441805851,0.0,0.0,0.05581883510008248,-0.004477747555812273,-0.000586491498415061,0.08476190707543088,0.0,0.0,0.0,-0.008666426825860682,-0.0010778485325711917,0.17971604069357766,0.0,0.0,0.0
18.503,119,18,503000000,,0.5984321888009874,-0.00021007949025676786,0.028496014881669317,0.999598194623058,0.0,0.0,0.02834518135985673,0.0,0.0,0.0566979567711136,-0.004564727940621928,-0.000597299371468197,0.08656873194479417,0.0,0.0,0.0,-0.008729446014885123,-0.0010836934236290593,0.18164763579270526,0.0,0.0,0.0
18.513,120,18,513000000,,0.5983861040143471,-0.00021610676359989442,0.029370816677687185,0.9995855577049536,0.0,0.0,0.028787372712298205,0.0,0.0,0.05758270054659779,-0.004652332363732372,-0.0006081647105098491,0.08839483339188216,0.0,0.0,0.0,-0.008791231499397811,-0.0010893414029309178,0.1835713111734588,0.0,0.0,0.0
18.523,121,18,523000000,,0.5983391401149861,-0.0002222429694261933,0.030263975536583002,0.999572643444806,0.0,0.0,0.029232353253935264,0.0,0.0,0.05847303635700539,-0.004740548398937816,-0.0006190855366811329,0.09024013087267753,0.0,0.0,0.0,-0.008851765491024927,-0.0010947905301021369,0.1854867979805754,0.0,0.0,0.0
18.533,122,18,533000000,,0.5982912910496514,-0.00022848865263260548,0.03117568300482256,0.9995594485588879,0.0,0.0,0.02968010776011217,0.0,0.0,0.05936893413280667,-0.004829363443459855,-0.0006300598519557353,0.09210454116993537,0.0,0.0,0.0,-0.008911030463448424,-0.0011000389119927808,0.18739383042194116,0.0,0.0,0.0
18.543,123,18,543000000,,0.5982425508919893,-0.00023484433804193546,0.03210612978346051,0.9995459697672621,0.0,0.0,0.030130621002955268,0.0,0.0,0.06027036380447197,-0.004918764720562965,-0.000641085639610998,0.09398797842375925,0.0,0.0,0.0,-0.008969009151394298,-0.0011050847024448966,0.18929214575755035,0.0,0.0,0.0
18.553,124,18,553000000,,0.598192913844273,-0.00024131053021823355,0.03305550570186623,0.9995322037941997,0.0,0.0,0.030583877751363873,0.0,0.0,0.061177295302471624,-0.005008739282159895,-0.0006521608646966727,0.09589035416206738,0.0,0.0,0.0,-0.009025684549620834,-0.001109926102059797,0.19118148428846535,0.0,0.0,0.0
18.563,125,18,563000000,,0.5981423742391021,-0.00024788771328685414,0.03402399969175394,0.9995181473685995,0.0,0.0,0.031039862771001816,0.0,0.0,0.0620896985572759,-0.005099274011406914,-0.0006632834745013525,0.09781157733094778,0.0,0.0,0.0,-0.00908103991190693,-0.0011145613579653588,0.19306158934577683,0.0,0.0,0.0
18.573,126,18,573000000,,0.5980909265410779,-0.00025457635075916635,0.03501179976151561,0.999503797224402,0.0,0.0,0.03149856082428988,0.0,0.0,0.06300754349935517,-0.005190355625288971,-0.0006744513990165702,0.09975155432490364,0.0,0.0,0.0,-0.009135058750040325,-0.0011189887635833075,0.1949322072795628,0.0,0.0,0.0
18.583,127,18,583000000,,0.5980385653484518,-0.0002613768853618944,0.03601909297085594,0.9994891501010035,0.0,0.0,0.031959956670398824,0.0,0.0,0.06393080005917971,-0.005281970677194719,-0.0006856625513985774,0.10171018901698774,0.0,0.0,0.0,-0.009187724832805892,-0.0011232066583965043,0.196793087447849,0.0,0.0,0.0
18.593,128,18,593000000,,0.5979852853947485,-0.00026828973887106395,0.03704606540572803,0.9994742027436666,0.0,0.0,0.03242403506524329,0.0,0.0,0.0648594381672199,-0.005374105559481434,-0.0006969148284277895,0.10368738278882697,0.0,0.0,0.0,-0.009239022184973912,-0.001127213427716244,0.19864398220556845,0.0,0.0,0.0
18.603,129,18,603000000,,0.5979310815503639,-0.0002753153119505313,0.0380929021535689,0.9994589519039292,0.0,0.0,0.03289078076147636,0.0,0.0,0.06579342775394596,-0.0054667465060298,-0.0007082061109659071,0.10568303456053602,0.0,0.0,0.0,-0.009288935086288351,-0.0011310075024495352,0.20048464689352108,0.0,0.0,0.0
18.613,130,18,613000000,,0.5978759488241367,-0.0002824539839950723,0.03915978727883324,0.9994433943400106,0.0,0.0,0.03336017850848499,0.0,0.0,0.06673273874982825,-0.005559879594788599,-0.0007195342644107104,0.1076970408205209,0.0,0.0,0.0,-0.009337448070455124,-0.001134587358866394,0.20231483982733364,0.0,0.0,0.0
18.623,131,18,623000000,,0.5978198823648955,-0.0002897061129780068,0.040246903798825145,0.9994275268172165,0.0,0.0,0.0338322130523861,0.0,0.0,0.06767734108533706,-0.0056534907503092684,-0.0007308971391485255,0.10972929565517214,0.0,0.0,0.0,-0.009384545924130348,-0.0011379515183671323,0.20413432228641934,0.0,0.0,0.0
18.633,132,18,633000000,,0.5977628774629794,-0.0002970720353033377,0.04135443365982576,0.9994113461083398,0.0,0.0,0.03430686913602355,0.0,0.0,0.06862720469094279,-0.005747565746270338,-0.0007422925710043633,0.11177969077844725,0.0,0.0,0.0,-0.009430213685908672,-0.0011410985472496491,0.20594285850293795,0.0,0.0,0.0
18.643,133,18,643000000,,0.5977049295517347,-0.00030455206566237786,0.04248255771351655,0.9993948489940614,0.0,0.0,0.0347841314989657,0.0,0.0,0.06958229949711567,-0.005842090207991759,-0.0007537183816897307,0.113848115561343,0.0,0.0,0.0,-0.009474436645311496,-0.001144027056476717,0.20774021565075504,0.0,0.0,0.0
18.653,134,18,653000000,,0.5976460342089862,-0.00031214649689484516,0.0436314556936965,0.9993780322633469,0.0,0.0,0.035263984877504005,0.0,0.0,0.07054259543432603,-0.005937049614939115,-0.0007651723792481182,0.11593445706125739,0.0,0.0,0.0,-0.009517200341775294,-0.0011467357014432755,0.20952616383440253,0.0,0.0,0.0
18.663,135,18,663000000,,0.5975861871584824,-0.0003198555998543995,0.0448013061932925,0.9993608927138424,0.0,0.0,0.03574641400465218,0.0,0.0,0.07150806243304422,-0.0060324293032177215,-0.0007766523584981571,0.11803860005124114,0.0,0.0,0.0,-0.009558490563639818,-0.0011492231817437145,0.21130047607803734,0.0,0.0,0.0
18.673000000000002,136,18,673000000,,0.5975253842713178,-0.0003276796232786009,0.04599228664166173,0.9993434271522672,0.0,0.0,0.03623140361014623,0.0,0.0,0.07247867042374054,-0.006128214468056586,-0.0007881561014744494,0.1201604270491386,0.0,0.0,0.0,-0.009598293347136437,-0.0011514882409391696,0.21306292831440218,0.0,0.0,0.0
18.683,137,18,683000000,,0.5974636215673284,-0.00033561879366326286,0.04720457328218469,0.9993256323948043,0.0,0.0,0.03671893842044526,0.0,0.0,0.07345438933688526,-0.006224390166282278,-0.0007996813778660744,0.12229981834661853,0.0,0.0,0.0,-0.009636594975376379,-0.0011535296663248078,0.21481329937378474,0.0,0.0,0.0
18.693,138,18,693000000,,0.5974008952164631,-0.00034367331514118074,0.04843834115014835,0.9993075052674895,0.0,0.0,0.03720900315873314,0.0,0.0,0.07443518910294879,-0.006320941318782654,-0.0008112259454527606,0.1244566520380942,0.0,0.0,0.0,-0.009673381977339015,-0.001155346288697117,0.21655137097297772,0.0,0.0,0.0
18.703,139,18,703000000,,0.5973372015401325,-0.0003518433693652095,0.04969376405091755,0.9992890426065967,0.0,0.0,0.037701582544920786,0.0,0.0,0.07542103965240136,-0.006417852712960493,-0.0008227875505387411,0.12663080404953336,0.0,0.0,0.0,-0.009708641126860141,-0.0011569369821212015,0.21827692770423862,0.0,0.0,0.0
18.713,140,18,713000000,,0.5972725370125296,-0.000360129115395667,0.050971014538394206,0.9992702412590228,0.0,0.0,0.03819666129564942,0.0,0.0,0.07641191091571331,-0.006515109005177004,-0.0008343639283842717,0.12882214816715776,0.0,0.0,0.0,-0.009742359441620212,-0.0011583006636980584,0.21998975702424922,0.0,0.0,0.0
18.723,141,18,723000000,,0.5972068982619289,-0.0003685306895920434,0.052270263893762915,0.9992510980826685,0.0,0.0,0.03869422412429453,0.0,0.0,0.07740777282335495,-0.006612694723185201,-0.0008459528036348286,0.13103055606603195,0.0,0.0,0.0,-0.009774524182132647,-0.0011594362933318803,0.22168964924307533,0.0,0.0,0.0
18.733,142,18,733000000,,0.5971402820719609,-0.00037704820550899014,0.053591682104521865,0.9992316099468188,0.0,0.0,0.03919425574097072,0.0,0.0,0.07840859530579665,-0.006710594268553186,-0.0008575518907479766,0.133255897338542,0.0,0.0,0.0,-0.009805122850732132,-0.0011603428734973398,0.22337639751312743,0.0,0.0,0.0
18.743,143,18,743000000,,0.5970726853828606,-0.0003856817537965634,0.054935437843797896,0.9992117737325189,0.0,0.0,0.039696740852537146,0.0,0.0,0.07941434829350864,-0.006808791919077302,-0.0008691588944179102,0.1354980395227642,0.0,0.0,0.0,-0.009834143190562802,-0.0011610194490068728,0.22504979781811887,0.0,0.0,0.0
18.753,144,18,753000000,,0.5970041052926941,-0.0003944314021047056,0.056301698449944926,0.99919158633295,0.0,0.0,0.04020166416260408,0.0,0.0,0.08042500171696132,-0.006907271831185154,-0.0008807715099976668,0.13775684813072203,0.0,0.0,0.0,-0.00986157318456663,-0.0011614651067779797,0.22670964896202744,0.0,0.0,0.0
18.763,145,18,763000000,,0.5969345390585604,-0.0004032971949919336,0.057690629906424075,0.9991710446538019,0.0,0.0,0.04070901037153997,0.0,0.0,0.08144052550662495,-0.007006018042328554,-0.0008923874239190146,0.14003218667653425,0.0,0.0,0.0,-0.009887401054471605,-0.0011616789756005047,0.22835575255805335,0.0,0.0,0.0
18.773,146,18,773000000,,0.5968639840977686,-0.0004122791538382167,0.05910239682196505,0.9991501456136429,0.0,0.0,0.0412187641764795,0.0,0.0,0.08246088959296988,-0.007105014473366294,-0.0009040043141100127,0.14232391670445171,0.0,0.0,0.0,-0.009911615259780049,-0.0011616602259039302,0.22998791301758043,0.0,0.0,0.0
18.783,147,18,783000000,,0.5967924379889922,-0.0004213772767620175,0.06053716241100718,0.9991288861442882,0.0,0.0,0.0417309102713324,0.0,0.0,0.08348606390646635,-0.007204244930936856,-0.0009156198504102428,0.14463189781678415,0.0,0.0,0.0,-0.009934204496756886,-0.0011614080695246634,0.23160593753913508,0.0,0.0,0.0
18.793,148,18,793000000,,0.5967198984733999,-0.00043059153854147305,0.061995088474419015,0.9991072631911659,0.0,0.0,0.04224543334679306,0.0,0.0,0.0845160183775848,-0.007303693109820962,-0.0009272316949837167,0.14695598770171608,0.0,0.0,0.0,-0.009955157697417926,-0.0011609217594733313,0.23320963609734657,0.0,0.0,0.0
18.803,149,18,803000000,,0.5966463634557619,-0.0004399218905396946,0.06347633538049591,0.9990852737136804,0.0,0.0,0.042762318090350915,0.0,0.0,0.08555072293679541,-0.007403342595294038,-0.0009388375027294531,0.14929604216101294,0.0,0.0,0.0,-0.009974464028518096,-0.0011602005897020597,0.23479882143190617,0.0,0.0,0.0
18.813,150,18,813000000,,0.5965718310055333,-0.0004493682606341606,0.06498106204623377,0.9990629146855736,0.0,0.0,0.043281549186301775,0.0,0.0,0.08659014751456863,-0.007503176865468541,-0.0009504349216897305,0.15165191513761628,0.0,0.0,0.0,-0.009992112890539782,-0.0011592438948717768,0.23637330903652762,0.0,0.0,0.0
18.823,151,18,823000000,,0.5964962993579146,-0.0004589305531501811,0.06650942591887837,0.9990401830952843,0.0,0.0,0.04380311131575977,0.0,0.0,0.08763426204137467,-0.007603179293626156,-0.0009620215934560106,0.15402345874312912,0.0,0.0,0.0,-0.01000809391668102,-0.0011580510501194852,0.23793291714790613,0.0,0.0,0.0
18.833,152,18,833000000,,0.5964197669148873,-0.00046860864879840885,0.06806158295774893,0.9990170759463045,0.0,0.0,0.04432698915667032,0.0,0.0,0.0886830364476839,-0.007703333150539933,-0.0009735951535725357,0.15641052328519012,0.0,0.0,0.0,-0.01002239697184384,-0.0011566214708255674,0.23947746673467887,0.0,0.0,0.0
18.843,153,18,843000000,,0.5963422322462284,-0.00047840240461637654,0.06963768761633486,0.9989935902575345,0.0,0.0,0.0448531673838237,0.0,0.0,0.08973644066396662,-0.007803621606786235,-0.0009851532319375999,0.15881295729473807,0.0,0.0,0.0,-0.01003501215162253,-0.001154954612381068,0.2410067814863845,0.0,0.0,0.0
18.853,154,18,853000000,,0.5962636940905008,-0.0004883116539140326,0.0712378928246647,0.9989697230636344,0.0,0.0,0.04538163066886966,0.0,0.0,0.09079444462069314,-0.007904027735046611,-0.000996693453202491,0.16123060755316568,0.0,0.0,0.0,-0.010045929781291834,-0.0011530499699549802,0.24252068780242247,0.0,0.0,0.0
18.863,155,18,863000000,,0.5961841513560202,-0.0004983362062232574,0.07286234997194581,0.9989454714153746,0.0,0.0,0.04591236368033263,0.0,0.0,0.09185701824833382,-0.008004534512399557,-0.0010082134371681075,0.16366331911936305,0.0,0.0,0.0,-0.010055140414795334,-0.001150907078261542,0.24401901478101384,0.0,0.0,0.0
18.873,156,18,873000000,,0.5961036031218,-0.0005084758472513315,0.07451120888947432,0.9989208323799832,0.0,0.0,0.046445351083627844,0.0,0.0,0.09292413147735885,-0.008105124822602115,-0.0010197107991792445,0.16611093535665036,0.0,0.0,0.0,-0.010062634833733665,-0.0011485255113275205,0.24550159420815956,0.0,0.0,0.0
18.883,157,18,883000000,,0.5960220486384731,-0.0005187303388383375,0.07618461783381347,0.9988958030414917,0.0,0.0,0.046980577541078365,0.0,0.0,0.0939957542382387,-0.008205781458361424,-0.0010311831505165606,0.16857329795960097,0.0,0.0,0.0,-0.010068404046352763,-0.0011459048822595008,0.24696826054660165,0.0,0.0,0.0
18.893,158,18,893000000,,0.5959394873291914,-0.000529099418918469,0.07788272347023985,0.9988703805010778,0.0,0.0,0.04751802771193273,0.0,0.0,0.09507185646144359,-0.00830648712359608,-0.0010426280987862096,0.17105024698075325,0.0,0.0,0.0,-0.010072439286532203,-0.0011430448430111806,0.24841885092478241,0.0,0.0,0.0
18.903,159,18,903000000,,0.5958559187905023,-0.0005395828014852218,0.07960567085645612,0.9988445618774061,0.0,0.0,0.048057686252383575,0.0,0.0,0.09615240807744385,-0.008407224435687434,-0.0010540432483071465,0.17354162085721245,0.0,0.0,0.0,-0.01007473201277344,-0.001139945084150657,0.2498532051258037,0.0,0.0,0.0
18.913,160,18,913000000,,0.5957713427932021,-0.000550180176560452,0.08135360342656928,0.9988183443069673,0.0,0.0,0.04859953781558698,0.0,0.0,0.09723737901670985,-0.00850797592772073,-0.0010654262004961097,0.17604725643714206,0.0,0.0,0.0,-0.01007527390718807,-0.0011366053346277142,0.2512711655763877,0.0,0.0,0.0
18.923000000000002,161,18,923000000,,0.595685759283169,-0.0005608912101672659,0.08312666297533322,0.9987917249444134,0.0,0.0,0.049143567051682636,0.0,0.0,0.09832673920971186,-0.008608724050716188,-0.001076774554250276,0.17856698900614515,0.0,0.0,0.0,-0.010074056874486105,-0.0011330253615411093,0.25267257733583576,0.0,0.0,0.0
18.933,162,18,933000000,,0.5955991683821721,-0.0005717155443067301,0.08492498964265459,0.998764700962893,0.0,0.0,0.0496897586078149,0.0,0.0,0.0994204585869202,-0.008709451175849876,-0.0010880859063275821,0.18110065231353434,0.0,0.0,0.0,-0.010071073040964313,-0.0011292049699058765,0.25405728808498895,0.0,0.0,0.0
18.943,163,18,943000000,,0.5955115703886581,-0.0005826527969383709,0.08674872189836075,0.9987372695543819,0.0,0.0,0.05023809712815454,0.0,0.0,0.10051850707880516,-0.008810139596664577,-0.001099357851724731,0.18364807859849283,0.0,0.0,0.0,-0.010066314753494345,-0.0011251440024205946,0.25542514811518663,0.0,0.0,0.0
18.953,164,18,953000000,,0.5954229657785179,-0.0005937025619644406,0.08859799652722873,0.998709427930013,0.0,0.0,0.0507885672539214,0.0,0.0,0.10162085461583713,-0.008910771531270437,-0.0011105879840528562,0.18620909861612328,0.0,0.0,0.0,-0.010059774578511196,-0.0011208423392346984,0.2567760103172282,0.0,0.0,0.0
18.963,165,18,963000000,,0.5953333552058293,-0.0006048644092179323,0.09047294861427445,0.9986811733204034,0.0,0.0,0.05134115362340777,0.0,0.0,0.10272747112848633,-0.009011329124535545,-0.0011217738959108724,0.18878354166338793,0.0,0.0,0.0,-0.010051445301001303,-0.001116299897715751,0.25810973017033034,0.0,0.0,0.0
18.973,166,18,973000000,,0.5952427395035781,-0.0006161378844543134,0.09237371153030037,0.9986525029759791,0.0,0.0,0.05189584087200269,0.0,0.0,0.10383832654722315,-0.009111794450266407,-0.001132913179256488,0.191371235604937,0.0,0.0,0.0,-0.010041319923490945,-0.0011115166322167404,0.2594261657310893,0.0,0.0,0.0
18.983,167,18,983000000,,0.5951511196843586,-0.0006275225093469605,0.09430041691770105,0.9986234141672973,0.0,0.0,0.05245261363221691,0.0,0.0,0.10495339080251785,-0.009212149513378261,-0.0011440034257749012,0.19397200689882765,0.0,0.0,0.0,-0.010029391665034472,-0.0011064925338433772,0.26072517762243885,0.0,0.0,0.0
18.993,168,18,993000000,,0.5950584969410515,-0.0006390177814862667,0.09625319467652557,0.9985939041853674,0.0,0.0,0.05301145653370879,0.0,0.0,0.10607263382484078,-0.009312376252055336,-0.0011550422272451615,0.19658568062213244,0.0,0.0,0.0,-0.01001565396020252,-0.0011012276302213599,0.26200662902261074,0.0,0.0,0.0
19.003,169,19,3000000,,0.59496487264748,-0.000650623174382402,0.09823217295079484,0.9985639703419682,0.0,0.0,0.053572354203310905,0.0,0.0,0.10719602554466229,-0.009412456539900924,-0.0011660271759042044,0.1992120804964362,0.0,0.0,0.0,-0.010000100458070402,-0.0010957219852636918,0.26327038565409444,0.0,0.0,0.0
19.013,170,19,13000000,,0.5948702483590456,-0.000662338137471704,0.10023747811507419,0.9985336099699637,0.0,0.0,0.05413529126505747,0.0,0.0,0.10832353589245261,-0.009512372188077368,-0.0011769558648085617,0.20185102891322412,0.0,0.0,0.0,-0.009982725021206288,-0.001089975698937957,0.26451631577259727,0.0,0.0,0.0
19.023,171,19,23000000,,0.5947746258133414,-0.0006741620961266719,0.10226923476129866,0.9985028204236166,0.0,0.0,0.054700252340212654,0.0,0.0,0.10945513479868216,-0.009612104947435944,-0.0011878258881937462,0.20450234695915875,0.0,0.0,0.0,-0.009963521724659533,-0.0010839889070336044,0.2657442901560032,0.0,0.0,0.0
19.033,172,19,33000000,,0.5946780069307446,-0.0006860944516695437,0.10432756568585064,0.9984715990788995,0.0,0.0,0.05526722204729948,0.0,0.0,0.11059079219382113,-0.009711636510636626,-0.0011986348418313053,0.2071658544412462,0.0,0.0,0.0,-0.009942484854948872,-0.0010777617809292492,0.2669541820933332,0.0,0.0,0.0
19.043,173,19,43000000,,0.5945803938149878,-0.0006981345813894314,0.10641259187688874,0.9984399433338031,0.0,0.0,0.05583618500212982,0.0,0.0,0.11173047800833993,-0.009810948514257688,-0.0012093803233835453,0.2098413699118923,0.0,0.0,0.0,-0.009919608909050807,-0.0010712945273599536,0.2681458673737054,0.0,0.0,0.0
19.053,174,19,53000000,,0.5944817887537102,-0.0007102818385629932,0.10852443250192673,0.9984078506086433,0.0,0.0,0.056407125817834886,0.0,0.0,0.11287416217270889,-0.009910022540895264,-0.0012200599327559405,0.21252871069384896,0.0,0.0,0.0,-0.009894888593387798,-0.001064587388184523,0.2693192242752942,0.0,0.0,0.0
19.063,175,19,63000000,,0.5943821942189854,-0.0007225355524786194,0.11066320489566098,0.9983753183463647,0.0,0.0,0.056980029104896614,0.0,0.0,0.11402181461739821,-0.010008840121252707,-0.0012306712724471979,0.21522769290504884,0.0,0.0,0.0,-0.009868318822816545,-0.0010576406401527874,0.2704741335542902,0.0,0.0,0.0
19.073,176,19,73000000,,0.5942816128678312,-0.0007348950284641008,0.11282902454804634,0.9983423440128432,0.0,0.0,0.05755487947118003,0.0,0.0,0.11517340527287835,-0.010107382736219896,-0.0012412119478970105,0.21793813148333044,0.0,0.0,0.0,-0.00983989471961632,-0.0010504545946728968,0.27161047843386027,0.0,0.0,0.0
19.083,177,19,83000000,,0.5941800475426968,-0.0007473595479177721,0.11502200509261809,0.9983089250971844,0.0,0.0,0.05813166152196601,0.0,0.0,0.11632890406961954,-0.010205631818942412,-0.001251679567831475,0.22065984021105334,0.0,0.0,0.0,-0.009809611612477146,-0.001043029597578612,0.2727281445931072,0.0,0.0,0.0
19.093,178,19,93000000,,0.59407750127193,-0.0007599283683430896,0.11724225829505977,0.9982750591120221,0.0,0.0,0.05871035985998517,0.0,0.0,0.1174882809380921,-0.01030356875688057,-0.0012620717446061838,0.22339263173960122,0.0,0.0,0.0,-0.009777465035488141,-0.0010353660288965807,0.2738270201560286,0.0,0.0,0.0
19.103,179,19,103000000,,0.5939739772702244,-0.0007726007233866371,0.1194898940420158,0.9982407435938123,0.0,0.0,0.05929095908545231,0.0,0.0,0.11865150580876632,-0.010401174893858335,-0.00127238609454699,0.22613631761377642,0.0,0.0,0.0,-0.009743450727125786,-0.001027464302613651,0.27490699568047866,0.0,0.0,0.0
19.113,180,19,113000000,,0.5938694789390443,-0.0007853758228795157,0.12176502033014665,0.9982059761031262,0.0,0.0,0.05987344379610183,0.0,0.0,0.1198185486121126,-0.010498431532102195,-0.0012826202382884477,0.2288907082960835,0.0,0.0,0.0,-0.009707564629242172,-0.001019324866444138,0.2759679641471258,0.0,0.0,0.0
19.123,181,19,123000000,,0.5937640098670318,-0.0007982528528821193,0.12406774325542735,0.9981707542249406,0.0,0.0,0.060457798587223645,0.0,0.0,0.12098937927860119,-0.010595319934269794,-0.001292771801109918,0.23165561319090103,0.0,0.0,0.0,-0.009669802886053288,-0.0010109482015971227,0.2770098209484135,0.0,0.0,0.0
19.133,182,19,133000000,,0.5936575738303915,-0.0008112309757322509,0.12639816700268633,0.9981350755689252,0.0,0.0,0.061044008051700176,0.0,0.0,0.12216396773870243,-0.010691821325468543,-0.0013028384132693644,0.2344308406685456,0.0,0.0,0.0,-0.009630161843127273,-0.0010023348225437427,0.2780324638775197,0.0,0.0,0.0
19.143,183,19,143000000,,0.5935501747932567,-0.0008243093300965669,0.12875639383538465,0.998098937769729,0.0,0.0,0.06163205678004381,0.0,0.0,0.12334228392288663,-0.010787916895264092,-0.0013128177103347968,0.2372161980892228,0.0,0.0,0.0,-0.009588638046372732,-0.0009934852767844757,0.27903579311731747,0.0,0.0,0.0
19.153,184,19,153000000,,0.593441816908034,-0.0008374870310253274,0.1311425240856343,0.9980623384872636,0.0,0.0,0.0622219293604354,0.0,0.0,0.12452429776162412,-0.010883587799678658,-0.0013227073335134055,0.2400114918268695,0.0,0.0,0.0,-0.009545228241026977,-0.0009844001446164365,0.28001971122933333,0.0,0.0,0.0
19.163,185,19,163000000,,0.5933325045157295,-0.0008507631700104239,0.13355665614445425,0.9980252754069834,0.0,0.0,0.06281361037876325,0.0,0.0,0.1257099791853852,-0.010978815163179247,-0.001332504929978373,0.24281652729288547,0.0,0.0,0.0,-0.0094999293706443,-0.0009750800389006628,0.28098412314270793,0.0,0.0,0.0
19.173,186,19,173000000,,0.5932222421462541,-0.0008641368150466603,0.13599888645226324,0.9979877462401653,0.0,0.0,0.06340708441866305,0.0,0.0,0.12689929812464013,-0.011073580080655803,-0.001342208153193334,0.24563110895975343,0.0,0.0,0.0,-0.009452738576084278,-0.0009655256048294005,0.281928936143156,0.0,0.0,0.0
19.183,187,19,183000000,,0.5931110345187094,-0.0008776070106962746,0.13846930948960823,0.9979497487241847,0.0,0.0,0.06400233606155852,0.0,0.0,0.12809222450985935,-0.011167863619389165,-0.0013518146632345387,0.24845504038455032,0.0,0.0,0.0,-0.009403653194499983,-0.0009557375196933968,0.282854059861925,0.0,0.0,0.0
19.193,188,19,193000000,,0.5929988865416541,-0.0008911727781566619,0.14096801776812745,0.9979112806227893,0.0,0.0,0.06459934988670266,0.0,0.0,0.12928872827151308,-0.011261646821008926,-0.00136132212711066,0.25128812423234725,0.0,0.0,0.0,-0.009352670758326355,-0.0009457164926491963,0.28375940626475654,0.0,0.0,0.0
19.203,189,19,203000000,,0.5928858033133507,-0.000904833115331292,0.14349510182174696,0.9978723397263713,0.0,0.0,0.06519811047121993,0.0,0.0,0.13048877934007166,-0.011354910703441265,-0.0013707282190803048,0.2541301622994994,0.0,0.0,0.0,-0.009299788994268355,-0.0009354632644864175,0.28464488964084456,0.0,0.0,0.0
19.213,190,19,213000000,,0.5927717901219931,-0.0009185869969037834,0.1460506501981094,0.9978329238522364,0.0,0.0,0.06579860239014908,0.0,0.0,0.1316923476460054,-0.011447636262846532,-0.0013800306209671652,0.25698095553682476,0.0,0.0,0.0,-0.00924500582228935,-0.0009249786073950505,0.28551042659179643,0.0,0.0,0.0
19.223,191,19,223000000,,0.5926568524459142,-0.0009324333744151217,0.14863474945023405,0.9977930308448713,0.0,0.0,0.06640081021648664,0.0,0.0,0.13289940311978463,-0.011539804475546764,-0.0013892270224728652,0.2598403040726736,0.0,0.0,0.0,-0.009188319354599309,-0.0009142633247327469,0.28635593602059134,0.0,0.0,0.0
19.233,192,19,233000000,,0.5925409959537747,-0.0009463711763439926,0.151247484128407,0.9977526585762078,0.0,0.0,0.06700471852123127,0.0,0.0,0.13410991569187963,-0.011631396299943158,-0.0013983151214874796,0.262708007235887,0.0,0.0,0.0,-0.009129727894643091,-0.000903318250792098,0.2871813391205412,0.0,0.0,0.0
19.243,193,19,243000000,,0.5924242265047335,-0.0009603993081902118,0.15388893677230067,0.9977118049458861,0.0,0.0,0.06761031187342877,0.0,0.0,0.13532385529276084,-0.011722392678423283,-0.0014072926243977098,0.26558386357864483,0.0,0.0,0.0,-0.009069229936088746,-0.0008921442505679393,0.2879865593642497,0.0,0.0,0.0
19.253,194,19,253000000,,0.5923065501485971,-0.0009745166525612181,0.1565591879033205,0.9976704678815141,0.0,0.0,0.06821757484021763,0.0,0.0,0.1365411918528984,-0.011812774539258287,-0.0014161572463927488,0.2684676708992032,0.0,0.0,0.0,-0.009006824161815792,-0.0008807422195246326,0.28877152249257304,0.0,0.0,0.0
19.263,195,19,263000000,,0.5921879731259525,-0.0009887220692616216,0.15925831601717935,0.9976286453389259,0.0,0.0,0.06882649198687577,0.0,0.0,0.1377618953027627,-0.011902522798489995,-0.0014249067117678084,0.2713592262645223,0.0,0.0,0.0,-0.008942509442903469,-0.0008691130833633592,0.2895361565035785,0.0,0.0,0.0
19.273,196,19,273000000,,0.5920685018682794,-0.0010030143953857701,0.161986397576697,0.9975863353024367,0.0,0.0,0.06943704787686739,0.0,0.0,0.13898593557282407,-0.011991618361807767,-0.0014335387542253318,0.27425832603278294,0.0,0.0,0.0,-0.008876284837618974,-0.0008572577977893998,0.29028039164150476,0.0,0.0,0.0
19.283,197,19,283000000,,0.5919481429980447,-0.00101739244541332,0.1647435070048246,0.9975435357850958,0.0,0.0,0.07004922707189094,0.0,0.0,0.1402132825935529,-0.012080042126415377,-0.0014420511171738606,0.277164765875793,0.0,0.0,0.0,-0.008808149590405798,-0.0008451773482794319,0.29100416038572174,0.0,0.0,0.0
19.293,198,19,293000000,,0.5918269033287776,-0.0010318550113077776,0.1675297166778925,0.9975002448289378,0.0,0.0,0.07066301413192759,0.0,0.0,0.14144390629541934,-0.01216777498288769,-0.0014504415540245966,0.28007834080128396,0.0,0.0,0.0,-0.008738103130871961,-0.0008328727498488199,0.2917073974396902,0.0,0.0,0.0
19.303,199,19,303000000,,0.5917047898651276,-0.001046400862618003,0.17034509691908023,0.9974564605052312,0.0,0.0,0.07127839361529051,0.0,0.0,0.1426777766088938,-0.01225479781701727,-0.0014587078284856113,0.2829988451750964,0.0,0.0,0.0,-0.008666145072778336,-0.0008203450468189016,0.29239003971992183,0.0,0.0,0.0
19.313,200,19,313000000,,0.5915818098029021,-0.0010610287465826383,0.17318971599210864,0.9974121809147234,0.0,0.0,0.07189535007867472,0.0,0.0,0.14391486346444665,-0.012341091511650823,-0.0014668477148537535,0.2859260727432549,0.0,0.0,0.0,-0.008592275213026858,-0.0008075953125842784,0.29305202634493865,0.0,0.0,0.0
19.323,201,19,323000000,,0.5914579705290872,-0.0010757373882374459,0.17606364009515116,0.9973674041878857,0.0,0.0,0.07251386807720767,0.0,0.0,0.14515513679254813,-0.012426636948515589,-0.0014748589983042185,0.2888598166539339,0.0,0.0,0.0,-0.00851649353064882,-0.000794624649380099,0.2936932986242327,0.0,0.0,0.0
19.333,202,19,333000000,,0.5913332796218499,-0.001090525490525527,0.17896693335496452,0.9973221284851541,0.0,0.0,0.07313393216450048,0.0,0.0,0.1463985665236685,-0.012511415010035536,-0.0014827394751777817,0.2917998694793111,0.0,0.0,0.0,-0.008438800185793153,-0.0007814341880493633,0.2943138000472262,0.0,0.0,0.0
19.343,203,19,343000000,,0.5912077448505217,-0.001105391734410412,0.18189965782123863,0.9972763519971685,0.0,0.0,0.07375552689269997,0.0,0.0,0.14764512258827817,-0.012595406581137485,-0.0014904869532657169,0.294746023237312,0.0,0.0,0.0,-0.008359195518714706,-0.0007680250878101923,0.2949134762722307,0.0,0.0,0.0
19.353,204,19,353000000,,0.5910813741755652,-0.0011203347789919692,0.1848618734611607,0.9972300729450091,0.0,0.0,0.07437863681254103,0.0,0.0,0.1488947749168474,-0.012678592551047132,-0.0014980992520923924,0.2976980694132444,0.0,0.0,0.0,-0.008277680048762526,-0.0007543985360231375,0.29549227511540815,0.0,0.0,0.0
19.363,205,19,363000000,,0.5909541757485214,-0.001135353261625148,0.18785363815419823,0.9971832895804313,0.0,0.0,0.07500324647340008,0.0,0.0,0.15014749343984657,-0.012760953815074912,-0.0015055742031955136,0.3006557989813199,0.0,0.0,0.0,-0.008194254473368117,-0.0007405557479584588,0.29605014653972916,0.0,0.0,0.0
19.373,206,19,373000000,,0.5908261579119405,-0.0011504457980415017,0.19087500768709476,0.9971360001860976,0.0,0.0,0.07562934042334876,0.0,0.0,0.15140324808774597,-0.012842471276391787,-0.0015129096504040746,0.303619002426069,0.0,0.0,0.0,-0.008108919667033641,-0.0007264979665634044,0.29658704264393343,0.0,0.0,0.0
19.383,207,19,383000000,,0.5906973291992945,-0.0011656109824734742,0.19392603574907877,0.9970882030758068,0.0,0.0,0.07625690320920855,0.0,0.0,0.15266200879101588,-0.012923125847794868,-0.00152010345011396,0.30658746976364154,0.0,0.0,0.0,-0.008021676680320368,-0.0007122264622295235,0.2971029176514895,0.0,0.0,0.0
19.393,208,19,393000000,,0.5905676983348719,-0.0011808473877814487,0.19700677392728755,0.997039896594722,0.0,0.0,0.07688591937660592,0.0,0.0,0.15392374548012666,-0.01300289845346296,-0.0015271534715612168,0.3095609905630001,0.0,0.0,0.0,-0.00793252673883677,-0.0006977425325599432,0.29759772789955447,0.0,0.0,0.0
19.403,209,19,403000000,,0.590437274233655,-0.0011961535655834934,0.20011727170239924,0.9969910791195953,0.0,0.0,0.07751637347002806,0.0,0.0,0.15518842808554856,-0.013081770030701958,-0.001534057597093009,0.31253935396700133,0.0,0.0,0.0,-0.00784147124222689,-0.0006830475021366539,0.29807143182793366,0.0,0.0,0.0
19.413,210,19,413000000,,0.5903060660011805,-0.0012115280463878303,0.20325757644447812,0.9969417490589902,0.0,0.0,0.07814825003287942,0.0,0.0,0.15645602653775204,-0.013159721531680183,-0.0015408137224362508,0.3155223487133667,0.0,0.0,0.0,-0.007748511763158622,-0.0006681427222877984,0.29852398996804097,0.0,0.0,0.0
19.423000000000002,211,19,423000000,,0.5901740829333818,-0.0012269693397279548,0.20642773340902637,0.9968919048535023,0.0,0.0,0.07878153360753849,0.0,0.0,0.1577265107672072,-0.013236733925153536,-0.0015474197569638978,0.31850976315554447,0.0,0.0,0.0,-0.00765365004631195,-0.0006530295708549826,0.29895536493185787,0.0,0.0,0.0
19.433,212,19,433000000,,0.5900413345164145,-0.0012424759343004253,0.20962778573324625,0.9968415449759771,0.0,0.0,0.0794162087354158,0.0,0.0,0.1589998507043846,-0.013312788198180542,-0.0015538736239589163,0.3215013852834593,0.0,0.0,0.0,-0.007556888007367159,-0.0006377094519605238,0.29936552140089345,0.0,0.0,0.0
19.443,213,19,443000000,,0.5899078304264652,-0.0012580462981052701,0.2128577744325073,0.9967906679317253,0.0,0.0,0.0800522599570117,0.0,0.0,0.16027601627975432,-0.013387865357827346,-0.001560173260875937,0.3244970027441524,0.0,0.0,0.0,-0.007458227731993256,-0.0006221837957747854,0.2997544261151438,0.0,0.0,0.0
19.453,214,19,453000000,,0.5897735805295427,-0.0012736788785890035,0.2161177383970211,0.9967392722587365,0.0,0.0,0.08068967181197567,0.0,0.0,0.16155497742378683,-0.013461946432862464,-0.0015663166196005522,0.32749640286231146,0.0,0.0,0.0,-0.0073576714748361345,-0.0006064540582834377,0.30012204786205365,0.0,0.0,0.0
19.463,215,19,463000000,,0.5896385948812523,-0.0012893721027902247,0.21940771438871887,0.9966873565278898,0.0,0.0,0.08132842883916529,0.0,0.0,0.16283670406695233,-0.013535012475441605,-0.0015723016667063305,0.33049937266069,0.0,0.0,0.0,-0.007255221658506909,-0.0005905217210547544,0.30046835746547296,0.0,0.0,0.0
19.473,216,19,473000000,,0.5895028837265542,-0.0013051243774877665,0.22272773703833504,0.9966349193431622,0.0,0.0,0.08196851557670667,0.0,0.0,0.16412116613972136,-0.013607044562782148,-0.0015781263837094594,0.3335056988804162,0.0,0.0,0.0,-0.007150880872570111,-0.0005743882910069004,0.3007933277746189,0.0,0.0,0.0
19.483,217,19,483000000,,0.5893664574995041,-0.0013209340893513921,0.2260778388426908,0.9965819593418348,0.0,0.0,0.08260991656205456,0.0,0.0,0.16540833357256396,-0.01367802379882768,-0.0015837887673210897,0.3365151680011907,0.0,0.0,0.0,-0.007044651872532067,-0.0005580553001752327,0.30109693365303597,0.0,0.0,0.0
19.493,218,19,493000000,,0.5892293268229776,-0.0013367996050949937,0.2294580501621816,0.996528475194697,0.0,0.0,0.08325261633205396,0.0,0.0,0.16669817629595057,-0.013747931315902353,-0.0015892868296973443,0.3395275662613758,0.0,0.0,0.0,-0.006936537578829018,-0.0005415243054795666,0.30137915196755394,0.0,0.0,0.0
19.503,219,19,503000000,,0.5890915025083783,-0.0013527192716322788,0.2328683992184621,0.9964744656062474,0.0,0.0,0.08389659942300147,0.0,0.0,0.16799066424035153,-0.013816748276355125,-0.0015946185986869935,0.34254267967797236,0.0,0.0,0.0,-0.0068265410758156135,-0.0005247968884914893,0.30163996157724904,0.0,0.0,0.0
19.513,220,19,513000000,,0.5889529955553295,-0.0013686914162349358,0.23630891209233426,0.9964199293148933,0.0,0.0,0.08454185037070773,0.0,0.0,0.16928576733623718,-0.013884455874193858,-0.0015997821180768165,0.3455602940664869,0.0,0.0,0.0,-0.006714665610752932,-0.000507874655201627,0.3018793433224028,0.0,0.0,0.0
19.523,221,19,523000000,,0.5888138171513494,-0.001384714346693218,0.23977961272182888,0.9963648650931468,0.0,0.0,0.08518835371056006,0.0,0.0,0.17058345551407772,-0.013951035336709336,-0.0016047754478346183,0.34858019506068905,0.0,0.0,0.0,-0.00660091459279702,-0.0004907592357869677,0.30209728001346325,0.0,0.0,0.0
19.533,222,19,533000000,,0.5886739786715098,-0.0014007863514789685,0.2432805229004884,0.9963092717478198,0.0,0.0,0.08583609397758601,0.0,0.0,0.1718836987043435,-0.014016467926089187,-0.00160959666434994,0.35160216813225786,0.0,0.0,0.0,-0.006485291591986907,-0.00047345228437810615,0.3022937564200029,0.0,0.0,0.0
19.543,223,19,543000000,,0.58853349167808,-0.00141690569991103,0.24681166227584259,0.9962531481202158,0.0,0.0,0.08648505570651704,0.0,0.0,0.17318646683750488,-0.014080734941021618,-0.0016142438606724279,0.35462599861031774,0.0,0.0,0.0,-0.006367800338233064,-0.00045595547882656766,0.30246875925967914,0.0,0.0,0.0
19.553,224,19,553000000,,0.5883923679201527,-0.0014330706423230242,0.2503730483480812,0.9961964930863194,0.0,0.0,0.087135223431853,0.0,0.0,0.17449172984403227,-0.01414381771828906,-0.001618715146747876,0.35765147170086375,0.0,0.0,0.0,-0.006248444720305615,-0.00043827052047208187,0.3026222771871953,0.0,0.0,0.0
19.563,225,19,563000000,,0.5882506193332562,-0.0014492794102334864,0.25396469646891817,0.9961393055569834,0.0,0.0,0.08778658168792684,0.0,0.0,0.17579945765439575,-0.014205697634351777,-0.0016230086496519522,0.3606783725060773,0.0,0.0,0.0,-0.006127228784822581,-0.00042039913390988276,0.30275430078325843,0.0,0.0,0.0
19.573,226,19,573000000,,0.5881082580389487,-0.0014655302165183276,0.25758661984065084,0.996081584478114,0.0,0.0,0.08843911500897038,0.0,0.0,0.17710962019906584,-0.014266356106921198,-0.001627122513821578,0.36370648604353134,0.0,0.0,0.0,-0.006004156735238179,-0.00040234306675797723,0.3028648225435405,0.0,0.0,0.0
19.583,227,19,583000000,,0.5879652963443992,-0.0014818212555855813,0.26123882951540833,0.9960233288308534,0.0,0.0,0.08909280792917978,0.0,0.0,0.17842218740851268,-0.014325774596523266,-0.0016310549012840008,0.3667355972652839,0.0,0.0,0.0,-0.00587923293083113,-0.0003841040894244675,0.3029538368676365,0.0,0.0,0.0
19.593,228,19,593000000,,0.5878217467419503,-0.0014981507035524602,0.2649213343945924,0.9959645376317595,0.0,0.0,0.08974764498278232,0.0,0.0,0.17973712921320675,-0.01438393460805162,-0.001634803991883529,0.36976549107686246,0.0,0.0,0.0,-0.005752461885692876,-0.0003656839948748077,0.30302134004802705,0.0,0.0,0.0
19.603,229,19,603000000,,0.5876776219086677,-0.0015145167184246323,0.2686341412285056,0.995905209932984,0.0,0.0,0.09040361070410288,0.0,0.0,0.18105441554361829,-0.014440817692310674,-0.0016383679835059509,0.3727959523561385,0.0,0.0,0.0,-0.005623848267715893,-0.0003470845983991087,0.30306733025903504,0.0,0.0,0.0
19.613,230,19,613000000,,0.587532934705873,-0.0015309174402777658,0.2723772546161696,0.9958453448224479,0.0,0.0,0.09106068962763166,0.0,0.0,0.1823740163302176,-0.014496405447548554,-0.0016417450923006027,0.3758267659720891,0.0,0.0,0.0,-0.005493396897581874,-0.00032830773737942603,0.30309180754578746,0.0,0.0,0.0
19.623,231,19,623000000,,0.5873876981786617,-0.0015473509914412501,0.27615067700532897,0.9957849414240142,0.0,0.0,0.0917188662880917,0.0,0.0,0.18369590150347512,-0.014550679520979907,-0.0016449335529001286,0.37885771680345104,0.0,0.0,0.0,-0.005361112747750208,-0.00030935527105705797,0.3030947738131737,0.0,0.0,0.0
19.633,232,19,633000000,,0.5872419255554062,-0.0015638154766841272,0.27995440869264154,0.9957239988976585,0.0,0.0,0.09237812522050722,0.0,0.0,0.18502004099386093,-0.01460362161029868,-0.0016479316186379179,0.3818885897572624,0.0,0.0,0.0,-0.005227000941446065,-0.00029022908029982015,0.30307623281480844,0.0,0.0,0.0
19.643,233,19,643000000,,0.5870956302472431,-0.0015803089834031743,0.28378844782405444,0.9956625164396383,0.0,0.0,0.09303845096027245,0.0,0.0,0.18634640473184558,-0.014655213465180665,-0.0016507375617631974,0.38491916978729607,0.0,0.0,0.0,-0.005091066751648652,-0.0002709310673693334,0.30303619014198613,0.0,0.0,0.0
19.653,234,19,653000000,,0.5869488258475463,-0.0015968295818131267,0.28765279039536173,0.9956004932826575,0.0,0.0,0.09369982804322059,0.0,0.0,0.18767496264789923,-0.014705436888775994,-0.0016533496736538117,0.38794924191237895,0.0,0.0,0.0,-0.004953315600079679,-0.00025146315568832606,0.302974653212645,0.0,0.0,0.0
19.663,235,19,663000000,,0.5868015261313845,-0.001613375325139019,0.2915474302529478,0.9955379286960309,0.0,0.0,0.09436224100569353,0.0,0.0,0.18900568467249226,-0.01475427373919155,-0.001655766265026667,0.39097859123460516,0.0,0.0,0.0,-0.004813753056191456,-0.00023182728960793221,0.30289163126032637,0.0,0.0,0.0
19.673000000000002,236,19,673000000,,0.5866537450549644,-0.0016299442498106192,0.2954723590947091,0.995474821985845,0.0,0.0,0.09502567438461172,0.0,0.0,0.190338540736095,-0.01480170593096315,-0.0016579856661458555,0.39400700295743657,0.0,0.0,0.0,-0.004672384836155177,-0.00021202543417493693,0.30278713532313184,0.0,0.0,0.0
19.683,237,19,683000000,,0.5865054967550591,-0.0016465343756589302,0.29942756647115937,0.995411172495117,0.0,0.0,0.09569011271754471,0.0,0.0,0.19167350076917775,-0.014847715436517677,-0.0016600062270284409,0.3970342624036923,0.0,0.0,0.0,-0.004529216801849333,-0.00019205957489912455,0.30266117823268684,0.0,0.0,0.0
19.693,238,19,693000000,,0.5863567955484222,-0.0016631437061147393,0.30341303978671086,0.9953469796039511,0.0,0.0,0.09635554054278184,0.0,0.0,0.1930105347022108,-0.014892284287625176,-0.0016618263176479378,0.40006015503342957,0.0,0.0,0.0,-0.004384254959847899,-0.00017193171752052745,0.3025137746030974,0.0,0.0,0.0
19.703,239,19,703000000,,0.5862076559311865,-0.0016797702284091877,0.30742876430113736,0.9952822427296927,0.0,0.0,0.09702194239940355,0.0,0.0,0.1943496124656645,-0.014935394576840655,-0.001663444328135436,0.40308446646171314,0.0,0.0,0.0,-0.004237505460408475,-0.00015164388777671813,0.3023449408199101,0.0,0.0,0.0
19.713,240,19,713000000,,0.5860580925782495,-0.0016964119137763492,0.31147472313121166,0.9952169613270796,0.0,0.0,0.09768930282735289,0.0,0.0,0.19569070399000912,-0.01497702845893591,-0.0016648586689784269,0.40610698247627464,0.0,0.0,0.0,-0.004088974596460823,-0.000131198131170122,0.3021546950290738,0.0,0.0,0.0
19.723,241,19,723000000,,0.5859081203426442,-0.0017130667176577705,0.3155508972525205,0.9951511348883919,0.0,0.0,0.09835760636750757,0.0,0.0,0.19703377920571502,-0.015017168152321174,-0.0016660677712172689,0.40912748905506063,0.0,0.0,0.0,-0.003938668802594907,-0.0001105965127352748,0.30194305712589703,0.0,0.0,0.0
19.733,242,19,733000000,,0.5857577542548947,-0.0017297325799089786,0.3196572655014538,0.9950847629435988,0.0,0.0,0.09902683756175225,0.0,0.0,0.19837880804325253,-0.015055795940456704,-0.0016670700866393661,0.4121457723836715,0.0,0.0,0.0,-0.0037865946540493528,-8.984111680615277e-05,0.30171004874401086,0.0,0.0,0.0
19.743,243,19,743000000,,0.5856070095223603,-0.001746407425007908,0.32379380457736834,0.995017845060503,0.0,0.0,0.09969698095305118,0.0,0.0,0.19972576043309193,-0.015092894173254096,-0.0016678640879709886,0.4151616188726906,0.0,0.0,0.0,-0.00363275886569953,-6.893404678341789e-05,0.3014556932443252,0.0,0.0,0.0
19.753,244,19,753000000,,0.5854559015285626,-0.0017630891622652438,0.3279604890449227,0.9949503808448824,0.0,0.0,0.1003680210855214,0.0,0.0,0.2010746063057036,-0.015128445268467735,-0.0016684482690667727,0.4181748151748999,0.0,0.0,0.0,-0.0034771682910460467,-4.7877424901735964e-05,0.30118001570399044,0.0,0.0,0.0
19.763,245,19,763000000,,0.5853044458325009,-0.001779775686036636,0.33215729133658656,0.9948823699406308,0.0,0.0,0.10103994250450589,0.0,0.0,0.20242531559155771,-0.01516243171307586,-0.001668821145096905,0.421185148202388,0.0,0.0,0.0,-0.00331982992120282,-2.6673391997070332e-05,0.3008830429053577,0.0,0.0,0.0
19.773,246,19,773000000,,0.5851526581679526,-0.0017964648759367886,0.33638418175531687,0.994813812029895,0.0,0.0,0.10171272975664754,0.0,0.0,0.20377785822112468,-0.015194836064651782,-0.001668981252731969,0.42419240514354706,0.0,0.0,0.0,-0.0031607508838854266,-5.324107273932371e-06,0.3005648033249363,0.0,0.0,0.0
19.783,247,19,783000000,,0.5850005544427609,-0.001813154597055374,0.34064112847740735,0.9947447068332093,0.0,0.0,0.10238636738996304,0.0,0.0,0.20513220412487485,-0.015225640952724709,-0.001668927150325467,0.42719637347996026,0.0,0.0,0.0,-0.0029999384423993795,1.6168251927283134e-05,0.30022532712235617,0.0,0.0,0.0
19.793,248,19,793000000,,0.5848481507381086,-0.0018298427001747653,0.3449280975555024,0.9946750541096289,0.0,0.0,0.10306083995391718,0.0,0.0,0.20648832323327845,-0.01525482908013065,-0.0016686574180940106,0.43019684100317496,0.0,0.0,0.0,-0.002837399994628498,3.780149036304235e-05,0.2998646461293264,0.0,0.0,0.0
19.803,249,19,803000000,,0.5846954633077773,-0.0018465270219895616,0.34924505292178254,0.9946048536568595,0.0,0.0,0.10373613199949765,0.0,0.0,0.20784618547680586,-0.01528238322435312,-0.0016681706582951999,0.43319359583137124,0.0,0.0,0.0,-0.002673143072022996,5.9573395119342207e-05,0.29948279383859533,0.0,0.0,0.0
19.813,250,19,813000000,,0.5845425085773958,-0.0018632053853278715,0.353591956391311,0.9945341053113858,0.0,0.0,0.1044122280792898,0.0,0.0,0.20920576078592734,-0.01530828623885374,-0.0016674654954031527,0.43618642642591476,0.0,0.0,0.0,-0.002507175338587873,8.148173584447902e-05,0.2990798053929086,0.0,0.0,0.0
19.823,251,19,823000000,,0.5843893031436722,-0.0018798755993743531,0.3579687676655503,0.9944628089485963,0.0,0.0,0.10508911274755214,0.0,0.0,0.2105670190911133,-0.015332521054392775,-0.001666540576281719,0.43917512160780436,0.0,0.0,0.0,-0.002339504589871163,0.00010352426498170964,0.2986557175739722,0.0,0.0,0.0
19.833,252,19,833000000,,0.5842358637736155,-0.0018965354598949652,0.3623754443360381,0.9943909644829074,0.0,0.0,0.10576677056029142,0.0,0.0,0.21192993032283397,-0.015355070680339434,-0.00166539457035538,0.44215947057400273,0.0,0.0,0.0,-0.002170138751952207,0.00012569871800197847,0.29821056879140956,0.0,0.0,0.0
19.843,253,19,843000000,,0.5840822074037423,-0.0019131827494634122,0.36681194188822985,0.9943185718678831,0.0,0.0,0.10644518607533879,0.0,0.0,0.21329446441155972,-0.01537591820597217,-0.0016640261697777972,0.44513926291366346,0.0,0.0,0.0,-0.0019990858804299154,0.00014800281363664625,0.2977443990717225,0.0,0.0,0.0
19.853,254,19,853000000,,0.5839283511392713,-0.0019298152376892844,0.37127821370550057,0.9942456310963541,0.0,0.0,0.10712434385242554,0.0,0.0,0.21466059128776083,-0.015395046801768878,-0.0016624340895980412,0.44811428862424385,0.0,0.0,0.0,-0.001826354159411014,0.00017043425411017717,0.2972572500472493,0.0,0.0,0.0
19.863,255,19,863000000,,0.5837743122533058,-0.0019464306814478134,0.3757742110733081,0.9941721422005334,0.0,0.0,0.10780422845325954,0.0,0.0,0.21602828088190767,-0.015412439720686701,-0.0016606170679245142,0.45108433812750703,0.0,0.0,0.0,-0.001651951900498478,0.0001929907253728312,0.29674916494512865,0.0,0.0,0.0
19.873,256,19,873000000,,0.583620108186001,-0.001963026825111294,0.3802998831835153,0.99409810525213,0.0,0.0,0.10848482444160155,0.0,0.0,0.21739750312447043,-0.015428080299432243,-0.0016585738660865068,0.4540492022854163,0.0,0.0,0.0,-0.0014758875417795292,0.00021566989733344495,0.2962201885762537,0.0,0.0,0.0
19.883,257,19,883000000,,0.5834657565437215,-0.001979601400782078,0.38485517713887246,0.9940235203624603,0.0,0.0,0.10916611638334206,0.0,0.0,0.21876822794591944,-0.015441951959720982,-0.0016563032687934554,0.4570086724159148,0.0,0.0,0.0,-0.001298169646814258,0.0002384694240920545,0.29567036732423724,0.0,0.0,0.0
19.893,258,19,893000000,,0.5833112750981845,-0.0019961521285271687,0.38944003795765353,0.9939483876825568,0.0,0.0,0.10984808884657828,0.0,0.0,0.22014042527672523,-0.01545403820952736,-0.0016538040842918832,0.4599625403086022,0.0,0.0,0.0,-0.0011188069036234395,0.00026138694417268156,0.29509974913436676,0.0,0.0,0.0
19.903,259,19,903000000,,0.5831566817855908,-0.0020126767166143656,0.394054408578452,0.9938727074032744,0.0,0.0,0.11053072640169098,0.0,0.0,0.2215140650473579,-0.015464322644323996,-0.00165107514451998,0.4629105982402913,0.0,0.0,0.0,-0.0009378081236773215,0.00028442008075599105,0.2945083835025675,0.0,0.0,0.0
19.913,260,19,913000000,,0.583001994705744,-0.0020291728617499423,0.39869822986513015,0.9937964797553945,0.0,0.0,0.11121401362142214,0.0,0.0,0.22288911718828794,-0.015472788948311233,-0.0016481153052598653,0.465852638990462,0.0,0.0,0.0,-0.0007551822408834829,0.000307566441912032,0.29389632146436206,0.0,0.0,0.0
19.923000000000002,261,19,923000000,,0.582847232121157,-0.0020456382493178405,0.40337144061192187,0.9937197050097272,0.0,0.0,0.11189793508095215,0.0,0.0,0.2242655516299854,-0.015479420895636569,-0.0016449234462875635,0.46878845585660217,0.0,0.0,0.0,-0.0005709383105752404,0.00033082362083294544,0.2932636155838262,0.0,0.0,0.0
19.933,262,19,933000000,,0.5826924124561461,-0.0020620705536203445,0.4080739775486904,0.9936423834772098,0.0,0.0,0.11258247535797786,0.0,0.0,0.22564333830292085,-0.015484202351603586,-0.0016414984715205645,0.47171784266943545,0.0,0.0,0.0,-0.0003850855085001447,0.0003541891960656378,0.29261031994255593,0.0,0.0,0.0
19.943,263,19,943000000,,0.5825375542959143,-0.0020784674381202355,0.412805775346334,0.9935645155090045,0.0,0.0,0.11326761903278998,0.0,0.0,0.22702244713756442,-0.015487117273871354,-0.0016378393091631856,0.4746405938080449,0.0,0.0,0.0,-0.00019763312980794267,0.00037766073174455475,0.29193649012861933,0.0,0.0,0.0
19.953,264,19,953000000,,0.5823826763856209,-0.002094826555684358,0.41756676662234754,0.9934861014965924,0.0,0.0,0.11395335068835147,0.0,0.0,0.22840284806438663,-0.015488149713643127,-0.0016339449118494603,0.4775565042148794,0.0,0.0,0.0,-8.590588038887356e-06,0.00040123577782434557,0.29124218322552187,0.0,0.0,0.0
19.963,265,19,963000000,,0.5822277976294407,-0.002111145548828639,0.42235688194652876,0.9934071418718662,0.0,0.0,0.11463965491037538,0.0,0.0,0.22978451101385763,-0.015487283816845342,-0.0016298142567838106,0.480465369410654,0.0,0.0,0.0,0.00018203258588775915,0.00042491187031258007,0.2905274578011637,0.0,0.0,0.0
19.973,266,19,973000000,,0.5820729370896105,-0.0021274220499644778,0.42717604984683555,0.9933276371072192,0.0,0.0,0.11532651628740323,0.0,0.0,0.23116740591644774,-0.015484503825296331,-0.001625446345879372,0.48336698550914026,0.0,0.0,0.0,0.0003742267446857076,0.0004486865315024824,0.2897923738967996,0.0,0.0,0.0
19.983,267,19,983000000,,0.5819181139854652,-0.0021436536816465154,0.4320241968153897,0.9932475877156335,0.0,0.0,0.11601391941088347,0.0,0.0,0.2325515027026274,-0.015479794077864836,-0.0016208402058939184,0.48626114923184094,0.0,0.0,0.0,0.0005679821257131519,0.00047255727020560775,0.28903699301600133,0.0,0.0,0.0
19.993,268,19,993000000,,0.5817633476924604,-0.0021598380568217507,0.43690124731462854,0.9931669942507647,0.0,0.0,0.11670184887524984,0.0,0.0,0.2339367713028669,-0.015473139011618646,-0.0016159948885635603,0.48914765792256154,0.0,0.0,0.0,0.0007632888519846958,0.000496521581984573,0.2882613781136127,0.0,0.0,0.0
20.003,269,20,3000000,,0.5816086577411854,-0.0021759727790799837,0.44180712378359727,0.9930858573070244,0.0,0.0,0.11739028927799998,0.0,0.0,0.2353231816476364,-0.0154645231629629,-0.0016109094707340591,0.4920263095618656,0.0,0.0,0.0,0.0009601369331830298,0.0005205769493857818,0.2874655935847121,0.0,0.0,0.0
20.013,270,20,13000000,,0.5814540638163642,-0.002192055442905564,0.4467417466443926,0.9930041775196607,0.0,0.0,0.11807922521977422,0.0,0.0,0.23671070366740635,-0.015453931168768314,-0.0016055830544898326,0.494896902781424,0.0,0.0,0.0,0.001158516266670469,0.0005447208421720999,0.28664970525357375,0.0,0.0,0.0
20.023,271,20,23000000,,0.5812995857558451,-0.0022080836339304004,0.45170503430874126,0.9929219555648362,0.0,0.0,0.11876864130443426,0.0,0.0,0.238099307292647,-0.015441347767489427,-0.0016000147672805918,0.4977592368782484,0.0,0.0,0.0,0.001358416638501019,0.0005689507175555938,0.28581378036262367,0.0,0.0,0.0
20.033,272,20,33000000,,0.581145243549579,-0.0022240549291882472,0.4566969031847266,0.9928391921597033,0.0,0.0,0.11945852213914206,0.0,0.0,0.23948896245382884,-0.01542675780027248,-0.0015942037620457353,0.5006131118288203,0.0,0.0,0.0,0.00155982772443165,0.0005932640204302202,0.28495788756140383,0.0,0.0,0.0
20.043,273,20,43000000,,0.5809910573385879,-0.002239966897370207,0.4617172676836514,0.9927558880624769,0.0,0.0,0.12014885233443849,0.0,0.0,0.2408796390814218,-0.01541014621205352,-0.0015881492173363404,0.5034583283031069,0.0,0.0,0.0,0.0017627390909346118,0.0006176581836045715,0.28408209689552677,0.0,0.0,0.0
20.053,274,20,53000000,,0.5808370474139204,-0.002255817099081459,0.4667660402270454,0.9926720440725065,0.0,0.0,0.12083961650432283,0.0,0.0,0.24227130710589667,-0.015391498052645983,-0.0015818503374348388,0.5062946876784651,0.0,0.0,0.0,0.001967140196208597,0.0006421306280345361,0.28318647979564027,0.0,0.0,0.0
20.063,275,20,63000000,,0.5806832342155983,-0.002271603087099148,0.4718431312538044,0.9925876610303429,0.0,0.0,0.12153079926633105,0.0,0.0,0.24366393645772347,-0.015370798477818528,-0.0015753063524724126,0.5091219920534371,0.0,0.0,0.0,0.002173020391190725,0.0006666787630560504,0.28227110906638475,0.0,0.0,0.0
20.073,276,20,73000000,,0.5805296383315515,-0.002287322406631454,0.4769484492274742,0.9925027398178053,0.0,0.0,0.12222238524161526,0.0,0.0,0.24505749706737256,-0.015348032750362521,-0.0015685165185440096,0.5119400442614367,0.0,0.0,0.0,0.002380368920568355,0.0006912999866178037,0.2813360588753526,0.0,0.0,0.0
20.083,277,20,83000000,,0.5803762804965423,-0.0023029725955778066,0.4820819006436649,0.992417281358045,0.0,0.0,0.12291435905502257,0.0,0.0,0.2464519588653142,-0.015323186241149405,-0.0015614801178210624,0.5147486478843208,0.0,0.0,0.0,0.002589174923790514,0.0007159916855139032,0.28038140474205064,0.0,0.0,0.0
20.093,278,20,93000000,,0.5802231815910799,-0.0023185511847901696,0.48724339003760353,0.9923312866156058,0.0,0.0,0.12360670533517425,0.0,0.0,0.24784729178201895,-0.015296244430178327,-0.0015541964586618566,0.5175476072658568,0.0,0.0,0.0,0.0027994274360801444,0.0007407512356166627,0.2794072235268543,0.0,0.0,0.0
