Time,header.seq,header.stamp.secs,header.stamp.nsecs,header.frame_id,position_controller_output.thrust.num,position_controller_output.orientation_set_point.w,position_controller_output.orientation_set_point.x,position_controller_output.orientation_set_point.y,position_controller_output.orientation_set_point.z,position_controller_output.euler_set_point.phi,position_controller_output.euler_set_point.theta,position_controller_output.euler_set_point.psi
18.233,92,18,233000000,,10.434592416782877,0.9998464428971903,6.205565180388669e-05,-0.0005292123940969536,0.017515898754382125,0.00010555304355096391,-0.0010604363793260726,0.03503353809554843
18.243,93,18,243000000,,10.444386650382187,0.9998400454541416,6.344966743647026e-05,-0.0005393908137892163,0.01787703940673065,0.00010759367813825316,-0.0010808778664277,0.03575593064588041
18.253,94,18,253000000,,10.454337755139306,0.999833459005422,6.48285544043262e-05,-0.0005496699376826735,0.01824137915485505,0.00010958210679829523,-0.0011015221374465133,0.036484727108437275
18.263,95,18,263000000,,10.464441119015243,0.9998266803362323,6.618900580602645e-05,-0.0005600370500741786,0.01860890285179368,0.00011151178824741883,-0.0011223436144673718,0.037219897413689286
18.273,96,18,273000000,,10.474692623334114,0.9998197062203995,6.753154100434113e-05,-0.0005704850499425345,0.018979595350074516,0.00011338365452322781,-0.0011433280818094994,0.037961411492106814
18.283,97,18,283000000,,10.485088591256066,0.9998125334220441,6.88582465610371e-05,-0.0005810101741348979,0.01935344150050155,0.00011520166141046665,-0.0011644680595519026,0.03870923927416015
18.293,98,18,293000000,,10.495625733390467,0.9998051586979807,7.017016905513014e-05,-0.0005916087984566671,0.019730426150559307,0.00011696768909616051,-0.00118575630979898,0.03946335069031962
18.303,99,18,303000000,,10.50630109993736,0.9997975788001773,7.146619004204019e-05,-0.0006022743131559761,0.020110534143546837,0.00011867941801650266,-0.001207179539843905,0.04022371567105555
18.313,100,18,313000000,,10.51711205245198,0.9997897904764073,7.274345168206412e-05,-0.0006129970691033951,0.020493750318699135,0.00012033119399619404,-0.0012287183040112029,0.04099030414683822
18.323,101,18,323000000,,10.528056252998127,0.9997817904690094,7.399884151801486e-05,-0.0006237672038219026,0.020880059512099387,0.00012191689145937368,-0.0012503527099717038,0.041763086048137985
18.333,102,18,333000000,,10.539131651905889,0.9997735755127497,7.52307562627681e-05,-0.0006345785262343886,0.02126944655790055,0.0001234332764346292,-0.0012720702604030383,0.04254203130542513
18.343,103,18,343000000,,10.550336458298608,0.9997651423343091,7.643957726003611e-05,-0.000645429644446265,0.021661896288729957,0.00012488089449517634,-0.001293868134092739,0.04332710984916999
18.353,104,18,353000000,,10.561669094943607,0.9997564876537689,7.762636374388228e-05,-0.0006563221739524968,0.02205739353485041,0.00012626151820603146,-0.0013157495529445133,0.04411829160984287
18.363,105,18,363000000,,10.573128150414556,0.9997476081877588,7.879142834505219e-05,-0.0006672566647737358,0.022455923123081468,0.00012757546982538744,-0.0013377155767949527,0.04491554651791409
18.373,106,18,373000000,,10.584712349441881,0.9997385006524484,7.9933930127323e-05,-0.0006782290270199747,0.022857469876343118,0.00012882097525226184,-0.0013597579349626091,0.04571884450385398
18.383,107,18,383000000,,10.596420556590417,0.9997291617643727,8.1052206663837e-05,-0.0006892303356262593,0.02326201861380493,0.00012999485594216434,-0.0013818586470607896,0.04652815549813282
18.393,108,18,393000000,,10.60825179868211,0.9997195882384896,8.21444923110729e-05,-0.0007002505396530116,0.023669554151459212,0.00013109380950486775,-0.0014039974706113855,0.04734344943122095
18.403,109,18,403000000,,10.620205272204007,0.9997097767849298,8.320973998370408e-05,-0.0007112836393008355,0.024080061302853617,0.00013211580863677452,-0.0014261622912864662,0.0481646962335887
18.413,110,18,413000000,,10.6322803172333,0.9996997241077122,8.424759285063571e-05,-0.0007223297733194761,0.024493524879148878,0.00013305992606586734,-0.0014483532976025072,0.04899186583570635
18.423000000000002,111,18,423000000,,10.644476368010848,0.9996894269063314,8.525759319049449e-05,-0.0007333933106025397,0.02490992968848136,0.0001339248225632394,-0.0014705791280963572,0.04982492816804423
18.433,112,18,433000000,,10.656792905481874,0.9996788818799998,8.623890779868754e-05,-0.0007444774852835832,0.025329260535559887,0.00013470845198258465,-0.00149284613016428,0.05066385316107267
18.443,113,18,443000000,,10.66922944096721,0.9996680857321338,8.719085830504211e-05,-0.000755579064130404,0.025751502221878154,0.00013540940077437052,-0.0015151477241935685,0.05150861074526197
18.453,114,18,453000000,,10.68178554172476,0.999657035171452,8.811323451935183e-05,-0.0007666879162229847,0.026176639545963238,0.00013602756429358402,-0.0015374635609328156,0.05235917085108245
18.463,115,18,463000000,,10.694460872071373,0.9996457269086393,8.900601192189847e-05,-0.000777792388462948,0.026604657303346095,0.00013656332562314854,-0.0015597702564447522,0.053215503409004425
18.473,116,18,473000000,,10.707255208565206,0.999634157651654,8.986875972089912e-05,-0.0007888859889302009,0.027035540286276177,0.00013701601787277016,-0.0015820547229559833,0.05407757834949821
18.483,117,18,483000000,,10.720032108555785,0.9996223241948476,9.07050357201932e-05,-0.0007998556824328275,0.02746927328443041,0.00013739882579118552,-0.0016040910833334278,0.05494536560303412
18.493,118,18,493000000,,10.733200402138928,0.9996102229640276,9.149665911344127e-05,-0.0008110535631812335,0.0279058410782787,0.00013765591049109762,-0.0016265821659717141,0.05581883510008248
18.503,119,18,503000000,,10.74635109075541,0.999597850936379,9.225653861375292e-05,-0.0008221411435164015,0.028345228452844807,0.00013783150619784331,-0.0016488518529028657,0.0566979567711136
18.513,120,18,513000000,,10.759620261893527,0.9995852047329188,9.297927150710236e-05,-0.0008332304106464672,0.02878742018636457,0.00013790849340647581,-0.0016711236257580993,0.05758270054659779
18.523,121,18,523000000,,10.77300778825752,0.9995722810768128,9.366706870279761e-05,-0.000844309076070946,0.02923240105706807,0.0001378918461346005,-0.001693372934134893,0.05847303635700539
18.533,122,18,533000000,,10.78651361097516,0.9995590766964569,9.432258398859618e-05,-0.0008553632330853929,0.02968015584049277,0.00013778756501337907,-0.0017155720265315147,0.05936893413280667
18.543,123,18,543000000,,10.800137750753604,0.9995455883188534,9.494619857507688e-05,-0.0008663859592286221,0.03013066930730528,0.0001375967383461528,-0.001737706986216513,0.06027036380447197
18.553,124,18,553000000,,10.813880276929197,0.9995318126665386,9.553437327097588e-05,-0.0008773810977310777,0.030583926221729216,0.00013731198610063573,-0.0017597851787730387,0.061177295302471624
18.563,125,18,563000000,,10.827741252898685,0.9995177464604357,9.608086899179972e-05,-0.0008883597146038431,0.031039911342275545,0.00013692007152491128,-0.0017818282261422953,0.0620896985572759
18.573,126,18,573000000,,10.841720698836918,0.9995033864281877,9.658096472091923e-05,-0.0008993302955651321,0.03149860942520703,0.00013641091751326955,-0.001803852662295455,0.06300754349935517
18.583,127,18,583000000,,10.855821527074577,0.9994887293125693,9.703536279836922e-05,-0.0009102895714149495,0.03196000522810046,0.00013578601075492822,-0.001825851849968909,0.06393080005917971
18.593,128,18,593000000,,10.870047456061654,0.9994737718721767,9.744990474857796e-05,-0.0009212229143428007,0.03242408350998453,0.00013505786130149335,-0.0018477967810706555,0.0648594381672199
18.603,129,18,603000000,,10.88439116776657,0.9994585108738233,9.783093561708549e-05,-0.0009321141956210228,0.03289082902746107,0.0001342401402028197,-0.001869655502258185,0.06579342775394596
18.613,130,18,613000000,,10.89885252805518,0.9994429430835937,9.817965082785016e-05,-0.0009429565545349545,0.03336022652945619,0.0001333356687108857,-0.0018914142666523006,0.06673273874982825
18.623,131,18,623000000,,10.913431739331049,0.9994270652635364,9.848945401668547e-05,-0.0009537561496725429,0.0338322607543331,0.00013233084101560682,-0.0019130848280158417,0.06767734108533706
18.633,132,18,633000000,,10.928128970362424,0.9994108741757661,9.874936007580016e-05,-0.0009645271794927036,0.034306916432621154,0.00013120270779267868,-0.0019346946822748064,0.06862720469094279
18.643,133,18,643000000,,10.942666731975645,0.9993943668268693,9.891183962753902e-05,-0.0009750457525502356,0.03478417825606253,0.00012987178889640268,-0.001955792845975481,0.06958229949711567
18.653,134,18,653000000,,10.957877968661027,0.9993775393099523,9.910003589666956e-05,-0.0009860092280910256,0.0352640310765779,0.0001285356316626142,-0.001977781575092191,0.07054259543432603
18.663,135,18,663000000,,10.97293002270585,0.9993603891400092,9.920439884860733e-05,-0.000996698633350002,0.03574645952050216,0.0001270252527660061,-0.0019992160119810475,0.07150806243304422
18.673000000000002,136,18,673000000,,10.988100453337152,0.999342912907372,9.927615593010284e-05,-0.0010073308232982573,0.03623144836555741,0.00012542799263819327,-0.002020533051089752,0.07247867042374054
18.683,137,18,683000000,,11.003389376705888,0.9993251074361005,9.931669912484781e-05,-0.0010178998246026495,0.03671898233838441,0.000123747108925914,-0.002041720737929842,0.07345438933688526
18.693,138,18,693000000,,11.018796906611453,0.9993069695471515,9.931475042504219e-05,-0.0010284141836854298,0.037209046149231775,0.0001219594826932202,-0.0020627951998476468,0.07443518910294879
18.703,139,18,703000000,,11.034323122146407,0.9992884960640501,9.925339813012492e-05,-0.0010388902652063595,0.037701624498538866,0.00012003011742918735,-0.002083787718107163,0.07542103965240136
18.713,140,18,713000000,,11.04996806695288,0.9992696838257072,9.91229126389836e-05,-0.0010493383371267576,0.03819670209027938,0.00011793877693311312,-0.0021047178673884227,0.07641191091571331
18.723,141,18,723000000,,11.065731770541003,0.999250529697077,9.892924010984008e-05,-0.001059752020547743,0.03869426364167412,0.00011569780463172972,-0.0021255731245349704,0.07740777282335495
18.733,142,18,733000000,,11.081614267100383,0.9992310305662567,9.86902541381098e-05,-0.0010701125963439066,0.03919429388012192,0.00011334437483978636,-0.0021463172624791933,0.07840859530579665
18.743,143,18,743000000,,11.097237578906693,0.9992111836907926,9.835074239101157e-05,-0.0010800803391557803,0.03969677746162099,0.00011079516590597843,-0.002166266817683053,0.07941434829350864
18.753,144,18,753000000,,11.113735851645282,0.9991909848944645,9.81240584654981e-05,-0.0010906197823991027,0.040201699289823735,0.00010840007171297741,-0.0021873661610921444,0.08042500171696132
18.763,145,18,763000000,,11.129975134986775,0.9991704321528598,9.777949353954696e-05,-0.0011007724343311152,0.04070904384391617,0.00010577422900983655,-0.0022076813505243036,0.08144052550662495
18.773,146,18,773000000,,11.146333220571803,0.9991495220123778,9.736455040477465e-05,-0.0011108782403069376,0.04121879585961234,0.00010298561693895284,-0.002227895267719786,0.08246088959296988
18.783,147,18,783000000,,11.162810074969313,0.9991282513984985,9.686838162919901e-05,-0.0011209457067865311,0.04173094001598829,0.00010001189028099606,-0.0022480237585540425,0.08348606390646635
18.793,148,18,793000000,,11.179405684949426,0.999106617265697,9.630257570432534e-05,-0.0011309665688593118,0.04224546101453021,9.687692242643076e-05,-0.002268051003618421,0.0845160183775848
18.803,149,18,803000000,,11.196120037607832,0.9990846165922026,9.569296797530977e-05,-0.0011409224309037516,0.042762343570879054,9.363395569289558e-05,-0.0022879422061364446,0.08555072293679541
18.813,150,18,813000000,,11.21295308794258,0.9990622463676463,9.505934722206589e-05,-0.001150798792694724,0.043281572391630614,9.032388806484377e-05,-0.00230766993811762,0.08659014751456863
18.823,151,18,823000000,,11.22990473487846,0.999039503585757,9.439846991223465e-05,-0.0011605936287158787,0.04380313215378484,8.694056439417994e-05,-0.002327229763411102,0.08763426204137467
18.833,152,18,833000000,,11.246974840055941,0.9990163852438718,9.368424338052444e-05,-0.0011703176084707709,0.04432700750361302,8.343106334056823e-05,-0.0023466405716376496,0.0886830364476839
18.843,153,18,843000000,,11.264163277961268,0.9989928883497748,9.288689812765087e-05,-0.0011799857314351524,0.04485318307848623,7.973469246338755e-05,-0.002365929461473075,0.08973644066396662
18.853,154,18,853000000,,11.281469967219373,0.9989690099344805,9.199707609161033e-05,-0.0011896037218432703,0.04538164353620062,7.58323276996989e-05,-0.0023851067228477536,0.09079444462069314
18.863,155,18,863000000,,11.298894857367909,0.9989447470585193,9.103471408018651e-05,-0.0011991623313886049,0.04591237356720236,7.176472846813207e-05,-0.0024041553792106102,0.09185701824833382
18.873,156,18,873000000,,11.316437877689463,0.998920096804793,9.003415945092012e-05,-0.001208645924004421,0.0464453578776556,6.760207607599791e-05,-0.0024230471153466934,0.09292413147735885
18.883,157,18,883000000,,11.334098874065663,0.9988950562692113,8.901660609169962e-05,-0.0012180440208822557,0.046980581155792664,6.338785256101507e-05,-0.002441762831709856,0.0939957542382387
18.893,158,18,893000000,,11.351881217335302,0.9988696225575749,8.797190818711045e-05,-0.001227356106515948,0.047518028048510214,5.910202857210749e-05,-0.0024603004469845235,0.09507185646144359
18.903,159,18,903000000,,11.369789237047595,0.9988437927854664,8.686425856198953e-05,-0.0012365909523537784,0.04805768316681004,5.4672426544831534e-05,-0.0024786739220682428,0.09615240807744385
18.913,160,18,913000000,,11.38781362130308,0.9988175640833251,8.565965140669614e-05,-0.001245759230483649,0.04859953111930705,5.003025571639184e-05,-0.002496901032333993,0.09723737901670985
18.923000000000002,161,18,923000000,,11.405957667688561,0.9987909336050494,8.43540566081722e-05,-0.0012548635401894207,0.04914355654856872,4.516736207060805e-05,-0.0025149862216865735,0.09832673920971186
18.933,162,18,933000000,,11.424226095851047,0.9987638985306396,8.297832213552831e-05,-0.0012638963054725204,0.04968974413906018,4.014626573804465e-05,-0.0025329170543683718,0.0994204585869202
18.943,163,18,943000000,,11.442609586686983,0.9987364560607839,8.157403848755707e-05,-0.0012728474623525932,0.05023807858745723,3.5051224552185555e-05,-0.0025506773389888343,0.10051850707880516
18.953,164,18,953000000,,11.46110765475838,0.9987086034140965,8.015981812066121e-05,-0.0012817108139390294,0.050788544559360764,2.9920245119012417e-05,-0.0025682564582724166,0.10162085461583713
18.963,165,18,963000000,,11.47972007795225,0.9986803378286129,7.871469181551962e-05,-0.0012904848361049788,0.05134112666676503,2.4711821773704584e-05,-0.0025856491471878433,0.10272747112848633
18.973,166,18,973000000,,11.49844664300611,0.9986516565589844,7.719327450949394e-05,-0.0012991731996868418,0.05189580948585233,1.9335158705843362e-05,-0.002602857889986297,0.10383832654722315
18.983,167,18,983000000,,11.517287265311353,0.9986225568760866,7.556188923268863e-05,-0.0013077811072575273,0.05245257760342918,1.3722681117830636e-05,-0.0026198892551187367,0.10495339080251785
18.993,168,18,993000000,,11.536241965512412,0.9985930360705599,7.382664113426098e-05,-0.0013163097134998836,0.05301141565499281,7.886684136082168e-06,-0.00263674579124184,0.10607263382484078
19.003,169,19,3000000,,11.555310756054373,0.9985630914528202,7.203003926858254e-05,-0.0013247569283033926,0.05357230832194003,1.912510882299898e-06,-0.0026534274920980553,0.10719602554466229
19.013,170,19,13000000,,11.574493500408598,0.9985327203539988,7.02170640479339e-05,-0.0013331207780848794,0.054135240287614864,-4.109569997612157e-06,-0.0026699350415999535,0.10832353589245261
19.023,171,19,23000000,,11.593789830467262,0.9985019201343545,6.839809638575499e-05,-0.0013413972854538305,0.05470019618822339,-1.0158164862744502e-05,-0.002686261539636245,0.10945513479868216
19.033,172,19,33000000,,11.61319925687655,0.9984706881856905,6.653901282968062e-05,-0.0013495799178992085,0.05526716059830196,-1.6300451784132762e-05,-0.002702390112607515,0.11059079219382113
19.043,173,19,43000000,,11.632721404344156,0.9984390219212071,6.458782324626445e-05,-0.0013576645205959491,0.0558361180642615,-2.263951043297488e-05,-0.0027183064864098223,0.11173047800833993
19.053,174,19,53000000,,11.652356107368863,0.998406918766736,6.251719036166923e-05,-0.0013656514907007312,0.05640705316109835,-2.9229670920147493e-05,-0.002734008020865715,0.11287416217270889
19.063,175,19,63000000,,11.672103310708414,0.9983743761586805,6.034742098180556e-05,-0.0013735451013201251,0.05697995052480112,-3.603056248186045e-05,-0.002749505117709856,0.11402181461739821
19.073,176,19,73000000,,11.691962893905874,0.9983413915469678,5.813106021825012e-05,-0.0013813531694766735,0.05755479483296705,-4.293787354788038e-05,-0.0027648190558364222,0.11517340527287835
19.083,177,19,83000000,,11.711934496448183,0.9983079624098115,5.5910171755772e-05,-0.0013890808420276566,0.05813157074806465,-4.986795591466957e-05,-0.002779964802952128,0.11632890406961954
19.093,178,19,93000000,,11.732017485271756,0.9982740862715888,5.368134085946018e-05,-0.0013967213884405864,0.05871026287031513,-5.6826598735737457e-05,-0.00279492846573002,0.1174882809380921
19.103,179,19,103000000,,11.752211193378786,0.9982397606995601,5.139761826849116e-05,-0.0014042587193788768,0.059290855738629245,-6.390536226513032e-05,-0.002809672290237924,0.11865150580876632
19.113,180,19,113000000,,11.772515196838166,0.9982049832812616,4.9006778815090955e-05,-0.0014116801456800746,0.05987333388043639,-7.120665576254311e-05,-0.002824164465104651,0.1198185486121126
19.123,181,19,123000000,,11.792929324138239,0.9981697516060609,4.649446578407773e-05,-0.0014189854899682567,0.06045768187036775,-7.875872527901415e-05,-0.002838402494627653,0.12098937927860119
19.133,182,19,133000000,,11.8134534672574,0.9981340632612131,4.389686032764834e-05,-0.0014261887439368575,0.061043884348826676,-8.649065032656977e-05,-0.0028524182696718975,0.12216396773870243
19.143,183,19,143000000,,11.834087351795997,0.9980979158472155,4.127121008696238e-05,-0.0014333100644489552,0.0616319259831357,-9.429028951894603e-05,-0.002866258749103453,0.12334228392288663
19.153,184,19,153000000,,11.854830362366249,0.9980613070112754,3.864866704941032e-05,-0.0014403567534455642,0.06222179140500577,-0.00010209610019724687,-0.0028799422474820972,0.12452429776162412
19.163,185,19,163000000,,11.87568163463528,0.9980242344676644,3.60083521494253e-05,-0.00144731173792242,0.06281346517558357,-0.00010994737517776056,-0.002893432034575564,0.1257099791853852
19.173,186,19,173000000,,11.896640430748288,0.9979866959784041,3.329466851526307e-05,-0.00145414595331115,0.06340693180654508,-0.00011795109268546553,-0.0029066629492965883,0.12689929812464013
19.183,187,19,183000000,,11.91770636847015,0.9979486893141596,3.04635473232538e-05,-0.0014608416577243548,0.06400217582062565,-0.00012619251317007755,-0.0029195936496476814,0.12809222450985935
19.193,188,19,193000000,,11.938879295531702,0.9979102122292814,2.7519202748381986e-05,-0.001467406477977831,0.06459918180156977,-0.00013466370811311676,-0.002932239457604849,0.12928872827151308
19.203,189,19,203000000,,11.96015902086778,0.9978712624662832,2.4510751639326145e-05,-0.0014738705384557647,0.06519793439063028,-0.00014327010160993008,-0.0029446664661576367,0.13048877934007166
19.213,190,19,213000000,,11.981545051419836,0.9978318377944295,2.1491411156712844e-05,-0.001480263447862343,0.06579841823353713,-0.00015190902298575014,-0.0029569405039184954,0.1316923476460054
19.223,191,19,223000000,,12.00303649030201,0.9977919360589328,1.847426840185318e-05,-0.0014865846130457877,0.0664006179237538,-0.00016055403009004816,-0.002969062046215982,0.13289940311978463
19.233,192,19,233000000,,12.024632325732599,0.9977515551893085,1.5421906872097383e-05,-0.0014927989282189314,0.06700451798827493,-0.00016927483505048567,-0.002980955994146465,0.13410991569187963
19.243,193,19,243000000,,12.046331869632935,0.9977106931536251,1.227898341769635e-05,-0.0014988656683293984,0.06761010292735546,-0.00017817597685420552,-0.0029925334429336675,0.13532385529276084
19.253,194,19,253000000,,12.06813482944477,0.9976693479043911,9.018619904098594e-06,-0.001504771513158767,0.06821735727353335,-0.00018730871667909684,-0.0030037637983449587,0.1365411918528984
19.263,195,19,263000000,,12.090041043849084,0.9976275173583672,5.664105458681913e-06,-0.001510542304512188,0.06882626562036172,-0.00019662953162138722,-0.0030147013831630393,0.1377618953027627
19.273,196,19,273000000,,12.112050160062452,0.9975851994241952,2.2692261579617984e-06,-0.0015162258525459687,0.06943681259824289,-0.00020603723232246363,-0.0030254486901225217,0.13898593557282407
19.283,197,19,283000000,,12.134162470692022,0.9975423920692832,-1.1268651210076845e-06,-0.0015218506300260144,0.07004898281975643,-0.00021545736340828906,-0.00303606782844782,0.1402132825935529
19.293,198,19,293000000,,12.156376073449723,0.9974990933701174,-4.531930397451967e-06,-0.001527395014466181,0.07066276084137342,-0.00022490213574210904,-0.0030465145194437807,0.14144390629541934
19.303,199,19,303000000,,12.178689478954414,0.9974553014875943,-7.991802692801033e-06,-0.0015328036532524783,0.07127813117207872,-0.00023445478907492412,-0.003056671738499659,0.1426777766088938
19.313,200,19,313000000,,12.201102157974189,0.9974110145936446,-1.15505695768272e-05,-0.001538033629994652,0.07189507831843493,-0.00024419657773961,-0.0030664473142179467,0.14391486346444665
19.323,201,19,323000000,,12.223613905789767,0.9973662308142157,-1.5214167014025962e-05,-0.0015430895604092258,0.07251358682745107,-0.00025413931538353305,-0.00307584921972825,0.14515513679254813
19.333,202,19,333000000,,12.246224480354089,0.9973209482295675,-1.89465947680508e-05,-0.001548022903802679,0.0731336412917631,-0.00026421803560807485,-0.0030849849670382084,0.1463985665236685
19.343,203,19,343000000,,12.2689332679221,0.9972751649399187,-2.2701089846976008e-05,-0.0015528907825962956,0.07375522631607673,-0.00027434740503269167,-0.0030939751109271695,0.14764512258827817
19.353,204,19,353000000,,12.291739163219914,0.9972288791512783,-2.645913831588041e-05,-0.0015577024897540292,0.07437832647722413,-0.00028449161569193884,-0.0031028408217881344,0.1488947749168474
19.363,205,19,363000000,,12.314640917943642,0.9971820891971159,-3.0243815330108754e-05,-0.0015624067199517422,0.0750029263097651,-0.0002946887648241063,-0.0031114762655612095,0.15014749343984657
19.373,206,19,373000000,,12.337637674518835,0.9971347934701481,-3.4097160151362247e-05,-0.0015669351644316788,0.07562901032553158,-0.0003050119299849234,-0.003119738734793085,0.15140324808774597
19.383,207,19,383000000,,12.360729059242226,0.997086990331574,-3.8044236477948636e-05,-0.0015712594978086482,0.07625656304705998,-0.0003155060727372095,-0.0031275676607729727,0.15266200879101588
19.393,208,19,393000000,,12.383914849546459,0.9970386780711169,-4.2073820575844946e-05,-0.0015754159664499738,0.07688556902648036,-0.00032615356753850353,-0.0031350367013560382,0.15392374548012666
19.403,209,19,403000000,,12.407194575049056,0.9969898549492993,-4.6149403492931e-05,-0.001579478444907267,0.07751601283767122,-0.0003368923866290596,-0.003142298507054321,0.15518842808554856
19.413,210,19,413000000,,12.430567257262425,0.9969405193009299,-5.024058972303598e-05,-0.0015834933838152737,0.07814787905361713,-0.00034766878937044,-0.0031494502482651934,0.15645602653775204
19.423000000000002,211,19,423000000,,12.454031550865315,0.9968906696094808,-5.434716367920894e-05,-0.001587433562828594,0.07878115222964414,-0.0003584778445696335,-0.003156437591781107,0.1577265107672072
19.433,212,19,433000000,,12.477586293518051,0.9968403044730408,-5.849502923313264e-05,-0.0015912203250048934,0.07941581690257966,-0.00036935838561507267,-0.0031630995200310546,0.1589998507043846
19.443,213,19,443000000,,12.501230854750194,0.9967894224973967,-6.271168377120889e-05,-0.0015947912720256899,0.08005185760087104,-0.00038035461312957544,-0.0031693070742197823,0.16027601627975432
19.453,214,19,453000000,,12.524964942031705,0.9967380222129171,-6.700454774299678e-05,-0.001598152366016406,0.08068925885449581,-0.00039148140396846583,-0.0031750706970860307,0.16155497742378683
19.463,215,19,463000000,,12.548788172986416,0.9966861020775447,-7.135723865524414e-05,-0.0016013756234661187,0.08132800519948341,-0.0004027169539518844,-0.0031805363347576997,0.16283670406695233
19.473,216,19,473000000,,12.572699722049016,0.9966336605736704,-7.574463557695848e-05,-0.0016045378970093369,0.08196808118050185,-0.0004140232049806227,-0.0031858610600338792,0.16412116613972136
19.483,217,19,483000000,,12.596699433724853,0.996580696322414,-8.01534467690321e-05,-0.0016076491590090699,0.08260947135249667,-0.0004253750284829898,-0.0031910667846455415,0.16540833357256396
19.493,218,19,493000000,,12.620785134188694,0.9965272081044919,-8.458940049467436e-05,-0.0016106399785971305,0.08325216027803374,-0.00043677203810759633,-0.003196014062558107,0.16669817629595057
19.503,219,19,503000000,,12.644955402253041,0.9964731947625197,-8.906783591734648e-05,-0.0016134236185177447,0.08389613251470728,-0.00044822973611696043,-0.0032005273454005128,0.16799066424035153
19.513,220,19,513000000,,12.669209802294272,0.9964186550842714,-9.360089142676365e-05,-0.0016159696642031912,0.08454137259927369,-0.00045976631257057485,-0.0032045438278771486,0.16928576733623718
19.523,221,19,523000000,,12.693547977767482,0.9963635877610458,-9.81905475451923e-05,-0.0016183299784172528,0.08518786504329104,-0.0004713935673919617,-0.0032081663439775024,0.17058345551407772
19.533,222,19,533000000,,12.717969238529612,0.996307991454392,-0.00010282881892691138,-0.0016205963978190414,0.08583559435143898,-0.00048311056836820734,-0.003211579059390576,0.1718836987043435
19.543,223,19,543000000,,12.742472389686055,0.9962518649291139,-0.00010750437075559823,-0.0016228169873222264,0.08648454505342841,-0.0004949026151346678,-0.003214879504793047,0.17318646683750488
19.553,224,19,553000000,,12.76705600344656,0.9961952071291845,-0.00011220895668621477,-0.0016249486137104902,0.08713470172092118,-0.0005067455206960872,-0.0032179830075985158,0.17449172984403227
19.563,225,19,563000000,,12.791718935111765,0.9961380171157592,-0.00011693880206355107,-0.0016268964756805842,0.08778604894775234,-0.0005186147131359723,-0.003220701235878382,0.17579945765439575
19.573,226,19,573000000,,12.816460527308427,0.9960802939351427,-0.00012169595684557183,-0.0016285975118666336,0.08843857130414279,-0.0005305023433699832,-0.0032229081229921716,0.17710962019906584
19.583,227,19,583000000,,12.841285132815312,0.9960220365350163,-0.00012649020101070975,-0.0016300730829164097,0.08909225330303597,-0.0005424306700205215,-0.0032246444179211313,0.17842218740851268
19.593,228,19,593000000,,12.866198176434374,0.9959632437915079,-0.00013133359456865272,-0.001631411734084737,0.08974707941508814,-0.0005544386562425732,-0.0032260842281671303,0.17973712921320675
19.603,229,19,603000000,,12.891186514612789,0.9959039146347454,-0.00013623019951465094,-0.0016326901216045617,0.0904030341276752,-0.0005665476404219113,-0.0032273793229464103,0.18105441554361829
19.613,230,19,613000000,,12.916248379057578,0.9958440481659355,-0.00014116994412962085,-0.001633899522048801,0.09106010199796995,-0.0005787356600192301,-0.0032285139382704576,0.1823740163302176
19.623,231,19,623000000,,12.941382635493149,0.995783643645404,-0.00014613160684019772,-0.001634953712344213,0.09171826764715467,-0.0005909442879064077,-0.0032293200669124607,0.18369590150347512
19.633,232,19,633000000,,12.966588551254238,0.995722700366922,-0.0001510974129598916,-0.0016357683102705709,0.0923775156930063,-0.0006031218556078544,-0.003229632885340838,0.18502004099386093
19.643,233,19,643000000,,12.99186567475267,0.9956612175441986,-0.00015607118424415298,-0.0016363321718650525,0.09303783067770194,-0.0006152728889564592,-0.003229429529664652,0.18634640473184558
19.653,234,19,653000000,,13.017213466668037,0.9955991942968813,-0.00016107920977156303,-0.001636716084583988,0.09369919705817907,-0.000627461940763894,-0.003228846055329971,0.18767496264789923
19.663,235,19,663000000,,13.04102749688513,0.9955366313234731,-0.00016653189829895145,-0.0016360133440285328,0.09436159929005075,-0.0006403342570445071,-0.0032259995896490533,0.18900568467249226
19.673000000000002,236,19,673000000,,13.068117361567396,0.9954735231690304,-0.00017127928705729797,-0.0016372398075013542,0.0950250218555958,-0.0006521689297994779,-0.003227111724221694,0.190338540736095
19.683,237,19,683000000,,13.093676850285659,0.9954098740024052,-0.00017644215307320875,-0.001637337931712199,0.09568944942458185,-0.0006646199601840337,-0.0032258829785703196,0.19167350076917775
19.693,238,19,693000000,,13.119314314985182,0.995345681773501,-0.00018159617498984877,-0.0016372143544913379,0.09635486664840177,-0.0006770126494516104,-0.003224198711478191,0.1930105347022108
19.703,239,19,703000000,,13.145015969459813,0.9952809459598657,-0.00018672762752642777,-0.001636830819740453,0.0970212581184952,-0.0006893113029597828,-0.0032219855292703915,0.1943496124656645
19.713,240,19,713000000,,13.170780753306342,0.9952156659417928,-0.00019186625958545194,-0.0016362331885744373,0.09768860830375771,-0.0007015829938976632,-0.0032193290699419168,0.19569070399000912
19.723,241,19,723000000,,13.196607895803506,0.9951498410686375,-0.00019706074783452446,-0.001635510007984974,0.09835690161417718,-0.0007139410912456585,-0.003216396025560251,0.19703377920571502
19.733,242,19,733000000,,13.222496330757131,0.9950834707927653,-0.0002023335434115561,-0.0016347089507863107,0.09902612252737919,-0.0007264391211695575,-0.0032132766300355846,0.19837880804325253
19.743,243,19,743000000,,13.248444942971867,0.9950165547440848,-0.00020765611382908127,-0.0016337904819838972,0.09969625566093772,-0.0007390120035314858,-0.0032098975912499303,0.19972576043309193
19.753,244,19,753000000,,13.274452797181166,0.9949490926647467,-0.00021296876857424498,-0.0016326689714918248,0.10036728571566703,-0.0007515232056207966,-0.0032061003217510806,0.2010746063057036
19.763,245,19,763000000,,13.300519140084685,0.9948810842831796,-0.0002182334547279026,-0.001631291132708979,0.10103919733907507,-0.0007638853552318551,-0.003201786586068567,0.20242531559155771
19.773,246,19,773000000,,13.326643217130444,0.9948125292449391,-0.00022347251544873744,-0.0016296785387634846,0.10171197503333715,-0.0007761462066451731,-0.003196995042142689,0.20377785822112468
19.783,247,19,783000000,,13.35282408863158,0.9947434271471122,-0.00022875086394721464,-0.0016279062479156272,0.10238560319648377,-0.000788449261051759,-0.0031918619096470966,0.20513220412487485
19.793,248,19,793000000,,13.379060629354294,0.9946737776521151,-0.00023411645453719955,-0.0016260326620374525,0.10306006626496333,-0.0008009012159767683,-0.0031864933789005623,0.20648832323327845
19.803,249,19,803000000,,13.405351704943277,0.9946035805817491,-0.00023955219530889322,-0.001624041722656011,0.10373534883149958,-0.0008134642165896432,-0.0031808607275706775,0.20784618547680586
19.813,250,19,813000000,,13.431696305030089,0.9945328358857511,-0.00024498639919817906,-0.0016218629181269015,0.10441143561595376,-0.0008259803646952577,-0.0031748384249857386,0.20920576078592734
19.823,251,19,823000000,,13.458093496378163,0.9944615435312234,-0.000250356086851568,-0.0016194393454666291,0.10508831131735227,-0.0008383115991120713,-0.0031683266062681003,0.2105670190911133
19.833,252,19,833000000,,13.484542285098724,0.9943897034267416,-0.00025566727044068976,-0.0016167732216738687,0.10576596048575083,-0.0008504693001294883,-0.0031613287656883787,0.21192993032283397
19.843,253,19,843000000,,13.511041547904082,0.9943173154312027,-0.00026099255254552565,-0.0016139200145686762,0.10644436752952292,-0.0008626086160798108,-0.0031539400869240956,0.21329446441155972
19.853,254,19,853000000,,13.537590106326926,0.9942443794413199,-0.00026640370166902336,-0.0016109357912231295,0.10712351685922553,-0.0008748834226843293,-0.0031462567000352455,0.21466059128776083
19.863,255,19,863000000,,13.564186861454237,0.994170895484759,-0.00027190183074635805,-0.0016078214649528767,0.10780339303826933,-0.0008872954775783871,-0.0031382798827076946,0.21602828088190767
19.873,256,19,873000000,,13.59083082407508,0.9940968637163959,-0.0002774120037727453,-0.0016045260767190385,0.10848398078921372,-0.0008996840861928693,-0.003129924274601915,0.21739750312447043
19.883,257,19,883000000,,13.617520976207775,0.9940222843310331,-0.00028284955161470384,-0.0016009995156694016,0.10916526485103607,-0.0009118691549160158,-0.003121108766411158,0.21876822794591944
19.893,258,19,893000000,,13.644261138037823,0.9939471574919017,-0.00028820030700365715,-0.0015972333280909335,0.10984722982418547,-0.0009238196690855794,-0.0031118200640734383,0.22014042527672523
19.903,259,19,903000000,,13.671056316715177,0.993871483325538,-0.00029353650183427054,-0.0015932623286406872,0.11052986014543342,-0.0009356858803233427,-0.003102111866113702,0.2215140650473579
19.913,260,19,913000000,,13.697892614893425,0.9937952619816225,-0.0002989488427833847,-0.0015891302841303378,0.11121314021916605,-0.000947656897303555,-0.003092051142006727,0.22288911718828794
19.923000000000002,261,19,923000000,,13.724768619544873,0.9937184937105012,-0.0003044592265391112,-0.0015848462196919114,0.11189705458488153,-0.000959777480539101,-0.0030816506925249996,0.2242655516299854
19.933,262,19,933000000,,13.751683589069863,0.9936411788763002,-0.00030999607480389517,-0.0015803785980674759,0.11258158795840699,-0.0009718975303201695,-0.0030708636322605517,0.22564333830292085
19.943,263,19,943000000,,13.77863664654298,0.9935633178940508,-0.0003154592208393966,-0.0015756919833125964,0.11326672510326642,-0.0009838091252952926,-0.0030596422179009256,0.22702244713756442
19.953,264,19,953000000,,13.805626566948492,0.9934849111730937,-0.00032081473955128615,-0.0015707758540527506,0.1139524506647804,-0.0009954415103717387,-0.0030479736874603853,0.22840284806438663
19.963,265,19,963000000,,13.832651916753433,0.9934059591082085,-0.0003261284207545462,-0.0015656464216672497,0.11463874912016422,-0.0010069281382609002,-0.0030358757252426176,0.22978451101385763
19.973,266,19,973000000,,13.859711450147318,0.9933264621138678,-0.00033150333079287077,-0.0015603291833797155,0.11532560488775959,-0.0010184787062336837,-0.003023375496636577,0.23116740591644774
19.983,267,19,983000000,,13.886809323848162,0.9932464206798418,-0.0003369793060368747,-0.0015548321137838937,0.11601300249854701,-0.0010301733133632463,-0.0030104794487217992,0.2325515027026274
19.993,268,19,993000000,,13.913951188383418,0.99316583538681,-0.0003424925901772799,-0.001549140532537598,0.11670092665808586,-0.0010418810183404706,-0.0029971729842525074,0.2339367713028669
20.003,269,20,3000000,,13.941123412520442,0.9930847068673598,-0.0003479341823940027,-0.0015432382202099763,0.11738936214057279,-0.0010533806145241835,-0.0029834494335418,0.2353231816476364
20.013,270,20,13000000,,13.968324211480114,0.9930030357697199,-0.0003532538495186437,-0.001537120113181849,0.11807829362586401,-0.0010645702241962704,-0.002969311017234242,0.23671070366740635
20.023,271,20,23000000,,13.995552041961535,0.9929208227539061,-0.00035850860921520465,-0.0015307878185947124,0.11876770563556985,-0.0010755625430003907,-0.0029547480100875993,0.238099307292647
20.033,272,20,33000000,,14.022805639437236,0.9928380685066903,-0.00036380664472391016,-0.0015242450383675943,0.11945758262116508,-0.0010865723370557746,-0.002939742309255687,0.23948896245382884
20.043,273,20,43000000,,14.050084256510667,0.99275477376941,-0.0003692018259192696,-0.0015174919839854373,0.12014790912095719,-0.0010977056422143625,-0.002924281335452881,0.2408796390814218
20.053,274,20,53000000,,14.0773873707634,0.9926709393480531,-0.00037463954969305135,-0.001510527061515477,0.1208386698332047,-0.001108852666065886,-0.002908374844576426,0.24227130710589667
20.063,275,20,63000000,,14.104714193339058,0.9925865660926091,-0.00038000860387145364,-0.0015033559002491314,0.1215298495308067,-0.0011197930201063146,-0.0028920609959283204,0.24366393645772347
20.073,276,20,73000000,,14.132063275456549,0.9925016548862474,-0.0003852485523601172,-0.0014959838358313696,0.12222143291573795,-0.001130407141275619,-0.0028753655674164415,0.24505749706737256
20.083,277,20,83000000,,14.159437803331542,0.9924162066511836,-0.00039040692798687185,-0.00148840155295454,0.12291340455508874,-0.0011407862368238114,-0.002858259048777499,0.2464519588653142
20.093,278,20,93000000,,14.186842663614302,0.9923302223489747,-0.00039559125721790555,-0.001480590258591469,0.12360574894752192,-0.0011511381548191342,-0.0028406780342313956,0.24784729178201895
20.103,279,20,103000000,,14.2142643287225,0.9922437029808517,-0.000400862723504175,-0.0014725380381005505,0.12429845065667733,-0.00116158030800411,-0.0028225837084041917,0.24924346574795692
20.113,280,20,113000000,,14.241701933183212,0.9921566495852376,-0.0004061748281563452,-0.0014642535832706423,0.1249914943796127,-0.0011720214761394836,-0.0028040047355269203,0.25064045069359847
20.123,281,20,123000000,,14.26915483764467,0.9920690632329341,-0.00041141938975829183,-0.0014557644312699564,0.1256848648809189,-0.0011822528692631642,-0.0027850229306819354,0.2520382165494138
20.133,282,20,133000000,,14.296621595549695,0.9919809450414493,-0.0004165320065739161,-0.001447088659172104,0.12637854687474906,-0.001192150392720323,-0.002765690857748059,0.2534367332458733
20.143,283,20,143000000,,14.324100239201194,0.991892296193527,-0.0004215532143488156,-0.0014382079902930318,0.12707252497135904,-0.0012017890332349482,-0.00274596263997774,0.25483597071344766
20.153,284,20,153000000,,14.351589258153753,0.9918031179252425,-0.00042658488560554797,-0.0014290819062334917,0.12776678372725955,-0.0012113596331131023,-0.0027257323982949775,0.2562358988826065
20.163,285,20,163000000,,14.379087973189888,0.9917134115001816,-0.0004316881722505623,-0.0014196859537107722,0.12846130774589742,-0.0012209760985276673,-0.002704936045058901,0.25763648768382064
20.173,286,20,173000000,,14.406596034767086,0.9916231781945967,-0.0004368235036979586,-0.0014100372079451444,0.1291560817288364,-0.0012305631255378408,-0.0026836175518874217,0.25903770704756024
20.183,287,20,183000000,,14.43411270790804,0.9915324193046968,-0.0004418904089794235,-0.001400183995472536,0.1298510904283055,-0.0012399328804056226,-0.002661898889664533,0.2604395269042957
20.193,288,20,193000000,,14.461636346775366,0.9914411361849408,-0.00044682722225486757,-0.0013901565296514352,0.13054631856383545,-0.001248970088819433,-0.0026398565067890243,0.2618419171844971
20.203,289,20,203000000,,14.489169772302796,0.9913493302776863,-0.0004516689886486356,-0.0013799286314598585,0.13124175078868547,-0.0012577366378583826,-0.0026174299802045366,0.2632448478186351
20.213,290,20,213000000,,14.516717668665342,0.9912570030910857,-0.00045650798007139707,-0.0013694399891472175,0.13193737172408623,-0.0012663986909851154,-0.002594475943687621,0.2646482887371796
20.223,291,20,223000000,,14.544266646220153,0.9911641561510807,-0.0004613996854210174,-0.0013586546372704807,0.13263316602276767,-0.001275055551114831,-0.002570908584042812,0.2660522098706014
20.233,292,20,233000000,,14.571815982685573,0.9910707909741548,-0.00046630861740516987,-0.0013475985190905693,0.1333291183964245,-0.0012836424610371934,-0.0025467887798770765,0.2674565811493703
20.243,293,20,243000000,,14.59936504142968,0.9909769090870583,-0.00047114568976473954,-0.0013363389236883834,0.13402521358416253,-0.0012919996872906125,-0.002522273903172691,0.2688613725039571
20.253,294,20,253000000,,14.626912176720996,0.9908825120861008,-0.0004758574217995383,-0.0013249152328106116,0.1347214363094398,-0.0013000309818453186,-0.0024974568739170276,0.27026655386483184
20.263,295,20,263000000,,14.654455175086932,0.9907876016743866,-0.00048047540673274065,-0.001313292034934173,0.1354177712699903,-0.001307788682026227,-0.002472259632157028,0.2716720951624649
20.273,296,20,273000000,,14.681992459558652,0.9906921796283654,-0.00048507863616681444,-0.001301391994658445,0.13611420315599537,-0.0013154074073619348,-0.0024465079999731448,0.27307796632732667
20.283,297,20,283000000,,14.709523450810366,0.9905962477318742,-0.0004897122184370247,-0.0012891721975734401,0.1368107166727788,-0.0013229635767839929,-0.002420104886445221,0.2744841372898873
20.293,298,20,293000000,,14.737052873432837,0.9904998077426438,-0.0004943439300317135,-0.001276668692197421,0.13750729654427318,-0.0013304018583178315,-0.0023931306778540015,0.27589057798061695
20.303,299,20,303000000,,14.764586195792905,0.9904028614238634,-0.0004988993172511527,-0.0012639647077132693,0.13820392749886856,-0.0013375965384269763,-0.00236577104319402,0.2772972583299866
20.313,300,20,313000000,,14.79210897022717,0.9903054106203463,-0.0005033373134444338,-0.0012511033534869846,0.13890059426804272,-0.0013444774083784783,-0.0023381232668468347,0.2787041482684658
20.323,301,20,323000000,,14.819623474157137,0.9902074572968708,-0.0005076867518926042,-0.0012380381028513463,0.13959728159775772,-0.0013510879388308951,-0.0023100877974195494,0.28011121772652553
20.333,302,20,333000000,,14.84446693007637,0.9901090045650979,-0.0005123234574132586,-0.0012235960905032746,0.14029397498251037,-0.0013578423996797617,-0.002279237199090786,0.28151843663463544
20.343,303,20,343000000,,14.874629667542,0.9900100512458299,-0.0005163392015218916,-0.00121097955213335,0.14099065697620786,-0.0013638394856727483,-0.0022521677543695284,0.28292577492326637
20.353,304,20,353000000,,14.90210887282098,0.9899106025538793,-0.0005206447679533932,-0.001196989947593746,0.14168731451864955,-0.0013699839457085145,-0.0022222903917252755,0.2843332025228884
20.363,305,20,363000000,,14.929570254905359,0.9898106594224821,-0.0005248700815805943,-0.001182805015944199,0.1423839315980655,-0.0013758725997461338,-0.002192041649489231,0.2857406893639719
20.373,306,20,373000000,,14.957012029008586,0.9897102239513443,-0.0005289882952146853,-0.0011684652339537627,0.14308049296308853,-0.0013814630782060667,-0.0021615098477896773,0.2871482053769871
20.383,307,20,383000000,,14.984432106115147,0.9896092983677784,-0.000533024239825942,-0.0011539105570896467,0.14377698341396364,-0.0013867866380728384,-0.0021305696108755386,0.2885557204924045
20.393,308,20,393000000,,15.011829183109665,0.9895078849688731,-0.0005370215530653648,-0.0011390417547080026,0.1444733877783724,-0.0013919000802531559,-0.002099012490345212,0.2899632046406944
20.403,309,20,403000000,,15.039202863656245,0.9894059860364705,-0.000540996932069657,-0.0011238210471917628,0.14516969085788203,-0.0013968241515239601,-0.0020667592992413904,0.2913706277523269
20.413,310,20,413000000,,15.066552859495932,0.9893036038102793,-0.0005449271531240928,-0.0011083107122800476,0.14586587740029108,-0.0014015295795925763,-0.0020339404113533343,0.29277795975777254
20.423000000000002,311,20,423000000,,15.09387814981683,0.9892007405449621,-0.0005487755518260759,-0.001092611659261218,0.14656193213264618,-0.0014059721935323595,-0.0020007666494398883,0.29418517058750143
20.433,312,20,433000000,,15.121176761282328,0.989097398600636,-0.0005525289997851643,-0.0010767547083948292,0.14725783983359608,-0.0014101343335999749,-0.001967303377104147,0.29559223017198416
20.443,313,20,443000000,,15.148446578709434,0.9889935804661444,-0.0005562050924060039,-0.001060665256161307,0.14795358536333514,-0.0014140281007195914,-0.0019333983880128161,0.29699910844169064
20.453,314,20,453000000,,15.175686311309148,0.9888892886882946,-0.0005598265613630542,-0.001044242690046124,0.14864915361004927,-0.0014176675948370991,-0.0018988464740108519,0.29840577532709167
20.463,315,20,463000000,,15.202895444048144,0.9887845257883753,-0.0005633980057378099,-0.0010274626401402486,0.14934452940991227,-0.001421053254757663,-0.0018635985774305857,0.2998122007586572
20.473,316,20,473000000,,15.230073429129016,0.9886792942479324,-0.0005669056738485812,-0.0010104012471132185,0.15003969752264573,-0.001424179258489768,-0.001827809889901517,0.30121835466685765
20.483,317,20,483000000,,15.25722380609618,0.9885735965772674,-0.0005703338729674953,-0.00099315739938342,0.15073464269350711,-0.0014270432424081441,-0.0017916811780216084,0.3026242069821634
20.493,318,20,493000000,,15.281433287342487,0.9884674361389194,-0.0005739360891110958,-0.0009747248963092096,0.15142935052919346,-0.00142984086953715,-0.0017531469980089003,0.3040297276350447
20.503,319,20,503000000,,15.311440110535717,0.9883608134666859,-0.0005769487951527665,-0.0009580763734597397,0.1521238036048969,-0.0014319622085490356,-0.0017183158428497336,0.30543488655597195
20.513,320,20,513000000,,15.33849142770923,0.9882537335617061,-0.000580143221328654,-0.0009400588436502656,0.15281798920467976,-0.0014339757302064566,-0.0016807214742322791,0.3068396536754153
20.523,321,20,523000000,,15.365502776286961,0.9881461984426985,-0.0005832607271739251,-0.0009216869423053725,0.15351189140697766,-0.0014356759817725515,-0.0016424487200180922,0.30824399892384535
20.533,322,20,533000000,,15.392473456785453,0.9880382108356478,-0.0005863015143780597,-0.0009030473874320774,0.1542054949884804,-0.0014370886798778877,-0.0016036695068563903,0.3096478922317321
20.543,323,20,543000000,,15.419402098674118,0.9879297735119111,-0.0005892692821607776,-0.0008842282024156116,0.15489878473023302,-0.0014382473410291313,-0.001564557182416793,0.31105130352954596
20.553,324,20,553000000,,15.446286817790538,0.9878208893627664,-0.0005921646443784981,-0.0008652205847624343,0.15559174551667934,-0.0014391497438497073,-0.0015250946649721425,0.31245420274775737
20.563,325,20,563000000,,15.473125949764608,0.987711561385707,-0.0005949772747234856,-0.0008459307972731153,0.15628436232757686,-0.0014397454615579714,-0.0014851005151426148,0.3138565598168364
20.573,326,20,573000000,,15.499923216891537,0.9876017926036597,-0.0005976918877721996,-0.0008262817290803325,0.15697662013481387,-0.0014399789856044658,-0.001444427831090676,0.3152583446672537
20.583,327,20,583000000,,15.52668387974257,0.987491586005917,-0.0006003070441802636,-0.0008062895778294043,0.1576685038176229,-0.0014398511678951065,-0.001403109781395084,0.3166595272294793
20.593,328,20,593000000,,15.553399673170665,0.9873809445658384,-0.0006028403606648293,-0.0007860459733125222,0.15835999817978078,-0.0014394244781139856,-0.0013613224548346462,0.3180600774339838
20.603,329,20,603000000,,15.580074633936896,0.9872698713193683,-0.0006053101513738648,-0.0007656190314685976,0.15905108805713153,-0.0014387557787853525,-0.0013191951116064186,0.3194599652112371
20.613,330,20,613000000,,15.606695205471032,0.9871583694209572,-0.0006077119523185835,-0.0007449772767109915,0.15974175840148058,-0.0014378255073125297,-0.0012766675025398656,0.32085916049171015
20.623,331,20,623000000,,15.633264401611266,0.9870464421120436,-0.0006100170198922065,-0.000724028414448945,0.16043199424069496,-0.0014365464901378827,-0.0012335671597462536,0.32225763320587264
20.633,332,20,633000000,,15.65978734366704,0.9869340926446208,-0.0006121998959694082,-0.000702718637914761,0.16112178056843326,-0.0014348499619918278,-0.0011897967687008756,0.3236553532841949
20.643,333,20,643000000,,15.686251461934356,0.9868213242409564,-0.0006142682403451249,-0.0006810843169353861,0.16181110228290096,-0.0014327614349839222,-0.0011454264634475156,0.32505229065714775
20.653,334,20,653000000,,15.712655374738928,0.9867081401258229,-0.0006162575901568505,-0.0006592121293753875,0.1624999442319618,-0.001430377983868212,-0.001100616522389246,0.326448415255201
20.663,335,20,663000000,,15.738997878649542,0.9865945436002731,-0.0006181922495649548,-0.0006371434664162619,0.1631882913223696,-0.001427760188169008,-0.0010554412570357747,0.3278436970088254
20.673000000000002,336,20,673000000,,15.76527774496285,0.986480538075663,-0.0006200546667047951,-0.0006148288806016847,0.16387612857157682,-0.0014248564844695734,-0.0010098093049757519,0.3292381058484909
20.683,337,20,683000000,,15.791493937847175,0.9863661270299828,-0.0006217991149855882,-0.0005921877146213144,0.16456344104157233,-0.0014215492045178846,-0.0009635771502047532,0.33063161170466815
20.693,338,20,693000000,,15.817645522302866,0.9862513139408894,-0.0006233998241060561,-0.000569193677632991,0.16525021373990986,-0.0014177776157337748,-0.0009167022449375875,0.33202418450782706
20.703,339,20,703000000,,15.84373144478797,0.9861361022645782,-0.0006248812740727961,-0.0005458976286935252,0.16593643159233504,-0.0014136055819124061,-0.0008692776914909597,0.3334157941884384
20.713,340,20,713000000,,15.869750468817774,0.9860204954793199,-0.0006262931700274185,-0.0005223711406671064,0.16662207950920818,-0.0014091538768913055,-0.0008214288535204722,0.33480641067697203
20.723,341,20,723000000,,15.895701338038306,0.9859044971486085,-0.000627654509634108,-0.0004986264077002553,0.1673071424765589,-0.001404463207792753,-0.0007731739475922895,0.3361960039038988
20.733,342,20,733000000,,15.921582906290977,0.985788110933487,-0.0006289285134947795,-0.0004746050014300118,0.16799160556767337,-0.0013994406388397097,-0.0007244105774182335,0.3375845437996884
20.743,343,20,743000000,,15.947394035139551,0.9856713405417025,-0.0006300598298613773,-0.0004502475200816093,0.1686754538648254,-0.0013939560128791726,-0.0006750409491282495,0.3389720002948116
20.753,344,20,753000000,,15.973133414257957,0.9855541896749288,-0.000631033981196251,-0.0004255540803974,0.16935867239097638,-0.001387979632969305,-0.0006250710998638509,0.3403583433197384
20.763,345,20,763000000,,15.998799601091218,0.9854366620257172,-0.0006318947949192682,-0.0004005789332724814,0.1700412461172252,-0.0013816151445047175,-0.0005745940086954188,0.34174354280493957
20.773,346,20,773000000,,16.024391270406603,0.9853187613259253,-0.000632696885992557,-0.0003753699549615754,0.17072316003164667,-0.0013749855355832514,-0.000523686118622323,0.34312756868088506
20.783,347,20,783000000,,16.049907326902357,0.9852004913958233,-0.0006334426444317876,-0.0003499144526761823,0.1714043991959371,-0.0013680903415639017,-0.0004723220872198953,0.34451039087804514
20.793,348,20,793000000,,16.075346730658193,0.9850818561376771,-0.0006340766089436019,-0.0003241578236263204,0.17208494872274008,-0.001360800630899662,-0.00042041391207057663,0.34589197932689036
20.803,349,20,803000000,,16.100708159061046,0.9849628594841897,-0.0006345451131593152,-0.00029806726397487186,0.1727647937084804,-0.001352998301375218,-0.000367916266439587,0.34727230395789094
20.813,350,20,813000000,,16.125989922303106,0.9848435053606005,-0.0006348542884545584,-0.000271661763098033,0.17344391920434607,-0.0013447008793584928,-0.00031486541945996394,0.3486513347015172
20.823,351,20,823000000,,16.151190395496016,0.9847237976963436,-0.0006350641601491402,-0.0002449872971259194,0.17412231024549193,-0.0013360415345344664,-0.00026133196876241795,0.3500290414882396
20.833,352,20,833000000,,16.176308405376236,0.9846037404745114,-0.0006352213159532908,-0.0002180648133486576,0.1747999519027911,-0.0013271184232933623,-0.00020734155231102316,0.3514053942485279
20.843,353,20,843000000,,16.201343091303908,0.9844833377652107,-0.0006353041816474789,-0.00019086726656636485,0.1754768292993504,-0.0013178787248747583,-0.0001528489610416813,0.35278036291285325
20.853,354,20,853000000,,16.226297757290794,0.9843625937045133,-0.0006352461211350411,-0.0001633555426241618,0.17615292757333265,-0.0013081765323953525,-9.780124348788618e-05,0.3541539174116852
20.863,355,20,863000000,,16.251176200046455,0.9842415124460828,-0.0006350083416631667,-0.0001355219558529475,0.17682823184110838,-0.0012979317224644268,-4.2197865087931604e-05,0.35552602767549474
20.873,356,20,873000000,,16.275965468736494,0.9841200981377838,-0.0006346211730678147,-0.00010739246054707407,0.17750272720188012,-0.001287212167087248,1.3919820293947246e-05,0.3568966636347515
20.883,357,20,883000000,,16.300663712874492,0.9839983549451848,-0.0006341506278145471,-7.899535670093689e-05,0.17817639876786348,-0.001276156915026241,7.051874825513855e-05,0.3582657952199263
20.893,358,20,893000000,,16.325270228989815,0.9838762870988823,-0.0006336223946686295,-5.0328988286809374e-05,0.1788492316846002,-0.00126481504748289,0.0001276107610174899,0.3596333923614892
20.903,359,20,903000000,,16.34978447512514,0.9837538989117534,-0.0006329913518658826,-2.136592079340891e-05,0.17952121111826846,-0.0012530870421419928,0.00018523313351926046,0.36099942498991067
20.913,360,20,913000000,,16.37420536245125,0.9836311947469352,-0.0006321927830050192,7.911533536548003e-06,0.18019232222936094,-0.001240838244884874,0.00024339663610551814,0.36236386303566104
20.923000000000002,361,20,923000000,,16.398530952491587,0.9835081789747152,-0.0006312128225396879,3.749432137725806e-05,0.18086255017108507,-0.0012280436748174815,0.00030207746964384767,0.3637266764292107
20.933,362,20,933000000,,16.42275925473173,0.9833848559632429,-0.0006301020405116769,6.736190314165857e-05,0.18153188010910024,-0.0012148093209145634,0.00036125257484351947,0.36508783510102943
20.943,363,20,943000000,,16.44689331468882,0.9832612301128494,-0.0006289178161823529,9.75066445995175e-05,0.1822002972330205,-0.0012012499272215558,0.0004209270451432756,0.3664473089815882
20.953,364,20,953000000,,16.47093790046084,0.9831373058977545,-0.0006276572810636095,0.00012794219098964378,0.18286778674561155,-0.0011873539824848087,0.0004811260961282003,0.367805068001357
20.963,365,20,963000000,,16.494881867016947,0.9830130878665062,-0.0006262609797735793,0.00015868438838356785,0.18353433384412512,-0.0011729978532430622,0.0005418584712288023,0.36916108209080617
20.973,366,20,973000000,,16.518724387767506,0.9828885806016189,-0.0006246805786161685,0.0001897314327275711,0.18419992372173516,-0.001158086253099152,0.000603101983642571,0.37051532118040614
20.983,367,20,983000000,,16.542462558078316,0.982763788684189,-0.0006229302614491265,0.00022107000073844156,0.184864541589356,-0.0011426511001436507,0.000664834666406837,0.371867755200627
20.993,368,20,993000000,,16.566094259641652,0.9826387167006424,-0.0006210686298175664,0.00025269337449727435,0.18552817268741129,-0.0011268092190120573,0.000727064106533606,0.37321835408193943
21.003,369,21,3000000,,16.58961892174911,0.9825133692855943,-0.0006191304958430748,0.00028460949334718603,0.1861908022699691,-0.0011106252139313985,0.0007898181540565031,0.3745670877548133
21.013,370,21,13000000,,16.613040403053226,0.9823877511527255,-0.0006170863027786625,0.0003168305329940956,0.18685241557978022,-0.0010940355660301604,0.000853109105681396,0.3759139261497193
21.023,371,21,23000000,,16.636362964225828,0.9822618670770783,-0.0006148778956236797,0.0003493560948827021,0.1875129978474676,-0.0010769252630898312,0.0009169136635851241,0.37725883919712744
21.033,372,21,33000000,,16.6595784144568,0.9821357218505458,-0.0006124836101570131,0.0003821741397262649,0.1881725343185385,-0.0010592554203042411,0.000981199092930794,0.3786017968275084
21.043,373,21,43000000,,16.68268913694157,0.9820093202594836,-0.0006099391232840304,0.00041527822839857473,0.1888310102757649,-0.0010410977504579976,0.001045965214011219,0.3799427689713323
21.053,374,21,53000000,,16.705683943369344,0.9818826671090919,-0.0006072945587753637,0.0004486761088112659,0.189488411027705,-0.0010225469658833551,0.0011112453794182627,0.38128172555906936
21.063,375,21,63000000,,16.728562440972247,0.9817557672684749,-0.0006045554984563699,0.0004823805154976871,0.1901447218746174,-0.0010036083402917778,0.001177066052240211,0.3826186365211899
21.073,376,21,73000000,,16.751324605715702,0.9816286256840093,-0.0006016772955155376,0.000516392865993632,0.19079992809370538,-0.0009841927897096606,0.001243412328557937,0.3839534717881645
21.083,377,21,83000000,,16.77396930825014,0.9815012473448307,-0.0005986182376112342,0.0005507002822077096,0.19145401496428988,-0.0009642225107233632,0.001310242132732672,0.3852862012904631
21.093,378,21,93000000,,16.796494293833764,0.9813736372414421,-0.0005953845132043052,0.0005852919666225549,0.19210696780204906,-0.000943713036061917,0.0013775356749507195,0.3866167949585564
21.103,379,21,103000000,,16.818897705453804,0.98124580036304,-0.00059201925550238,0.000620173347859099,0.19275877196152932,-0.0009227462052493996,0.001445319298703484,0.3879452227229144
21.113,380,21,113000000,,16.841179009471862,0.981117741736635,-0.0005885510457156299,0.0006553598261280515,0.19340941280291982,-0.0009013713820621777,0.001513633507561601,0.3892714545140075
21.123,381,21,123000000,,16.86333827327363,0.9809894664640698,-0.0005849603624390375,0.0006908581028049968,0.19405887566147467,-0.0008795468290663324,0.0015824832043186633,0.3905954602623061
21.133,382,21,133000000,,16.885374960168196,0.9808609797119842,-0.0005812043114206583,0.0007266577323717379,0.1947071458589407,-0.0008571916288691657,0.0016518304470359768,0.39191720989828044
21.143,383,21,143000000,,16.90728717628614,0.9807322866677862,-0.0005772663432379796,0.0007627434002870271,0.19535420874260487,-0.0008342785479617382,0.0017216378281420261,0.3932366733524009
21.153,384,21,153000000,,16.929072496199446,0.9806033925132678,-0.0005731712214961063,0.0007991135013264497,0.19600004970364912,-0.0008108561072837077,0.001791910955566016,0.3945538205551379
21.163,385,21,163000000,,16.950729582158573,0.9804743024436766,-0.0005689533731962184,0.0008357822353307546,0.19664465415489882,-0.000786985552688378,0.0018626903641026837,0.39586862143696167
21.173,386,21,173000000,,16.97225826661732,0.9803450217114437,-0.0005646154310799082,0.0008727624863070687,0.1972880074932241,-0.0007626662104633493,0.0019340016296148792,0.3971810459283421
21.183,387,21,183000000,,16.993658422644593,0.9802155556423011,-0.000560126143972776,0.000910050579244759,0.1979300950929408,-0.0007378374747383025,0.002005824455291077,0.39849106395975015
21.193,388,21,193000000,,17.014928832550737,0.9800859096046084,-0.0005554584765487022,0.0009476311298468714,0.19857090233876257,-0.0007124517140534612,0.0020781171132801765,0.3997986454616558
21.203,389,21,203000000,,17.036067115612198,0.9799560889710016,-0.0005506189669432384,0.0009854948312125337,0.19921041465583444,-0.000686524792716047,0.0021508630448275655,0.4011037603645295
21.213,390,21,213000000,,17.05707121095506,0.9798260991150424,-0.0005456363580286811,0.0010236486736344133,0.1998486175017407,-0.0006601096245538511,0.0022240865507205947,0.40240637859884126
21.223,391,21,223000000,,17.07794039855614,0.9796959454450307,-0.0005405257608226089,0.0010621070058969174,0.20048549633122403,-0.0006332294061423585,0.0022978210275634847,0.4037064700950619
21.233,392,21,233000000,,17.09867463496886,0.9795656334348612,-0.0005352706573886613,0.0011008747823648337,0.20112103657597855,-0.0006058490679197601,0.0023720688104548705,0.4050040047836612
21.243,393,21,243000000,,17.11927331972193,0.9794351686153049,-0.0005298436225147532,0.0011399426069960215,0.20175522366495943,-0.0005779179663521941,0.002446799637553226,0.4062989525951101
21.253,394,21,253000000,,17.139734581724205,0.9793045565378526,-0.0005242385779815265,0.001179298393298079,0.2023880430593981,-0.000549428443193575,0.0025219864934166373,0.40759128345987833
21.263,395,21,263000000,,17.16005605686156,0.9791738027561259,-0.000518474989927349,0.0012189402518363137,0.20301948025855757,-0.0005204188015582203,0.0025976326907484943,0.4088809673084365
21.273,396,21,273000000,,17.180236348490983,0.9790429128430972,-0.0005125722499664011,0.0012588769315548117,0.20364952077101303,-0.0004909228641808579,0.0026737624478824873,0.4101679740712547
21.283,397,21,283000000,,17.200275161391534,0.9789118924215483,-0.0005065255694146587,0.0012991169781196555,0.20427815008607092,-0.0004609271410545044,0.0027503897992574504,0.4114522736788038
