Time,header.seq,header.stamp.secs,header.stamp.nsecs,header.frame_id,torques.x,torques.y,torques.z
18.233,92,18,233000000,,0.00019659087874819198,-0.0018587081957735405,0.00624918244140701
18.243,93,18,243000000,,0.00019676126401970974,-0.0017792279007829142,0.006303998579138756
18.253,94,18,253000000,,0.00019289913745512368,-0.0017300457902601522,0.006365762456198974
18.263,95,18,263000000,,0.00017459776585627385,-0.0016693922497695698,0.0064122826981303175
18.273,96,18,273000000,,0.00015144119014539166,-0.0016184107056076505,0.006459913218480303
18.283,97,18,283000000,,0.00013397356382027236,-0.001568536720323894,0.006504486204225817
18.293,98,18,293000000,,0.00012978256455423124,-0.0015346493167398823,0.0065581903957071365
18.303,99,18,303000000,,0.0001357016340182324,-0.00149951862833565,0.006604273639825311
18.313,100,18,313000000,,0.00014181766846963409,-0.0014851615306681902,0.0066632791089974676
18.323,101,18,323000000,,0.00013909856937246705,-0.0014730645583023907,0.006725673583399571
18.333,102,18,333000000,,0.00012468689598822824,-0.0014557502005297467,0.006777194963146275
18.343,103,18,343000000,,0.00010780502583490971,-0.0014256141727149742,0.006824663435516365
18.353,104,18,353000000,,9.80658638002582e-05,-0.0013905936881339009,0.006868746747500237
18.363,105,18,363000000,,0.00010000021502488144,-0.0013699473175240926,0.006920208842747415
18.373,106,18,373000000,,0.00010567538507045966,-0.001351840971268875,0.006970101332440329
18.383,107,18,383000000,,0.00010800275572845319,-0.001353437510567629,0.0070302109157484895
18.393,108,18,393000000,,0.00010061861997994869,-0.001354413892522585,0.007090391099161931
18.403,109,18,403000000,,8.646161892251609e-05,-0.0013412055901714768,0.00714540775347071
18.413,110,18,413000000,,7.449386181804993e-05,-0.0013113323935391684,0.007194350539890661
18.423000000000002,111,18,423000000,,7.1829605326704e-05,-0.0012765911355540603,0.007240989598601706
18.433,112,18,433000000,,7.701364788275611e-05,-0.0012548673167124197,0.007290615438431079
18.443,113,18,443000000,,8.110558351742155e-05,-0.001255583467296068,0.007345804972429962
18.453,114,18,453000000,,7.597026427100908e-05,-0.0012708331877365248,0.007404652260130864
18.463,115,18,463000000,,6.187878311846384e-05,-0.001280586294214678,0.007462885472068532
18.473,116,18,473000000,,4.758518335777958e-05,-0.0012681639653956218,0.007517605946256492
18.483,117,18,483000000,,4.3131871414103525e-05,-0.0012309667862136825,0.0075693029495626845
18.493,118,18,493000000,,4.806700334819063e-05,-0.0012004478681326449,0.007622833685370357
18.503,119,18,503000000,,5.81720679030466e-05,-0.0011778599228864572,0.007676101398030078
18.513,120,18,513000000,,5.792423419593911e-05,-0.0011919630259908038,0.00772984590411281
18.523,121,18,523000000,,4.133015281198043e-05,-0.0012201737823566625,0.007785366473700831
18.533,122,18,533000000,,1.8603103017209622e-05,-0.0012362628724544456,0.007839655753441756
18.543,123,18,543000000,,5.860887754944528e-06,-0.0012214619450475865,0.007893668854454588
18.553,124,18,553000000,,1.2409024669954907e-05,-0.0011807450038692126,0.007949474638055174
18.563,125,18,563000000,,3.157397836226986e-05,-0.0011405667839640308,0.008007626845614294
18.573,126,18,573000000,,4.401791032482809e-05,-0.0011295788175743151,0.008065799089435008
18.583,127,18,583000000,,3.313630995292982e-05,-0.0011545758480910784,0.008120453700627766
18.593,128,18,593000000,,9.533837505044833e-07,-0.001193213463626628,0.00817063225563831
18.603,129,18,603000000,,-3.0965341566217204e-05,-0.0012115210151880532,0.008219606439619316
18.613,130,18,613000000,,-3.858725693876032e-05,-0.0011913818366456272,0.008273284084059128
18.623,131,18,623000000,,-1.6075890432879693e-05,-0.0011445206101793528,0.00833488800402753
18.633,132,18,633000000,,1.7248307146898242e-05,-0.0011046616996414878,0.008401039595354329
18.643,133,18,643000000,,2.9137682244843193e-05,-0.0010964453391939706,0.008463464995686322
18.653,134,18,653000000,,8.64556614975109e-06,-0.0011389515507103417,0.008517736979201676
18.663,135,18,663000000,,-4.306436145721316e-05,-0.0011798970388501903,0.008561026792774165
18.673000000000002,136,18,673000000,,-8.697541569046668e-05,-0.0011985754590652336,0.008601366561256391
18.683,137,18,683000000,,-8.374911048771614e-05,-0.0011710482852777362,0.00865613972869717
18.693,138,18,693000000,,-4.0579400819837606e-05,-0.0011253723496552528,0.008733600541782122
18.703,139,18,703000000,,2.301883062647547e-06,-0.0010917497510600288,0.008807872950723668
18.713,140,18,713000000,,1.3898098945599191e-05,-0.0010948926197413796,0.008865389750136659
18.723,141,18,723000000,,-3.338599027785885e-05,-0.0011395051832197413,0.008912143373478527
18.733,142,18,733000000,,-0.00010459209275996215,-0.0011821489185151917,0.00894580414784909
18.743,143,18,743000000,,-0.00014719671828331617,-0.0011800585160707216,0.008983691915225004
18.753,144,18,753000000,,-0.00012295309447521094,-0.001161448355813587,0.00904222504474745
18.763,145,18,763000000,,-5.750228040036536e-05,-0.0011068258406024352,0.009121807085400334
18.773,146,18,773000000,,-1.5211154632629635e-06,-0.0010844847410070892,0.009204811152741051
18.783,147,18,783000000,,-8.621376784830992e-06,-0.001105710091596232,0.009269665038868192
18.793,148,18,793000000,,-8.27473589771306e-05,-0.0011519627859785373,0.009307785570169844
18.803,149,18,803000000,,-0.00017086000071436902,-0.0011838950588683725,0.009331281899419256
18.813,150,18,813000000,,-0.00020436495642602587,-0.0011770901846894903,0.009366307605545124
18.823,151,18,823000000,,-0.00015672150455641902,-0.001140265401766417,0.009432483145368062
18.833,152,18,833000000,,-6.697393155878241e-05,-0.001104682426946139,0.009523900314601375
18.843,153,18,843000000,,-1.1279471856495528e-05,-0.001099989412962867,0.00961289717240668
18.853,154,18,853000000,,-3.554962549422267e-05,-0.0011258874762920495,0.009675538930286096
18.863,155,18,863000000,,-0.00014684964208183036,-0.0011679422373085185,0.00969905799698856
18.873,156,18,873000000,,-0.00024303445090521908,-0.0011806744901533461,0.009712905419594249
18.883,157,18,883000000,,-0.0002560524302933815,-0.0011617059122627912,0.00974954589868477
18.893,158,18,893000000,,-0.0001765375894291821,-0.0011315871593135416,0.009827814814193507
18.903,159,18,903000000,,-7.89742102840414e-05,-0.0011170378917510406,0.009927605498064838
18.913,160,18,913000000,,-2.8796190907914402e-05,-0.0011315399383152248,0.010021894646832227
18.923000000000002,161,18,923000000,,-8.409321115348971e-05,-0.0011583466169603153,0.010075459193914872
18.933,162,18,933000000,,-0.00021171551587678448,-0.0011800585927582115,0.010099058514097821
18.943,163,18,943000000,,-0.00031385314065159747,-0.0011664687842765907,0.010090136654054723
18.953,164,18,953000000,,-0.0003026316185130079,-0.0011451037642841277,0.010134361354758632
18.963,165,18,963000000,,-0.00018155405215778995,-0.0011333133388272349,0.01022957065451179
18.973,166,18,973000000,,-7.354423819265372e-05,-0.00114749712368906,0.010342556787790048
18.983,167,18,983000000,,-5.78260228145391e-05,-0.001172037285414328,0.010428405357356892
18.993,168,18,993000000,,-0.00015617582484966618,-0.0011906337732371576,0.01047658265286293
19.003,169,19,3000000,,-0.0002984059338307964,-0.0011771764000281933,0.01047515952183709
19.013,170,19,13000000,,-0.00037279054963167916,-0.0011405518155924092,0.010464798304372873
19.023,171,19,23000000,,-0.00032230578386125406,-0.001128330581483962,0.010523093595123167
19.033,172,19,33000000,,-0.00017581291513807542,-0.0011536940298371896,0.01063812116961153
19.043,173,19,43000000,,-8.701996118501987e-05,-0.0011953060496351995,0.010754296075035452
19.053,174,19,53000000,,-0.0001227836129490823,-0.0012180937263943697,0.010825518893988232
19.063,175,19,63000000,,-0.00026055258185678557,-0.0011967673481249224,0.01083821975075065
19.073,176,19,73000000,,-0.00038980111506221546,-0.0011446323933542982,0.010824101712589523
19.083,177,19,83000000,,-0.0004136186981232973,-0.0011107778445036461,0.010842738099227586
19.093,178,19,93000000,,-0.00030198212590633805,-0.0011331251500184692,0.010925246736355889
19.103,179,19,103000000,,-0.00016885249791752035,-0.0011987104373107314,0.011051893292571403
19.113,180,19,113000000,,-0.00011988303452898407,-0.001250851124434128,0.011159366183847493
19.123,181,19,123000000,,-0.00020846624445059318,-0.0012462668129971076,0.01120968900085845
19.133,182,19,133000000,,-0.0003589047806224058,-0.0011760687898889324,0.011201158103955824
19.143,183,19,143000000,,-0.00045056486756417065,-0.0011001182541921773,0.011185560400598142
19.153,184,19,153000000,,-0.0004122189587333577,-0.0010913589668356226,0.011224577293786734
19.163,185,19,163000000,,-0.00028400577669428695,-0.0011664569090938763,0.01133376881337357
19.173,186,19,173000000,,-0.00017940278044748214,-0.001265105333773553,0.011465275452165795
19.183,187,19,183000000,,-0.00019113427739519083,-0.0013020305401799347,0.011555236503828425
19.193,188,19,193000000,,-0.0003142412929983927,-0.0012403898720834395,0.011586318415988247
19.203,189,19,203000000,,-0.00043726175035671414,-0.0011316889355494591,0.01156052645903268
19.213,190,19,213000000,,-0.00048211381325510497,-0.0010572114480207064,0.01156403067261191
19.223,191,19,223000000,,-0.0004065418156081587,-0.0010907851732329234,0.01161437649204649
19.233,192,19,233000000,,-0.00027167293033399174,-0.0012339568417221393,0.011747479671993402
19.243,193,19,243000000,,-0.00022209147794677184,-0.0013354589029697765,0.011869107173147164
19.253,194,19,253000000,,-0.00028911082631995644,-0.0013157815203479137,0.011928927323168628
19.263,195,19,263000000,,-0.00041673474650370286,-0.0011832461370035444,0.011922148493499983
19.273,196,19,273000000,,-0.0004970326733310397,-0.001047812157091499,0.011897487859302485
19.283,197,19,283000000,,-0.00046926011629084825,-0.0010323406821620429,0.011923329657285178
19.293,198,19,293000000,,-0.00036888392507034446,-0.0011603849369112643,0.012024975588649662
19.303,199,19,303000000,,-0.0002911289695109894,-0.0013228816905791149,0.01215778996166729
19.313,200,19,313000000,,-0.0002991165437450856,-0.0013816662622825214,0.012253692536540866
19.323,201,19,323000000,,-0.00039977507237663935,-0.0012697059298071342,0.012278821029085434
19.333,202,19,333000000,,-0.0004916458326812075,-0.0010858470059477508,0.012256193385612497
19.343,203,19,343000000,,-0.0005054142964048563,-0.000986570647037328,0.012249909336650551
19.353,204,19,353000000,,-0.0004416618681124389,-0.0010668510146030822,0.012312992892166998
19.363,205,19,363000000,,-0.0003687641743076103,-0.001261084932539009,0.012434339065823585
19.373,206,19,373000000,,-0.0003549868974600415,-0.0013985661669286597,0.012551453344331193
19.383,207,19,383000000,,-0.0004114193489258445,-0.001355151268594319,0.01261084975959675
19.393,208,19,393000000,,-0.00048651338428865146,-0.0011612076152036856,0.012608287397781281
19.403,209,19,403000000,,-0.000514735682466246,-0.0009826783496849842,0.012590261035200646
19.413,210,19,413000000,,-0.0004806811253273854,-0.000981635301413151,0.012618545475440177
19.423000000000002,211,19,423000000,,-0.0004302383577602345,-0.0011641665191329165,0.012712940856806802
19.433,212,19,433000000,,-0.0004166271157250828,-0.0013551776579440655,0.012826932451552472
19.443,213,19,443000000,,-0.00044935089950051655,-0.0014199950838930527,0.01291721889561409
19.453,214,19,453000000,,-0.0005032256467794637,-0.0012497875693753082,0.012941374084043753
19.463,215,19,463000000,,-0.0005196689595784743,-0.0010205801939423913,0.012930431707166267
19.473,216,19,473000000,,-0.0004935313011290906,-0.0009276511233189395,0.012938506528366396
19.483,217,19,483000000,,-0.00046328044868312196,-0.0010570542391049966,0.013002794399884296
19.493,218,19,493000000,,-0.0004707666775420679,-0.0012929584650199363,0.013107334795222048
19.503,219,19,503000000,,-0.0005122305514588619,-0.0014205628581036953,0.013201978557161749
19.513,220,19,513000000,,-0.0005461635318856868,-0.0013235793708070312,0.013250468652115559
19.523,221,19,523000000,,-0.0005379068803636422,-0.0010835097178841398,0.013257697536161862
19.533,222,19,533000000,,-0.0004957618675578094,-0.0009122617917540837,0.013262848535388715
19.543,223,19,543000000,,-0.00047204406160297643,-0.0009688826715383877,0.013318247426684884
19.553,224,19,553000000,,-0.0005000850884085704,-0.0011930830032198193,0.01338697922045072
19.563,225,19,563000000,,-0.000568024014704496,-0.0013839297125455344,0.01347595841037605
19.573,226,19,573000000,,-0.0006082196055490586,-0.0013639628790344444,0.013537383222961273
19.583,227,19,583000000,,-0.0005786937635621471,-0.001149122128638722,0.013564481945270901
19.593,228,19,593000000,,-0.0005043344361246162,-0.0009290335799129361,0.01358020748549858
19.603,229,19,603000000,,-0.00046006917380991976,-0.0009023764014244666,0.01361403067935392
19.613,230,19,613000000,,-0.0005032426734485237,-0.001090098845475194,0.013675426068157668
19.623,231,19,623000000,,-0.000606822153509118,-0.0013122094500410283,0.013747765693284954
19.633,232,19,633000000,,-0.0006751301504976508,-0.0013624622310743689,0.01380838818491392
19.643,233,19,643000000,,-0.0006395713655276986,-0.001195751786754698,0.01384984011589973
19.653,234,19,653000000,,-0.0005403236485625282,-0.000978199909523623,0.01388482577632739
19.663,235,19,663000000,,-0.0004555242761468136,-0.0008431462858754046,0.013921865337146446
19.673000000000002,236,19,673000000,,-0.0004793780260295099,-0.0010240259672431523,0.013971232834766957
19.683,237,19,683000000,,-0.0006218617833592579,-0.0012216872767596228,0.014023064462582262
19.693,238,19,693000000,,-0.0007327376257986525,-0.001321008804055387,0.014070638513392363
19.703,239,19,703000000,,-0.0007103946198320617,-0.00120942496977965,0.014116005474550396
19.713,240,19,713000000,,-0.0005715373717565987,-0.0009891178402715345,0.01416600072226234
19.723,241,19,723000000,,-0.0004457908846817598,-0.0008594949421209554,0.014220370772245212
19.733,242,19,733000000,,-0.0004606097814734062,-0.0009346579785300588,0.014269067537831104
19.743,243,19,743000000,,-0.0005993405351490652,-0.0011111947767158026,0.01430602405145859
19.753,244,19,753000000,,-0.0007747533559116439,-0.0012532282124907987,0.014330229140743259
19.763,245,19,763000000,,-0.0007811461895713346,-0.0011885531400844323,0.014368272294527782
19.773,246,19,773000000,,-0.0006487128333270415,-0.0010190385154939556,0.014442383186107991
19.783,247,19,783000000,,-0.00047056285042247105,-0.0008653418752835166,0.014516663864012362
19.793,248,19,793000000,,-0.0004344441013405978,-0.0008896757620993608,0.014562679052759571
19.803,249,19,803000000,,-0.0005970013169567615,-0.0010472119846667459,0.014586502384329689
19.813,250,19,813000000,,-0.000794887033422189,-0.0011651739694122554,0.014589766005633385
19.823,251,19,823000000,,-0.0008470568183706245,-0.0011415830502696793,0.014612020889601856
19.833,252,19,833000000,,-0.0007052527244883806,-0.000996471861033364,0.014674369085622219
19.843,253,19,843000000,,-0.0004752095731685102,-0.0008539424992646963,0.01477301773265067
19.853,254,19,853000000,,-0.0004166172132639409,-0.0008610372523152289,0.014847499621340854
19.863,255,19,863000000,,-0.0005728030989352714,-0.0009777033593717948,0.014868127352848478
19.873,256,19,873000000,,-0.000782817176881089,-0.0010644920466636855,0.014871291671903973
19.883,257,19,883000000,,-0.0008817012020110496,-0.0010485216653121944,0.014848939973648306
19.893,258,19,893000000,,-0.0007369226975006991,-0.000936258557789402,0.014913012108034522
19.903,259,19,903000000,,-0.0005053192767144495,-0.0008401683958070737,0.01502561538488102
19.913,260,19,913000000,,-0.000411317590894908,-0.0008423225192090043,0.015119648124433312
19.923000000000002,261,19,923000000,,-0.0005526078411874851,-0.0009220312800179297,0.015143296521310067
19.933,262,19,933000000,,-0.000797028846153692,-0.0009779899774359283,0.015107520946932112
19.943,263,19,943000000,,-0.0009069798651129038,-0.0009467858405617874,0.015083351054125024
19.953,264,19,953000000,,-0.0007999110281074612,-0.0008705572171475956,0.015134202183261765
19.963,265,19,963000000,,-0.0005324513072145869,-0.0008077893616851551,0.015265656732270674
19.973,266,19,973000000,,-0.00041290155341128703,-0.000822080707694257,0.015378801236597356
19.983,267,19,983000000,,-0.0005406446492478234,-0.000870876083221362,0.015423124776485319
19.993,268,19,993000000,,-0.0007643323159986267,-0.0008832235817194693,0.015386131159261752
20.003,269,20,3000000,,-0.0009158233962612832,-0.0008317766505205116,0.015313970527900773
20.013,270,20,13000000,,-0.0008006007783005124,-0.0007706841877621334,0.015359782219210888
20.023,271,20,23000000,,-0.000557313000867081,-0.0007596751314728459,0.015494711057801001
20.033,272,20,33000000,,-0.0004246709796320434,-0.0007973978331421227,0.01562401768897094
20.043,273,20,43000000,,-0.0005342441285489105,-0.0008260106987865405,0.015661117145739024
20.053,274,20,53000000,,-0.0007766835349420899,-0.0007892995476863633,0.015603963568259941
20.063,275,20,63000000,,-0.0009095972559341592,-0.000712324110014378,0.015547860285158104
20.073,276,20,73000000,,-0.0008049106692577908,-0.0006611750509917044,0.015592571195816883
20.083,277,20,83000000,,-0.0005959033632731417,-0.000686468866374682,0.015719755092724
20.093,278,20,93000000,,-0.0004381901708174462,-0.0007631562858877164,0.01585676747156621
20.103,279,20,103000000,,-0.0005376419826785222,-0.0007739111211182755,0.015898946543643537
20.113,280,20,113000000,,-0.0007448124452068125,-0.0006989882013292402,0.01584940790873445
20.123,281,20,123000000,,-0.0008883288713200825,-0.000580836365682898,0.015785528269990082
20.133,282,20,133000000,,-0.0008110810888767647,-0.0005375349822863275,0.015801083474273434
20.143,283,20,143000000,,-0.0005740618279842985,-0.0006227531032205981,0.015932372850947386
20.153,284,20,153000000,,-0.0004565039896651415,-0.0007174943712285807,0.016077682141597906
20.163,285,20,163000000,,-0.0005512833298847123,-0.0007100864688634714,0.016121019074332214
20.173,286,20,173000000,,-0.0007553577204428035,-0.0005793702269384146,0.016054835223466738
20.183,287,20,183000000,,-0.0008568996218350393,-0.0004434695381380629,0.016000195759145127
20.193,288,20,193000000,,-0.0007768150970398157,-0.00041286496750758743,0.015997099148424038
20.203,289,20,203000000,,-0.0005834937043029449,-0.0005271945445562743,0.01613121213818044
20.213,290,20,213000000,,-0.00047284814450297886,-0.0006543040476462785,0.01628076124397063
20.223,291,20,223000000,,-0.0005674432773069721,-0.0006314256400408219,0.016327138060176185
20.233,292,20,233000000,,-0.0007411673693998441,-0.0004575250946717982,0.016259670192869072
20.243,293,20,243000000,,-0.0008116389994809852,-0.00029578794819962043,0.01618353151991557
20.253,294,20,253000000,,-0.000713091502572362,-0.00030336176240530586,0.01621327694018012
20.263,295,20,263000000,,-0.000554545727437285,-0.0004614313072056816,0.016350758078734567
20.273,296,20,273000000,,-0.0004957846251343758,-0.0005882572362145153,0.016484382707763968
20.283,297,20,283000000,,-0.0005728020297359347,-0.0005440442106193588,0.016523073769192646
20.293,298,20,293000000,,-0.0007231068277978866,-0.0003175055373639613,0.016450512780565456
20.303,299,20,303000000,,-0.0007559681467902195,-0.00014963658825460703,0.01638460744761325
20.313,300,20,313000000,,-0.0006585865279539735,-0.00018728203080670087,0.016420881997795803
20.323,301,20,323000000,,-0.0005393885112449287,-0.00037572661868057373,0.016550252472994933
20.333,302,20,333000000,,-0.0005209175486903288,-0.0004701023882564144,0.016667541955396444
20.343,303,20,343000000,,-0.0005978823727681065,-0.0004288486233856758,0.01668950839745896
20.353,304,20,353000000,,-0.0006916817299868664,-0.00016335957063462998,0.01662944826425799
20.363,305,20,363000000,,-0.00068644273323352,-5.729085063594714e-06,0.01658044942061871
20.373,306,20,373000000,,-0.0006083068657238121,-5.7395777277849156e-05,0.01663523231777792
20.383,307,20,383000000,,-0.0005254947845837966,-0.00028319185963175035,0.016756799970852283
20.393,308,20,393000000,,-0.0005309881319106837,-0.00038273897834784505,0.016848766275551725
20.403,309,20,403000000,,-0.0006049851889748096,-0.00025273048258981436,0.01684693905559893
20.413,310,20,413000000,,-0.0006438680893330493,-1.618067477655466e-05,0.016807213931667373
20.423000000000002,311,20,423000000,,-0.000606794459548943,0.00013251888088375887,0.01677162205184728
20.433,312,20,433000000,,-0.0005436243278567341,4.47071125995119e-05,0.01683266405404191
20.443,313,20,443000000,,-0.0005127645400555609,-0.0001935895218770896,0.01691746986352042
20.453,314,20,453000000,,-0.0005498290789476264,-0.0002526921689594494,0.01698653624611262
20.463,315,20,463000000,,-0.0005917856808372953,-7.459128854303108e-05,0.016991717204056938
20.473,316,20,473000000,,-0.0005839642869437784,0.0001631473430973346,0.016984689832703775
20.483,317,20,483000000,,-0.0005211425636988331,0.0002613886366121954,0.016958623994106293
20.493,318,20,493000000,,-0.0004858851639958866,0.00013774232949513416,0.01700745371271262
20.503,319,20,503000000,,-0.0005044929862073931,-0.0001052038039103753,0.017076787423108655
20.513,320,20,513000000,,-0.0005534157188791738,-8.604002677854498e-05,0.017120798610341763
20.523,321,20,523000000,,-0.0005583678342136725,0.0001060719250110496,0.017147409316380945
20.533,322,20,533000000,,-0.000497526994984857,0.0003532640424767794,0.017123749161003787
20.543,323,20,543000000,,-0.0004406967426810905,0.00039484362716555693,0.017156670816281246
20.553,324,20,553000000,,-0.0004414853485165888,0.00020533647148541622,0.017177572187755022
20.563,325,20,563000000,,-0.0004961331042336047,6.105419126787255e-05,0.017215006563884153
20.573,326,20,573000000,,-0.00053810381192377,0.00010916028375818303,0.017240336122842082
20.583,327,20,583000000,,-0.0004995046398089417,0.0003151514250827393,0.01726052754706791
20.593,328,20,593000000,,-0.0004022559589430385,0.0005173738780582484,0.01728469982386255
20.603,329,20,603000000,,-0.00036087182569914406,0.00048538543790472416,0.017310872031268493
20.613,330,20,613000000,,-0.00041290984894534234,0.0003117135825161239,0.0173259820343604
20.623,331,20,623000000,,-0.0004924233370745257,0.00021962748102758069,0.017332195546086848
20.633,332,20,633000000,,-0.0004949924465503572,0.0003376551337308192,0.01736768976760921
20.643,333,20,643000000,,-0.00040311400435966686,0.0005496139914915964,0.01739433735752178
20.653,334,20,653000000,,-0.0003093830808253373,0.0006717308240072371,0.017459007686204977
20.663,335,20,663000000,,-0.00030028296018537145,0.0005873749791183837,0.01746437130642565
20.673000000000002,336,20,673000000,,-0.0003820336058876915,0.00045360015054205166,0.01745240276847111
20.683,337,20,683000000,,-0.0004661057404896157,0.00041820385030693437,0.017429928522033008
20.693,338,20,693000000,,-0.000422038155804324,0.0005682668434823985,0.017459476286204298
20.703,339,20,703000000,,-0.00030591604197031876,0.0007462808217411202,0.017545190097557353
20.713,340,20,713000000,,-0.00021063670550864678,0.0008008208935861239,0.017595597947766013
20.723,341,20,723000000,,-0.0002580706802906213,0.0006994029222679801,0.017592835037750446
20.733,342,20,733000000,,-0.0003724570020135456,0.0006036578733636021,0.017540931087388648
20.743,343,20,743000000,,-0.00041190064129529354,0.0006477124301534461,0.017534222553813886
20.753,344,20,753000000,,-0.0003151899929095224,0.0008099344045214158,0.017574314028839248
20.763,345,20,763000000,,-0.00018371682030699348,0.0009350819229369734,0.017669727906486226
20.773,346,20,773000000,,-0.00013513815224806122,0.0009280346405321134,0.017730109393442724
20.783,347,20,783000000,,-0.00022892671958806428,0.000835685304854995,0.017689158547839895
20.793,348,20,793000000,,-0.0003359931858758181,0.0008061966117034695,0.017610064725020986
20.803,349,20,803000000,,-0.00032060462649529065,0.000900105193364733,0.01760177945030565
20.813,350,20,813000000,,-0.00018421999834306605,0.0010391489937925968,0.01770011336494314
20.823,351,20,823000000,,-6.689725494385759e-05,0.0011065605505216679,0.017808573806136065
20.833,352,20,833000000,,-8.056585220219385e-05,0.0010615868789378923,0.017836135555287458
20.843,353,20,843000000,,-0.00020030686186058044,0.0010081744477005656,0.017751525091932962
20.853,354,20,853000000,,-0.00026917188935835813,0.0010422673857141457,0.017665647647979663
20.863,355,20,863000000,,-0.00019320714627904962,0.0011590065112190562,0.017715775236134736
20.873,356,20,873000000,,-4.3796780569348936e-05,0.0012469108385265303,0.017832734578165966
20.883,357,20,883000000,,2.9651957802637673e-05,0.0012584328750296992,0.017933653586824177
20.893,358,20,893000000,,-4.073305554216231e-05,0.0012195819963955374,0.017904427592165085
20.903,359,20,903000000,,-0.00015393019387364043,0.0012215072277049518,0.01778547860661632
20.913,360,20,913000000,,-0.00016307576074493208,0.0012981270579688162,0.01772338867890231
20.923000000000002,361,20,923000000,,-4.278992346091083e-05,0.001392654483717872,0.017810721986900924
20.933,362,20,933000000,,8.866731479716564e-05,0.0014353057330153541,0.017961045207200946
20.943,363,20,943000000,,0.00010023827212637929,0.001421505790724815,0.018019134434366493
20.953,364,20,953000000,,4.978205860820877e-07,0.0014149712125731018,0.017933930244106618
20.963,365,20,963000000,,-6.727792157727939e-05,0.001471371031157069,0.017834670641538066
20.973,366,20,973000000,,-1.9780129187831243e-05,0.001554669782212332,0.017797490635784223
20.983,367,20,983000000,,0.0001164031828566207,0.001611278531601569,0.017933192887261536
20.993,368,20,993000000,,0.00019964439296263134,0.0016157322245068896,0.018065785593184905
21.003,369,21,3000000,,0.0001565088304142983,0.001609973748707693,0.018061029986137078
21.013,370,21,13000000,,6.336694978994736e-05,0.0016484946921225562,0.017933237630906478
21.023,371,21,23000000,,5.038517192701447e-05,0.0017292277283252556,0.01783434007124147
21.033,372,21,33000000,,0.000148927655982028,0.0017961174903539446,0.017893493454719116
21.043,373,21,43000000,,0.000265488223742725,0.0018132690903975303,0.018048804641444042
21.053,374,21,53000000,,0.0002955004800043657,0.0018196751736539647,0.018147195653941024
21.063,375,21,63000000,,0.00023094179369393867,0.0018404135708629961,0.018091036111243367
21.073,376,21,73000000,,0.00016990538590696617,0.0019102172249718604,0.017952737901601366
21.083,377,21,83000000,,0.00020971782167962546,0.001984375438074016,0.017885078655043997
21.093,378,21,93000000,,0.0003204356479918863,0.0020175512300548456,0.017999870511831703
21.103,379,21,103000000,,0.00039135848530531077,0.002013845066090329,0.01813430538668504
21.113,380,21,113000000,,0.0003754254471903753,0.0020268688009890973,0.018152778580994816
21.123,381,21,123000000,,0.0003062569027789226,0.002087929477732663,0.01803131733518633
21.133,382,21,133000000,,0.0003078279028609349,0.0021771204074651435,0.01794979789449549
21.143,383,21,143000000,,0.00038387357974652993,0.0022350296787703164,0.017968614624449954
21.153,384,21,153000000,,0.0004771794651827192,0.002244926220629567,0.01809799532517711
21.163,385,21,163000000,,0.0005044481029372507,0.002235070307583664,0.01817141694267926
21.173,386,21,173000000,,0.00045767845575919643,0.0022757563576248085,0.018118871603730224
21.183,387,21,183000000,,0.000434421032660287,0.0023559244333294857,0.018000043464029024
21.193,388,21,193000000,,0.00047994831578159587,0.002434084993989067,0.017973642043010853
21.203,389,21,203000000,,0.0005682799994589027,0.002452622613961697,0.018042209995304422
21.213,390,21,213000000,,0.0006200414192932564,0.002464636012345723,0.018165731851781348
21.223,391,21,223000000,,0.0006133898874010664,0.0024893109748611022,0.0181816437861279
21.233,392,21,233000000,,0.0005804455754207064,0.0025414352590209834,0.01808223010903062
21.243,393,21,243000000,,0.000597720411869814,0.0026198256377916026,0.01798924007299789
21.253,394,21,253000000,,0.0006682193036810721,0.002667973067746006,0.018009152404457437
21.263,395,21,263000000,,0.0007335304483294763,0.0026976615250655298,0.01810795427229202
21.273,396,21,273000000,,0.0007527894504205593,0.0027133560504053215,0.018167786161900495
21.283,397,21,283000000,,0.0007267707194429499,0.0027473321136381097,0.018111810112440153
21.293,398,21,293000000,,0.0007306674086331029,0.0028136313839460894,0.01803200804227285
21.303,399,21,303000000,,0.00078280291166701,0.0028730765328375198,0.018004532574903254
21.313,400,21,313000000,,0.0008504909225543554,0.002910652200289229,0.018053285439436625
21.323,401,21,323000000,,0.0008856609874592005,0.002936511251866333,0.01811067299674355
21.333,402,21,333000000,,0.0008808157026727108,0.002970642155170826,0.018110056462196163
21.343,403,21,343000000,,0.0008778340082057237,0.003018907498787134,0.018063653492994148
21.353,404,21,353000000,,0.0009098880874676883,0.0030745574688434527,0.018016635664431447
21.363,405,21,363000000,,0.0009705040611526696,0.003126787188693072,0.018022256909516733
21.373,406,21,373000000,,0.0010261778935738474,0.0031716202395070626,0.018060660617763794
21.383,407,21,383000000,,0.0010395834064670382,0.003209117411639115,0.018072792906409105
21.393,408,21,393000000,,0.0010364028254980387,0.003244715755363307,0.018053033156829056
21.403,409,21,403000000,,0.0010489777945327631,0.003281640820292658,0.01802236115600592
21.413,410,21,413000000,,0.0011021160434886684,0.00333382464007595,0.018014564456453604
21.423000000000002,411,21,423000000,,0.0011677603770976724,0.0034058467652783157,0.01803611483270402
21.433,412,21,433000000,,0.0012022843587061608,0.003452210805096893,0.01801806559904989
21.443,413,21,443000000,,0.0012027608564310886,0.003485047994439179,0.018007366932815946
21.453,414,21,453000000,,0.0012021872681703088,0.003504725434801537,0.018001988253042996
21.463,415,21,463000000,,0.0012364254844146076,0.0035411520020331667,0.018003364224879703
21.473,416,21,473000000,,0.0013038428260166394,0.0036110476561604537,0.017993773393212967
21.483,417,21,483000000,,0.0013683862156300118,0.003698557451212014,0.017985011370940007
21.493,418,21,493000000,,0.0013842022092221211,0.0037377364934763346,0.017941093242713056
21.503,419,21,503000000,,0.0013735040986147284,0.003747903207190146,0.017947824969231328
21.513,420,21,513000000,,0.0013815405797354395,0.003760379332507977,0.017973311286509062
21.523,421,21,523000000,,0.0014386156497911932,0.0038196591464954017,0.01797277506558436
21.533,422,21,533000000,,0.0015218818502518838,0.00391558776494297,0.01792540435226302
21.543,423,21,543000000,,0.0015725615542759653,0.003989930805014397,0.017869719117742655
21.553,424,21,553000000,,0.0015765092740096895,0.004023662957479597,0.01787850045121665
21.563,425,21,563000000,,0.0015450168419262876,0.0039983822483658955,0.017911889373223428
21.573,426,21,573000000,,0.0015752713106827712,0.004033262815626162,0.017940568640803754
21.583,427,21,583000000,,0.0016677353827025232,0.0041306383494705235,0.01789571018432119
21.593,428,21,593000000,,0.0017581184835098232,0.004231266392466259,0.017807515859031543
21.603,429,21,603000000,,0.0017752122399663404,0.0042706521029082884,0.017767906280692646
21.613,430,21,613000000,,0.0017345798841993023,0.004256623674517848,0.017817330959715973
21.623,431,21,623000000,,0.001724139692680415,0.004263841582372714,0.017881940444894724
21.633,432,21,633000000,,0.0018022000367960856,0.004351126344673433,0.017886104630466672
21.643,433,21,643000000,,0.0019250864770897337,0.00445592701497296,0.0177695708775795
21.653,434,21,653000000,,0.001994303990589793,0.00452886367628292,0.017672326701160423
21.663,435,21,663000000,,0.0019529657639665902,0.0045253682862684145,0.01769733275008589
21.673000000000002,436,21,673000000,,0.0019042525265342708,0.00452538019086657,0.01780495140063014
21.683,437,21,683000000,,0.0019420503756134196,0.004552682979325707,0.017814184221336925
21.693,438,21,693000000,,0.002084174464925112,0.004698278953657242,0.01771973899307223
21.703,439,21,703000000,,0.0022077616810609454,0.004774204704877684,0.017590480425806476
21.713,440,21,713000000,,0.002194337244812668,0.004792365001184079,0.01756691091682991
21.723,441,21,723000000,,0.0021201946064299073,0.004795612578576305,0.017664958363040616
21.733,442,21,733000000,,0.0020859491075864867,0.004809254345571861,0.0177344425348263
21.743,443,21,743000000,,0.0022094445192325073,0.0049032624704776874,0.01768511119875588
21.753,444,21,753000000,,0.0023957688243228252,0.005007046238334306,0.017536542976729647
21.763,445,21,763000000,,0.002447920112396993,0.005049612647544449,0.017441132257681524
21.773,446,21,773000000,,0.002342336854526386,0.005047173737406174,0.01751010042047107
21.783,447,21,783000000,,0.0022600916473198784,0.005069178235372868,0.017618527665169848
21.793,448,21,793000000,,0.002356679943947338,0.005150479759375282,0.01760976857410339
21.803,449,21,803000000,,0.0025752017196864247,0.00524359871139929,0.01746619476940923
21.813,450,21,813000000,,0.0026962320716508222,0.0052930003157003825,0.017330489093899837
21.823,451,21,823000000,,0.0026126474610725665,0.005308508078232546,0.01734881529574039
21.833,452,21,833000000,,0.002482685973077148,0.005339156551612633,0.01745550058435516
21.843,453,21,843000000,,0.002496498374713064,0.005408668083606266,0.01751410005533648
21.853,454,21,853000000,,0.002721800562661266,0.00548681624816706,0.017402960017682625
21.863,455,21,863000000,,0.0029243720139216466,0.0055283587058603464,0.017235873718896292
21.873,456,21,873000000,,0.002917778409189882,0.005555265085271679,0.017183882957493384
21.883,457,21,883000000,,0.0027219741278196605,0.0056032758903218636,0.017295227157854674
21.893,458,21,893000000,,0.002661712812397042,0.005652302707737581,0.017382831490353638
21.903,459,21,903000000,,0.002854403083830063,0.005776992759504071,0.017320408521246326
21.913,460,21,913000000,,0.003123013358310053,0.005767675697210965,0.017149783094624733
21.923000000000002,461,21,923000000,,0.0031845796090976706,0.0057815482779788535,0.017046067053776315
21.933,462,21,933000000,,0.0030450834501137315,0.005861417254093851,0.01710991918233135
21.943,463,21,943000000,,0.0028660052058032174,0.005961355803666425,0.017217999393721418
21.953,464,21,953000000,,0.0029681194395014716,0.006036916899936491,0.017214448000435756
21.963,465,21,963000000,,0.003292192650474068,0.006024124863035799,0.017060112436710205
21.973,466,21,973000000,,0.003451610961751478,0.006001836195771841,0.0169155811925761
21.983,467,21,983000000,,0.0033218267482551553,0.006076530344959917,0.016921212844078284
21.993,468,21,993000000,,0.003144155459108649,0.006233914015309449,0.01703028050364737
22.003,469,22,3000000,,0.003146573216061107,0.0063363474063696315,0.017063401981832416
22.013,470,22,13000000,,0.0034391232697725924,0.00630876901685891,0.016954202492725973
22.023,471,22,23000000,,0.0036872993080029645,0.006229548676376981,0.016793980464081634
22.033,472,22,33000000,,0.003635898415600847,0.006276069075159248,0.01674306107900858
22.043,473,22,43000000,,0.0034301231676121913,0.006457784252393564,0.01680820345349737
22.053,474,22,53000000,,0.003338704207886044,0.006642947853947907,0.01688624222196901
22.063,475,22,63000000,,0.003581534024055623,0.006625979886208682,0.016822543581653596
22.073,476,22,73000000,,0.0038811578299445936,0.006515831530674448,0.016698421875751192
22.083,477,22,83000000,,0.003937363694286042,0.0064618807530007335,0.016576081635373673
22.093,478,22,93000000,,0.003723543100986851,0.006676633231433434,0.016612193118655583
22.103,479,22,103000000,,0.003576630982356744,0.006931883036422785,0.016682696284474285
22.113,480,22,113000000,,0.0037398145285281272,0.006966032190480819,0.016659869707204053
22.123,481,22,123000000,,0.004069718358427905,0.006775144825091385,0.016534361735828538
22.133,482,22,133000000,,0.004210986572339697,0.006655218504049372,0.01641683018439831
22.143,483,22,143000000,,0.004089064627846658,0.006833254983010538,0.01641462038754269
22.153,484,22,153000000,,0.003866773550566985,0.007165967631723586,0.01645338595661738
22.163,485,22,163000000,,0.003934609256332562,0.0073257128702348,0.01648285605810579
22.173,486,22,173000000,,0.0042152525789809795,0.007161749400529408,0.016399340172970216
22.183,487,22,183000000,,0.004452153533759505,0.0068755921897208075,0.016256138839937376
22.193,488,22,193000000,,0.00436865263177962,0.00698567698174468,0.01620794172963989
22.203,489,22,203000000,,0.0041610812814551375,0.007389940511297684,0.016234902606905563
22.213,490,22,213000000,,0.004152263430426783,0.007649491687910023,0.01624925451849297
22.223,491,22,223000000,,0.004409934916401517,0.007488728867713575,0.016189388429127802
22.233,492,22,233000000,,0.004667245531565721,0.007147226959851671,0.01608503201863248
22.243,493,22,243000000,,0.004692165734516709,0.007125338307346891,0.016029535478731607
22.253,494,22,253000000,,0.004480013383039831,0.007540881493436961,0.016007787796125755
22.263,495,22,263000000,,0.004416032917789605,0.007944934004811346,0.016013943405478626
22.273,496,22,273000000,,0.0046075397816325615,0.007887391817638003,0.0159753652063649
22.283,497,22,283000000,,0.004868270751136649,0.007477959273722002,0.015894101424257737
22.293,498,22,293000000,,0.00493090480329007,0.0072887534259197554,0.015819561115109185
22.303,499,22,303000000,,0.004795197682666891,0.0076478231206869515,0.015784735136867806
22.313,500,22,313000000,,0.004710489225500433,0.00818117072578487,0.015769935929608
22.323,501,22,323000000,,0.004841795141657961,0.008281990222610166,0.01573740050258559
22.333,502,22,333000000,,0.005075753897576154,0.007867111648467392,0.01567840827599442
22.343,503,22,343000000,,0.0051742522719479996,0.00750319365576038,0.015614574234952905
22.353,504,22,353000000,,0.005089440728018347,0.007731696281369706,0.015564902719561973
22.363,505,22,363000000,,0.005015637970338763,0.008346899305648357,0.015525408032308027
22.373,506,22,373000000,,0.005102020537644407,0.008654019975195914,0.015482884117367248
22.383,507,22,383000000,,0.005306735293190802,0.008298486071226909,0.015438646666043249
22.393,508,22,393000000,,0.005407329805402021,0.0077875662966498125,0.015393706871715469
22.403,509,22,403000000,,0.005382602673568972,0.007807870135091148,0.01535996584894709
22.413,510,22,413000000,,0.005311236280295821,0.008446062853485096,0.015286008391596861
22.423000000000002,511,22,423000000,,0.005404979490967069,0.008939604685486302,0.015224274658115867
22.433,512,22,433000000,,0.005570444034443486,0.008745963610826203,0.015178755975063091
22.443,513,22,443000000,,0.005647279326882463,0.008149461377182005,0.015152085215200952
22.453,514,22,453000000,,0.005601225124784766,0.00795870333419027,0.015118166737638385
22.463,515,22,463000000,,0.0055839435236086634,0.008497879239466195,0.015052067878923051
22.473,516,22,473000000,,0.0057069611082411,0.009156797242495397,0.014966796970047757
22.483,517,22,483000000,,0.005872369789064652,0.009173766658781177,0.014905895043901978
22.493,518,22,493000000,,0.00593787392454225,0.00866531002702497,0.014898022139563137
22.503,519,22,503000000,,0.005840481716332334,0.00815966446408535,0.014876945553303756
22.513,520,22,513000000,,0.005821381223009916,0.008462706929808947,0.014821876039472211
22.523,521,22,523000000,,0.005990639482709095,0.009288068837771047,0.014716022759560835
22.533,522,22,533000000,,0.0061974845164291985,0.009547485765075005,0.014628428475728768
22.543,523,22,543000000,,0.006242618021137016,0.009120824571746927,0.014599412739552986
22.553,524,22,553000000,,0.006094632961719799,0.008452860236839565,0.014616053196921833
22.563,525,22,563000000,,0.006037919664042273,0.008585538789248864,0.014580535516503486
22.573,526,22,573000000,,0.006239241137447417,0.009344511205038215,0.014472931677557803
22.583,527,22,583000000,,0.006526437219938151,0.00983669482879046,0.014355141455089676
22.593,528,22,593000000,,0.006588114292714302,0.00951602201537358,0.014310560112809498
22.603,529,22,603000000,,0.006389726820655754,0.008832892592814785,0.014333071669230443
22.613,530,22,613000000,,0.0062438252364019,0.00867455274772589,0.014326929364225518
22.623,531,22,623000000,,0.00642401658017592,0.009297943521696049,0.01425444360520334
22.633,532,22,633000000,,0.006826487734288688,0.010039122416138834,0.014091284454508133
22.643,533,22,643000000,,0.006977665492797108,0.009957312782065976,0.014011034906466695
22.653,534,22,653000000,,0.0067454757222393325,0.009281028183620076,0.014029727433666477
22.663,535,22,663000000,,0.0064722684023077424,0.008907198955851073,0.014056515651368338
22.673000000000002,536,22,673000000,,0.006566122897234988,0.009299652208109572,0.013995846128775344
22.683,537,22,683000000,,0.007073968677457288,0.010147190994428743,0.013839056602285004
22.693,538,22,693000000,,0.007373678866754351,0.010323631524658157,0.013717390913241794
22.703,539,22,703000000,,0.007168400940903193,0.009756887401788844,0.013712224507731774
22.713,540,22,713000000,,0.006758174685495836,0.00920414515984107,0.013761499658751515
22.723,541,22,723000000,,0.006710643627648643,0.009362598831497579,0.01373756498654701
22.733,542,22,733000000,,0.007247486541237795,0.010185403252417905,0.013594937774073133
22.743,543,22,743000000,,0.007734838343560323,0.010594371423793169,0.013437068950433426
22.753,544,22,753000000,,0.007643151393149392,0.010217930650028363,0.013389964634064916
22.763,545,22,763000000,,0.007128457100794997,0.009582688017631229,0.013444043566014051
22.773,546,22,773000000,,0.006895620732551989,0.009536477289891399,0.013460916770840946
22.783,547,22,783000000,,0.007347989673408454,0.010189600963258872,0.013351472913041772
22.793,548,22,793000000,,0.008020305601663391,0.01076471649205064,0.0131733180443377
22.803,549,22,803000000,,0.008135505606188354,0.010621324996659376,0.013073995906759252
22.813,550,22,813000000,,0.007595647956558933,0.010009564109879417,0.013109457776927498
22.823,551,22,823000000,,0.007134529275072934,0.009737618471435847,0.013154342125545672
22.833,552,22,833000000,,0.00739988732127297,0.010208030458174231,0.01309894958236524
22.843,553,22,843000000,,0.008198618021759502,0.010856509228985473,0.012923646268562985
22.853,554,22,853000000,,0.008594685907966661,0.010941769221880577,0.01277422787178254
22.863,555,22,863000000,,0.008148690636743672,0.010442926849714354,0.012767504602990497
22.873,556,22,873000000,,0.007483752975547771,0.010054134585908795,0.012850358244603616
22.883,557,22,883000000,,0.007454000832336579,0.010277687014591972,0.012827470611924583
22.893,558,22,893000000,,0.008262621273243632,0.01090159691059915,0.012679883929034054
22.903,559,22,903000000,,0.008963971343586096,0.011169218021277025,0.012495925474790455
22.913,560,22,913000000,,0.00874899818302712,0.010836419483423078,0.012430525553478922
22.923000000000002,561,22,923000000,,0.00792909382565866,0.01038379465368298,0.012492429392737765
22.933,562,22,933000000,,0.007576261834638719,0.010424825628444262,0.012530348197177715
22.943,563,22,943000000,,0.008237044365473385,0.010946048856602445,0.01243100321189136
22.953,564,22,953000000,,0.009194754483284216,0.011321287292111354,0.012238368701708927
22.963,565,22,963000000,,0.009333407023885769,0.011160431505408621,0.012111410493345713
22.973,566,22,973000000,,0.008536220863754421,0.01074635531854421,0.012136087206425247
22.983,567,22,983000000,,0.007831616423868112,0.010644841930119697,0.012204797708587995
22.993,568,22,993000000,,0.008118228653074896,0.010996113478562549,0.012181037187143867
23.003,569,23,3000000,,0.009173241989881994,0.011410848387116517,0.012006634781137709
23.013,570,23,13000000,,0.009828246484978353,0.011411345888853288,0.011818024921709266
23.023,571,23,23000000,,0.009240176912736773,0.01108046597742685,0.01178249542427191
23.033,572,23,33000000,,0.008271712012982144,0.010913679790807674,0.01185390083734039
23.043,573,23,43000000,,0.008179836673495084,0.011164226552632533,0.011871601973673733
23.053,574,23,53000000,,0.009188146312613613,0.011539806328774127,0.011747285649984085
23.063,575,23,63000000,,0.01014701896250975,0.011614798601808548,0.011564197863273158
23.073,576,23,73000000,,0.010037135658159436,0.011372596690953989,0.011443362550935986
23.083,577,23,83000000,,0.008889445320723227,0.011173898770881872,0.011488731006208596
23.093,578,23,93000000,,0.008312234726618902,0.011326132749620632,0.011538645749539533
23.103,579,23,103000000,,0.008912865133975855,0.011657667769629359,0.01149228746995238
23.113,580,23,113000000,,0.010253423504043612,0.011764420199180902,0.011304785426750421
23.123,581,23,123000000,,0.010570101692234423,0.011553976988959692,0.011142851437897401
23.133,582,23,133000000,,0.009661896035503728,0.011401104973926409,0.0111242479993597
23.143,583,23,143000000,,0.008684248716000318,0.011553197834293916,0.01119378188315797
23.153,584,23,153000000,,0.00890023307518964,0.011865536339948789,0.011196161343666255
23.163,585,23,163000000,,0.010151371006038664,0.011955632032453726,0.011060933476791334
23.173,586,23,173000000,,0.010995849139760268,0.011731935587962098,0.010870484184207448
23.183,587,23,183000000,,0.010595507950860387,0.011559329820685044,0.010773629224671863
23.193,588,23,193000000,,0.009285262059021165,0.011714818314576497,0.010822447852046974
23.203,589,23,203000000,,0.008916153330014666,0.012067809027094646,0.01087170410001162
23.213,590,23,213000000,,0.00991080184418458,0.012199197552619421,0.010802119068937861
23.223,591,23,223000000,,0.01108538346471356,0.011970084994769698,0.010634846835087548
23.233,592,23,233000000,,0.011303979449287406,0.011701581473719884,0.010481313397676335
23.243,593,23,243000000,,0.010098046636366433,0.011798589053506808,0.010451003271509956
23.253,594,23,253000000,,0.00919602794497965,0.01223706625785511,0.010514486796753762
23.263,595,23,263000000,,0.009674562988150563,0.01248390009897539,0.010512263360897816
23.273,596,23,273000000,,0.011051317831181469,0.012227107158820066,0.010379038320388861
23.283,597,23,283000000,,0.011744480525203924,0.01179622787625876,0.010193554665712814
23.293,598,23,293000000,,0.01099919245306712,0.011800562619339003,0.010101834920874384
23.303,599,23,303000000,,0.00977426953779954,0.012307015035336235,0.010137782742528212
23.313,600,23,313000000,,0.009593122462642573,0.012754417856094371,0.01018371462575016
23.323,601,23,323000000,,0.010760303466540702,0.012609504862101854,0.010119680222609045
23.333,602,23,333000000,,0.011960593273738376,0.012029613389569085,0.009946777903795325
23.343,603,23,343000000,,0.01178441058045148,0.011591870410986664,0.009794713081571635
23.353,604,23,353000000,,0.010673693268041478,0.012409343746603291,0.009771144302268473
23.363,605,23,363000000,,0.009819783521724508,0.012882271325736654,0.009807061222164633
23.373,606,23,373000000,,0.010441622568757011,0.013034999132091926,0.009825048022770105
23.383,607,23,383000000,,0.011860171588316225,0.012450754234002217,0.009714223704550124
23.393,608,23,393000000,,0.012410584795306493,0.011690281083701168,0.009545811597815654
23.403,609,23,403000000,,0.011761923678597673,0.012164007109809713,0.009420326490947425
23.413,610,23,413000000,,0.010470598231491605,0.012807072435480463,0.009434604777499422
23.423000000000002,611,23,423000000,,0.01027734392269963,0.013388823634997944,0.00948643758678341
23.433,612,23,433000000,,0.011503488352972525,0.012971656550988002,0.009440575539498501
23.443,613,23,443000000,,0.012602742228924758,0.011894937575624926,0.009284549696935193
23.453,614,23,453000000,,0.012487418988972031,0.012023394748339623,0.009111339375154244
23.463,615,23,463000000,,0.011212548770914996,0.012612071552045339,0.009064607084228396
23.473,616,23,473000000,,0.010466556869751354,0.013537108076362431,0.009111931987665597
23.483,617,23,483000000,,0.011144882981155459,0.013563209640056102,0.00913369777747559
23.493,618,23,493000000,,0.012528661890050532,0.012628792095842488,0.009037616494762262
23.503,619,23,503000000,,0.01306275003455485,0.011836419575063937,0.008858448431625152
23.513,620,23,513000000,,0.012206614367191681,0.012195437997146829,0.008729253492672409
23.523,621,23,523000000,,0.011040135514793752,0.0133503997282657,0.008725557791594502
23.533,622,23,533000000,,0.010917958988122449,0.014007830746257324,0.008767580224390769
23.543,623,23,543000000,,0.012159805892231906,0.013376450491926609,0.0087625563653497
23.553,624,23,553000000,,0.013234593195206366,0.012304818381230096,0.008643958830761682
23.563,625,23,563000000,,0.01310672697198172,0.01184241332951397,0.008446760624715745
23.573,626,23,573000000,,0.011934316396741697,0.01283349361863334,0.008361442905533074
23.583,627,23,583000000,,0.011187821828286171,0.014051024135071463,0.008391803405921036
23.593,628,23,593000000,,0.011782498148021323,0.014113205899582563,0.008434801497256858
23.603,629,23,603000000,,0.013095262584050008,0.012920360346210046,0.00837541591769897
23.613,630,23,613000000,,0.013671219760742707,0.011840553692491967,0.008207558678382234
23.623,631,23,623000000,,0.012927768099674362,0.012189637535759586,0.008048871908612466
23.633,632,23,633000000,,0.011896768877666308,0.013496459883069417,0.007997654862028672
23.643,633,23,643000000,,0.011646425377028919,0.014545949413015144,0.00805795447556494
23.653,634,23,653000000,,0.012580764033172527,0.014040474600786492,0.008082596095268731
23.663,635,23,663000000,,0.01380200050569994,0.01238098007043656,0.007976765347758135
23.673000000000002,636,23,673000000,,0.013838394521556992,0.011728146219301247,0.0078055105920217535
23.683,637,23,683000000,,0.012724868090815598,0.012821396268689646,0.00766500957583236
23.693,638,23,693000000,,0.01194067385396286,0.014389356012173754,0.007662055147152276
23.703,639,23,703000000,,0.012285547235600594,0.014781367604011036,0.007716803687045808
23.713,640,23,713000000,,0.013440851705210392,0.013579442539535958,0.007710675118330697
23.723,641,23,723000000,,0.014234081219408423,0.011923131892417886,0.007571690667459911
23.733,642,23,733000000,,0.013697906379194666,0.011993685561956298,0.007388721681914731
23.743,643,23,743000000,,0.012650753993301197,0.013599894607586198,0.007294069462989551
23.753,644,23,753000000,,0.012338436889884171,0.014962153506230622,0.007322504249433713
23.763,645,23,763000000,,0.013155193101318276,0.01456393817606583,0.007377364472556425
23.773,646,23,773000000,,0.014229920846621074,0.012817700923448905,0.007331324453024073
23.783,647,23,783000000,,0.01444743225534082,0.011690750286008064,0.007177975794703967
23.793,648,23,793000000,,0.013678415691943582,0.012331085173056583,0.006998400904480085
23.803,649,23,803000000,,0.012795577204012035,0.014242697019061574,0.006925012682664233
23.813,650,23,813000000,,0.012895270546474047,0.015292452018187295,0.00698487888007653
23.823,651,23,823000000,,0.013903627399154423,0.014183371464894975,0.0070264781106497915
23.833,652,23,833000000,,0.014671639663777209,0.012454363545497707,0.006959707864403691
23.843,653,23,843000000,,0.014436917071040735,0.011700469951398642,0.006760800578739614
23.853,654,23,853000000,,0.013453154214117169,0.012920374864991584,0.006613813676794995
23.863,655,23,863000000,,0.013104205191950071,0.015302764896397333,0.006574101567673739
23.873,656,23,873000000,,0.013510673163366934,0.01542640637106656,0.006640415977733738
23.883,657,23,883000000,,0.014498564042210742,0.013381038694220289,0.0066772825633237675
23.893,658,23,893000000,,0.015036457722047463,0.01206921999400981,0.006548747725969999
23.903,659,23,903000000,,0.014418745446324302,0.011942155993443905,0.0063627476473618215
23.913,660,23,913000000,,0.01360382811480822,0.013891722579459169,0.006230517444739901
23.923000000000002,661,23,923000000,,0.013493841684780553,0.015572646535779442,0.00623475958505141
23.933,662,23,933000000,,0.014244692192346385,0.015159416390255483,0.006308368081450414
23.943,663,23,943000000,,0.015072332317815396,0.013075983228558357,0.006307493023592542
23.953,664,23,953000000,,0.015120119204308936,0.011577301383862702,0.006166981067685315
23.963,665,23,963000000,,0.014411033436592393,0.012346478165367741,0.0059720378622110095
23.973,666,23,973000000,,0.013808772637405611,0.014580830558134977,0.005863077264463341
23.983,667,23,983000000,,0.014023462363117313,0.015875717203902982,0.005892048591896767
23.993,668,23,993000000,,0.01485328798937003,0.01484107890821659,0.005966762150175608
24.003,669,24,3000000,,0.015438375834858986,0.012555941273343741,0.005942797834732673
24.013,670,24,13000000,,0.015196641787862552,0.011483140107556931,0.005781649985641561
24.023,671,24,23000000,,0.014469620851782553,0.012828872084377354,0.005589532717326158
24.033,672,24,33000000,,0.014126703511166006,0.015169127976057368,0.005502799901768475
24.043,673,24,43000000,,0.014582910249897977,0.016007450198225342,0.005551499362356208
24.053,674,24,53000000,,0.01531711927636307,0.014686435093504977,0.005613681388166692
24.063,675,24,63000000,,0.015704402644940246,0.012278696049314381,0.005584639482255589
24.073,676,24,73000000,,0.015265267622397605,0.011496333965674151,0.005402886977048824
24.083,677,24,83000000,,0.014612329221787183,0.013302997088351939,0.005215962798894567
24.093,678,24,93000000,,0.014526226006333236,0.015451077820400694,0.005147748516661007
24.103,679,24,103000000,,0.015068922023784003,0.016114239487843785,0.005195506579600185
24.113,680,24,113000000,,0.015813488311499573,0.014050333007836561,0.005279324659392283
24.123,681,24,123000000,,0.01580368168806395,0.011485724528497358,0.005227805985741466
24.133,682,24,133000000,,0.015312781341371352,0.011583054859524157,0.005032133093574194
24.143,683,24,143000000,,0.014878595500994674,0.014020543798763156,0.004840253902233725
24.153,684,24,153000000,,0.01495189608292253,0.015965107594906942,0.004797645993705564
24.163,685,24,163000000,,0.015634793874899036,0.015942493364817602,0.004871858677051906
24.173,686,24,173000000,,0.01614745556325461,0.013958969199420811,0.004928293175921973
24.183,687,24,183000000,,0.01604389635945303,0.011521776428394805,0.00486228795343879
24.193,688,24,193000000,,0.015434264047802135,0.011714114702938873,0.00466957300412329
24.203,689,24,203000000,,0.015064889328684048,0.014095576977044902,0.004491919847825032
24.213,690,24,213000000,,0.015385279944427026,0.016192567115318367,0.0044502475176336955
24.223,691,24,223000000,,0.016046254138762765,0.01601991820268641,0.004520528063898281
24.233,692,24,233000000,,0.0163860745356752,0.013093252485696096,0.0046052065492350955
24.243,693,24,243000000,,0.01625185541446339,0.011624806182629607,0.004503242815601557
24.253,694,24,253000000,,0.015563094294633994,0.011813471952439121,0.004317268973676677
24.263,695,24,263000000,,0.01534278932933555,0.014082766481967381,0.004146218367756831
24.273,696,24,273000000,,0.015798706247922706,0.016362051562100823,0.0041046370380974145
24.283,697,24,283000000,,0.01649244806127947,0.015797528803276072,0.004190919708166861
24.293,698,24,293000000,,0.01673509295967803,0.013218985088602347,0.004253961555097783
24.303,699,24,303000000,,0.016314360529550372,0.011219381552344702,0.004173407837276782
24.313,700,24,313000000,,0.015714147996261033,0.011852814221053614,0.003975808602556174
24.323,701,24,323000000,,0.01562860860188616,0.014222329125578935,0.003809385507326754
24.333,702,24,333000000,,0.01618403614819524,0.016468811967374913,0.0037609535895140036
24.343,703,24,343000000,,0.016859454102199863,0.015787719361813043,0.003849653940063035
24.353,704,24,353000000,,0.016890986502953568,0.012796699085005175,0.003930693176142837
24.363,705,24,363000000,,0.01655179140136161,0.01142185586910369,0.00383069938384141
24.373,706,24,373000000,,0.015888501210191943,0.011804394832705388,0.003646432166571685
24.383,707,24,383000000,,0.01589243650198554,0.014496928580000231,0.00346376769235746
24.393,708,24,393000000,,0.01653750832492294,0.01650149103036701,0.003420113213705928
24.403,709,24,403000000,,0.017102751169384787,0.015493577269680685,0.00352184492617457
24.413,710,24,413000000,,0.017326856699517338,0.013438635216967568,0.0035725597607331005
24.423000000000002,711,24,423000000,,0.016663324368611312,0.011039919352773651,0.0035224519131048927
24.433,712,24,433000000,,0.016073657095276476,0.01163578957708874,0.0033309954618734455
24.443,713,24,443000000,,0.0161185288977873,0.014061982679625301,0.00315292205371087
24.453,714,24,453000000,,0.01682449622773122,0.01649499447159319,0.00308181024146164
24.463,715,24,463000000,,0.01748140974001532,0.016162255487929742,0.0031476059032456614
24.473,716,24,473000000,,0.0175158020893606,0.013262683947052711,0.003254661774670514
24.483,717,24,483000000,,0.01693509836502586,0.011094598438060602,0.0032179068570376314
24.493,718,24,493000000,,0.016262449543637293,0.011374042810976091,0.003029290836854299
24.503,719,24,503000000,,0.016328406660913657,0.014044805105100908,0.0028286042378772845
24.513,720,24,513000000,,0.017068129458426368,0.016378918404690378,0.00275043896840577
24.523,721,24,523000000,,0.017780389186181397,0.01612180789339402,0.002823287041884886
24.533,722,24,533000000,,0.017794909739058885,0.013516305307038052,0.002924822809355838
24.543,723,24,543000000,,0.01712858135511379,0.011027300150230483,0.0029071502073997383
24.553,724,24,553000000,,0.016477951746971496,0.010886209993244455,0.0027564681500220653
24.563,725,24,563000000,,0.016372325713707007,0.013228284355170707,0.0025470986563012566
24.573,726,24,573000000,,0.0173132723664415,0.016494413239032175,0.0024113278800694912
24.583,727,24,583000000,,0.018011902773921742,0.016337938258212354,0.002480048224494256
24.593,728,24,593000000,,0.01798474204785607,0.013560002007189091,0.002608962160750952
24.603,729,24,603000000,,0.01740763833209255,0.011154651171353471,0.0026083587337120194
24.613,730,24,613000000,,0.016765947293984524,0.011037444515853196,0.002450437177772626
24.623,731,24,623000000,,0.016606130360495592,0.012946438135648566,0.002251831626743261
24.633,732,24,633000000,,0.017333821942050135,0.015750510680985888,0.002119751695997744
24.643,733,24,643000000,,0.01815414410448597,0.01657129687953037,0.002128794013610458
24.653,734,24,653000000,,0.01840139429612003,0.014459228593925266,0.0022574787236589737
24.663,735,24,663000000,,0.01778105994841325,0.01151224160638203,0.002307841273982511
24.673000000000002,736,24,673000000,,0.016943332850728136,0.010386852317970215,0.002202141965449174
24.683,737,24,683000000,,0.016705950986882084,0.01214985940987845,0.0019921311563776104
24.693,738,24,693000000,,0.01728084244202334,0.014877345482212392,0.0018306305014448225
24.703,739,24,703000000,,0.018287722736641816,0.01657088914350107,0.001806238349258409
24.713,740,24,713000000,,0.018672533374208548,0.015099375418581251,0.0019170781046178044
24.723,741,24,723000000,,0.0181686553255507,0.012079827756147148,0.002003154581358347
24.733,742,24,733000000,,0.017267310072110464,0.010248542604261297,0.0019435260009758601
24.743,743,24,743000000,,0.01680825429999731,0.011049336063902246,0.0017672530460603666
24.753,744,24,753000000,,0.017286313964443266,0.014264685913756962,0.001551241864988086
24.763,745,24,763000000,,0.018276059914510423,0.016386188014687594,0.00148568456664779
24.773,746,24,773000000,,0.0187713881767446,0.015339320098012203,0.0015927707747232461
24.783,747,24,783000000,,0.018684846625440947,0.013250886136138096,0.001671177216617806
24.793,748,24,793000000,,0.017681827531474452,0.01038896855855645,0.0016841546728548749
24.803,749,24,803000000,,0.017005583566345142,0.010473122315926557,0.0015257059091190127
24.813,750,24,813000000,,0.01720804932922606,0.013082513093368582,0.0013101400679875986
24.823,751,24,823000000,,0.01814946651062846,0.015818686311878133,0.001188308223455498
