Time,header.seq,header.stamp.secs,header.stamp.nsecs,header.frame_id,orientation.x,orientation.y,orientation.z,orientation.w,orientation_covariance_0,orientation_covariance_1,orientation_covariance_2,orientation_covariance_3,orientation_covariance_4,orientation_covariance_5,orientation_covariance_6,orientation_covariance_7,orientation_covariance_8,angular_velocity.x,angular_velocity.y,angular_velocity.z,angular_velocity_covariance_0,angular_velocity_covariance_1,angular_velocity_covariance_2,angular_velocity_covariance_3,angular_velocity_covariance_4,angular_velocity_covariance_5,angular_velocity_covariance_6,angular_velocity_covariance_7,angular_velocity_covariance_8,linear_acceleration.x,linear_acceleration.y,linear_acceleration.z,linear_acceleration_covariance_0,linear_acceleration_covariance_1,linear_acceleration_covariance_2,linear_acceleration_covariance_3,linear_acceleration_covariance_4,linear_acceleration_covariance_5,linear_acceleration_covariance_6,linear_acceleration_covariance_7,linear_acceleration_covariance_8
94.155,2759,94,154000000,IMU,-2.3971302914491455e-05,2.7865359219597266e-05,3.443780312599186e-05,0.999999998731468,0.0,0.0,0.0,0.0,0.0,0.0,0.0,0.0,0.0,0.044991428400785564,0.026969432525172532,0.04113409462201445,0.0,0.0,0.0,0.0,0.0,0.0,0.0,0.0,0.0,0.08339119217778358,-0.11089428509252508,9.479962061805894,0.0,0.0,0.0,0.0,0.0,0.0,0.0,0.0,0.0
94.165,2760,94,164000000,IMU,-2.355064550202661e-05,2.729738598370677e-05,4.09070959517393e-05,0.9999999985134148,0.0,0.0,0.0,0.0,0.0,0.0,0.0,0.0,0.0,-0.004677349768507672,0.044088181887651345,-0.0026382210172203324,0.0,0.0,0.0,0.0,0.0,0.0,0.0,0.0,0.0,-0.010896819009370028,-0.07264808556299712,9.496357464752576,0.0,0.0,0.0,0.0,0.0,0.0,0.0,0.0,0.0
94.175,2761,94,174000000,IMU,-2.280343828016442e-05,2.6533669879315868e-05,5.092220293275679e-05,0.9999999980914486,0.0,0.0,0.0,0.0,0.0,0.0,0.0,0.0,0.0,-0.03889632674262118,-0.009839502972392921,-0.06432325164632413,0.0,0.0,0.0,0.0,0.0,0.0,0.0,0.0,0.0,0.027829654621726055,0.0023348456979470677,9.552070426927425,0.0,0.0,0.0,0.0,0.0,0.0,0.0,0.0,0.0
94.185,2762,94,184000000,IMU,-2.179965814773119e-05,2.5419428925026575e-05,6.67314747871705e-05,0.9999999972127689,0.0,0.0,0.0,0.0,0.0,0.0,0.0,0.0,0.0,0.03549068761958072,-0.03733376814553879,-0.08950097926907194,0.0,0.0,0.0,0.0,0.0,0.0,0.0,0.0,0.0,0.028943800737107103,-0.03258333416691563,9.627573756759812,0.0,0.0,0.0,0.0,0.0,0.0,0.0,0.0,0.0
94.195,2763,94,194000000,IMU,-2.1119274973450316e-05,2.4242725715234742e-05,8.326982801959219e-05,0.9999999960162012,0.0,0.0,0.0,0.0,0.0,0.0,0.0,0.0,0.0,-0.0009392367220303471,-0.11462923941974185,-0.08583437734188085,0.0,0.0,0.0,0.0,0.0,0.0,0.0,0.0,0.0,-0.038052285802292744,-0.0003195488859726108,9.663794205633103,0.0,0.0,0.0,0.0,0.0,0.0,0.0,0.0,0.0
94.205,2764,94,204000000,IMU,-2.0969406936894682e-05,2.2935987502586094e-05,0.00010538400571143144,0.9999999939642179,0.0,0.0,0.0,0.0,0.0,0.0,0.0,0.0,0.0,0.03372780564097267,0.028357759977236587,0.039824607904113664,0.0,0.0,0.0,0.0,0.0,0.0,0.0,0.0,0.0,-0.032710003767526516,-0.007693888376581724,9.643302710773881,0.0,0.0,0.0,0.0,0.0,0.0,0.0,0.0,0.0
94.217,2765,94,214000000,IMU,-2.172759219086485e-05,2.1978197788220042e-05,0.00013410848094744362,0.9999999905298929,0.0,0.0,0.0,0.0,0.0,0.0,0.0,0.0,0.0,-0.00734291886026811,0.003592971312967354,0.01944578782536774,0.0,0.0,0.0,0.0,0.0,0.0,0.0,0.0,0.0,0.03774108994183667,0.0861821259392797,9.6413619150194,0.0,0.0,0.0,0.0,0.0,0.0,0.0,0.0,0.0
94.225,2766,94,224000000,IMU,-2.2440433418634243e-05,2.1557623899900727e-05,0.0001612390422085027,0.9999999865168335,0.0,0.0,0.0,0.0,0.0,0.0,0.0,0.0,0.0,-0.016207025511004683,0.02572366108695856,-0.002228895555869556,0.0,0.0,0.0,0.0,0.0,0.0,0.0,0.0,0.0,-0.01436162857114333,-0.08927132103226627,9.710692009939441,0.0,0.0,0.0,0.0,0.0,0.0,0.0,0.0,0.0
94.235,2767,94,234000000,IMU,-3.82851778940807e-06,2.8511205873809666e-06,0.00018402692181901771,0.9999999830556526,0.0,0.0,0.0,0.0,0.0,0.0,0.0,0.0,0.0,-0.05420968079232454,-0.001278743960236103,-0.01289555012727373,0.0,0.0,0.0,0.0,0.0,0.0,0.0,0.0,0.0,-0.0009528319954034488,0.019174680647750162,11.804996192712752,0.0,0.0,0.0,0.0,0.0,0.0,0.0,0.0,0.0
94.245,2768,94,244000000,IMU,-7.492975823853602e-05,7.833265415826248e-05,0.00019965879142918032,0.9999999741929466,0.0,0.0,0.0,0.0,0.0,0.0,0.0,0.0,0.0,-0.07168373471215743,0.062268297082060484,0.08641716551351283,0.0,0.0,0.0,0.0,0.0,0.0,0.0,0.0,0.0,0.011601440974772632,0.0486662460792505,9.977775368425142,0.0,0.0,0.0,0.0,0.0,0.0,0.0,0.0,0.0
94.255,2769,94,254000000,IMU,-7.386631408787982e-05,7.437456948477636e-05,0.00022226752711127428,0.9999999698046682,0.0,0.0,0.0,0.0,0.0,0.0,0.0,0.0,0.0,-0.028158234841637764,-0.014219411983835424,0.09566315855368546,0.0,0.0,0.0,0.0,0.0,0.0,0.0,0.0,0.0,-0.03309096581650284,-0.02185328739161509,9.513842224738534,0.0,0.0,0.0,0.0,0.0,0.0,0.0,0.0,0.0
94.265,2770,94,264000000,IMU,-3.691298872160023e-05,3.189457549429843e-05,0.00026237684508682033,0.9999999643892786,0.0,0.0,0.0,0.0,0.0,0.0,0.0,0.0,0.0,-0.03557008103378778,0.008689325852868548,0.10090658589868218,0.0,0.0,0.0,0.0,0.0,0.0,0.0,0.0,0.0,-0.021952670595406655,-0.039622335743546684,9.543715242704332,0.0,0.0,0.0,0.0,0.0,0.0,0.0,0.0,0.0
94.275,2771,94,274000000,IMU,3.1368017600867783e-06,-1.3873073885758994e-05,0.0002953722449334245,0.9999999562764667,0.0,0.0,0.0,0.0,0.0,0.0,0.0,0.0,0.0,0.015947961339611842,0.01356525347210821,0.00820602871881533,0.0,0.0,0.0,0.0,0.0,0.0,0.0,0.0,0.0,-0.012230904830285064,0.025754019573373296,10.400052873506995,0.0,0.0,0.0,0.0,0.0,0.0,0.0,0.0,0.0
94.285,2772,94,284000000,IMU,-2.7868036757618675e-05,2.6129786595976925e-05,0.00031501687921358566,0.9999999496524852,0.0,0.0,0.0,0.0,0.0,0.0,0.0,0.0,0.0,-0.0018168468914720193,-0.03979406247454927,-0.0017237817192275614,0.0,0.0,0.0,0.0,0.0,0.0,0.0,0.0,0.0,0.01815103094530825,-0.10632077396285466,9.776179230842208,0.0,0.0,0.0,0.0,0.0,0.0,0.0,0.0,0.0
94.294,2773,94,294000000,IMU,-2.5525732655336634e-05,2.0340969686957485e-05,0.00033855884399117115,0.9999999421562938,0.0,0.0,0.0,0.0,0.0,0.0,0.0,0.0,0.0,-0.03548555175360851,-0.02569882605710602,0.04504568442558958,0.0,0.0,0.0,0.0,0.0,0.0,0.0,0.0,0.0,-0.019752430708728366,-0.07582030682710443,9.591070931351382,0.0,0.0,0.0,0.0,0.0,0.0,0.0,0.0,0.0
94.305,2774,94,304000000,IMU,1.7854640188200526e-05,1.1717999736616085e-05,0.00036604764483769993,0.9999999327765088,0.0,0.0,0.0,0.0,0.0,0.0,0.0,0.0,0.0,-0.002630083469526437,0.005056436842718552,-0.03083986434807779,0.0,0.0,0.0,0.0,0.0,0.0,0.0,0.0,0.0,-0.02574598135558281,-0.039289944760239885,10.039645018517321,0.0,0.0,0.0,0.0,0.0,0.0,0.0,0.0,0.0
94.315,2775,94,314000000,IMU,3.4582691409875694e-07,7.812251258526327e-06,0.0003963361656295967,0.9999999214282433,0.0,0.0,0.0,0.0,0.0,0.0,0.0,0.0,0.0,-0.04924089489655373,-0.0031864567730767257,-0.02786008058581929,0.0,0.0,0.0,0.0,0.0,0.0,0.0,0.0,0.0,-0.183214936955584,0.029303236933455587,9.59540343436116,0.0,0.0,0.0,0.0,0.0,0.0,0.0,0.0,0.0
94.325,2776,94,324000000,IMU,6.470471956461194e-06,-3.0034759245054348e-06,0.0004070777747471254,0.9999999171183953,0.0,0.0,0.0,0.0,0.0,0.0,0.0,0.0,0.0,-0.005333297824357001,0.03881464630609773,-0.024038993008035355,0.0,0.0,0.0,0.0,0.0,0.0,0.0,0.0,0.0,0.09385873523514673,0.14364634604867813,9.939022109148807,0.0,0.0,0.0,0.0,0.0,0.0,0.0,0.0,0.0
94.334,2777,94,334000000,IMU,-2.353823538639718e-06,-1.4440396091425165e-06,0.0004281016220051903,0.9999999083606836,0.0,0.0,0.0,0.0,0.0,0.0,0.0,0.0,0.0,-0.021495834667134412,0.027299988991265997,-0.013703700156650117,0.0,0.0,0.0,0.0,0.0,0.0,0.0,0.0,0.0,0.06704988888144847,-0.03801697848997291,9.81376763508652,0.0,0.0,0.0,0.0,0.0,0.0,0.0,0.0,0.0
94.344,2778,94,344000000,IMU,5.29882729904407e-07,2.323363414551114e-10,0.00043828490896801207,0.9999999039530243,0.0,0.0,0.0,0.0,0.0,0.0,0.0,0.0,0.0,-0.09822625589090461,-0.017108716552000563,-0.037799540836220634,0.0,0.0,0.0,0.0,0.0,0.0,0.0,0.0,0.0,-0.027059323842043757,0.06127313601288395,9.827531865861193,0.0,0.0,0.0,0.0,0.0,0.0,0.0,0.0,0.0
94.355,2779,94,354000000,IMU,-3.2222981666829626e-10,4.7379979086743474e-07,0.00043949587996847854,0.9999999034215689,0.0,0.0,0.0,0.0,0.0,0.0,0.0,0.0,0.0,-0.06136566281004031,-0.010200137633192784,0.039733457031222115,0.0,0.0,0.0,0.0,0.0,0.0,0.0,0.0,0.0,0.06812908161836032,-0.06524581925104733,9.8337391740085,0.0,0.0,0.0,0.0,0.0,0.0,0.0,0.0,0.0
94.365,2780,94,364000000,IMU,2.648133995230173e-11,3.4144294415038805e-11,0.0004409222734201791,0.9999999027937698,0.0,0.0,0.0,0.0,0.0,0.0,0.0,0.0,0.0,0.015450598617697773,0.027654605367377943,-0.019791813913349093,0.0,0.0,0.0,0.0,0.0,0.0,0.0,0.0,0.0,-0.0012280934045857637,0.005115064362712907,9.885250865693868,0.0,0.0,0.0,0.0,0.0,0.0,0.0,0.0,0.0
94.375,2781,94,374000000,IMU,-3.343778372381282e-10,5.766937375239025e-07,0.0004428058418573154,0.9999999019613222,0.0,0.0,0.0,0.0,0.0,0.0,0.0,0.0,0.0,-0.0412748788244208,0.031711012006940625,0.029427246756822248,0.0,0.0,0.0,0.0,0.0,0.0,0.0,0.0,0.0,-0.026765954287855262,-0.0023430877239073752,9.844178741482185,0.0,0.0,0.0,0.0,0.0,0.0,0.0,0.0,0.0
94.385,2782,94,384000000,IMU,4.0820941788671714e-10,-1.5051014184871023e-07,0.00044484414949398394,0.9999999010568252,0.0,0.0,0.0,0.0,0.0,0.0,0.0,0.0,0.0,0.012208251471074287,-0.04101292497183653,0.025847356544726748,0.0,0.0,0.0,0.0,0.0,0.0,0.0,0.0,0.0,-0.019365998536812225,-0.07604534887130578,9.852390650948795,0.0,0.0,0.0,0.0,0.0,0.0,0.0,0.0,0.0
94.395,2783,94,394000000,IMU,6.27649742188646e-07,2.965199146216263e-10,0.00044717361419291006,0.9999999000176776,0.0,0.0,0.0,0.0,0.0,0.0,0.0,0.0,0.0,0.0229162566546835,-0.046597491232487964,0.014409219170441936,0.0,0.0,0.0,0.0,0.0,0.0,0.0,0.0,0.0,0.03419041115962792,-0.05946860731346164,9.778821384717217,0.0,0.0,0.0,0.0,0.0,0.0,0.0,0.0,0.0
94.405,2784,94,404000000,IMU,-6.585008514468612e-08,2.1318806820392925e-12,0.000449168708308936,0.9999998991237284,0.0,0.0,0.0,0.0,0.0,0.0,0.0,0.0,0.0,-0.03200393374355321,-0.032738172221127154,-0.007139660778998065,0.0,0.0,0.0,0.0,0.0,0.0,0.0,0.0,0.0,0.06756195696596164,-0.028777336332888502,9.909919392864143,0.0,0.0,0.0,0.0,0.0,0.0,0.0,0.0,0.0
94.415,2785,94,414000000,IMU,2.69247627867225e-11,3.774883577613989e-11,0.0004519893798407093,0.9999998978527952,0.0,0.0,0.0,0.0,0.0,0.0,0.0,0.0,0.0,-0.04352352340341109,0.006995983394396133,-0.01684209817833566,0.0,0.0,0.0,0.0,0.0,0.0,0.0,0.0,0.0,0.06148518848147931,0.0061729371330305855,9.834287425663588,0.0,0.0,0.0,0.0,0.0,0.0,0.0,0.0,0.0
94.425,2786,94,424000000,IMU,-2.260840529131682e-10,4.944911301113182e-07,0.0004547791908382777,0.9999998965878163,0.0,0.0,0.0,0.0,0.0,0.0,0.0,0.0,0.0,-0.03151648751318121,0.017769639740525194,0.0526649308844912,0.0,0.0,0.0,0.0,0.0,0.0,0.0,0.0,0.0,0.08513415587455374,0.09013205338130244,9.773087136183225,0.0,0.0,0.0,0.0,0.0,0.0,0.0,0.0,0.0
94.435,2787,94,434000000,IMU,2.3302769939704746e-11,-2.1023170292292577e-11,0.00045730401263735504,0.9999998954365146,0.0,0.0,0.0,0.0,0.0,0.0,0.0,0.0,0.0,-0.03800747192933855,0.021181469682566102,0.042997687512757586,0.0,0.0,0.0,0.0,0.0,0.0,0.0,0.0,0.0,-0.006217685809124299,0.0686820516591518,9.92511552736004,0.0,0.0,0.0,0.0,0.0,0.0,0.0,0.0,0.0
94.445,2788,94,444000000,IMU,2.938220512943956e-10,-5.180276538246911e-07,0.0004605002351263047,0.999999893969627,0.0,0.0,0.0,0.0,0.0,0.0,0.0,0.0,0.0,-0.027242480379734903,0.039498835631501174,0.0330567811892936,0.0,0.0,0.0,0.0,0.0,0.0,0.0,0.0,0.0,-0.01438860330612644,-0.12962231731311102,9.810813436153284,0.0,0.0,0.0,0.0,0.0,0.0,0.0,0.0,0.0
94.455,2789,94,454000000,IMU,4.6955460933865865e-11,1.0635885243832666e-10,0.0004648549177982402,0.9999998919549469,0.0,0.0,0.0,0.0,0.0,0.0,0.0,0.0,0.0,0.016529230378593638,0.03896519656624334,-0.025986660570200996,0.0,0.0,0.0,0.0,0.0,0.0,0.0,0.0,0.0,-0.0031755102673999124,-0.01970423849651277,9.892551576650025,0.0,0.0,0.0,0.0,0.0,0.0,0.0,0.0,0.0
94.465,2790,94,464000000,IMU,5.1609813698670846e-11,-5.276887196067735e-07,0.0004687830090837195,0.9999998901211,0.0,0.0,0.0,0.0,0.0,0.0,0.0,0.0,0.0,0.007571690089672428,0.05193346245456244,0.09575021066473723,0.0,0.0,0.0,0.0,0.0,0.0,0.0,0.0,0.0,0.009737918474728807,0.06471125089576477,9.647751715894723,0.0,0.0,0.0,0.0,0.0,0.0,0.0,0.0,0.0
94.475,2791,94,474000000,IMU,5.432885741036999e-08,-1.8972799434291536e-08,0.0004734168083402997,0.9999998879382549,0.0,0.0,0.0,0.0,0.0,0.0,0.0,0.0,0.0,0.051464306534956185,0.06618984975158175,0.04047752247451664,0.0,0.0,0.0,0.0,0.0,0.0,0.0,0.0,0.0,0.0030349680439479077,-0.03837343093994398,9.814327392407773,0.0,0.0,0.0,0.0,0.0,0.0,0.0,0.0,0.0
94.485,2792,94,484000000,IMU,-8.900266601129492e-11,1.8575210175391221e-07,0.0004793114166506213,0.9999998851302591,0.0,0.0,0.0,0.0,0.0,0.0,0.0,0.0,0.0,0.07970154317147682,0.014657870124341893,0.03878035761502212,0.0,0.0,0.0,0.0,0.0,0.0,0.0,0.0,0.0,0.02072203444851622,-0.04912315544063828,9.808135622988761,0.0,0.0,0.0,0.0,0.0,0.0,0.0,0.0,0.0
94.495,2793,94,494000000,IMU,-4.252250913357295e-12,2.6508623398838656e-11,0.0004852294946666762,0.9999998822761618,0.0,0.0,0.0,0.0,0.0,0.0,0.0,0.0,0.0,0.027408914596427535,0.05258089436708283,-0.017908049014544774,0.0,0.0,0.0,0.0,0.0,0.0,0.0,0.0,0.0,0.04239588939745327,-0.06007289291233249,9.906553775196425,0.0,0.0,0.0,0.0,0.0,0.0,0.0,0.0,0.0
94.505,2794,94,504000000,IMU,-6.09992697038759e-07,8.32141410830071e-08,0.0004948259747747306,0.9999998775734303,0.0,0.0,0.0,0.0,0.0,0.0,0.0,0.0,0.0,-0.05347540072629471,-0.016839398027804812,0.018686798368450108,0.0,0.0,0.0,0.0,0.0,0.0,0.0,0.0,0.0,-0.02808528474073767,-0.024469113526801804,9.765091832305114,0.0,0.0,0.0,0.0,0.0,0.0,0.0,0.0,0.0
94.515,2795,94,514000000,IMU,-9.152953113980369e-07,4.535211462906793e-08,0.0005044853488671015,0.9999998727468383,0.0,0.0,0.0,0.0,0.0,0.0,0.0,0.0,0.0,0.028306389552399943,-0.0003460387263911695,-0.02028716754399411,0.0,0.0,0.0,0.0,0.0,0.0,0.0,0.0,0.0,0.013913978651879995,0.052275018939822504,9.76935028650427,0.0,0.0,0.0,0.0,0.0,0.0,0.0,0.0,0.0
94.525,2796,94,524000000,IMU,7.011956598887588e-07,-2.0338707529175812e-07,0.0005151864251878377,0.9999998672911983,0.0,0.0,0.0,0.0,0.0,0.0,0.0,0.0,0.0,-0.06411447818285337,0.04693261123832394,0.041601093654308224,0.0,0.0,0.0,0.0,0.0,0.0,0.0,0.0,0.0,0.063758879056251,0.06506127501021267,9.810064288626938,0.0,0.0,0.0,0.0,0.0,0.0,0.0,0.0,0.0
94.534,2797,94,534000000,IMU,-3.840098790267149e-11,-1.3908396427556497e-12,0.0005255640043651044,0.9999998618912291,0.0,0.0,0.0,0.0,0.0,0.0,0.0,0.0,0.0,-0.0037299736119873017,0.09898361346765827,-0.024851929094385328,0.0,0.0,0.0,0.0,0.0,0.0,0.0,0.0,0.0,0.001008043371702641,-0.014467545401126373,9.81067136086852,0.0,0.0,0.0,0.0,0.0,0.0,0.0,0.0,0.0
94.545,2798,94,544000000,IMU,-7.380862450827483e-07,4.594532831534529e-07,0.0005384853775540207,0.9999998550163608,0.0,0.0,0.0,0.0,0.0,0.0,0.0,0.0,0.0,-0.03334319985956731,-0.020765907360508543,0.0188933126658265,0.0,0.0,0.0,0.0,0.0,0.0,0.0,0.0,0.0,0.036590405259630525,-0.07929589983310516,9.811754084640741,0.0,0.0,0.0,0.0,0.0,0.0,0.0,0.0,0.0
94.555,2799,94,554000000,IMU,6.498702515668228e-07,1.6449472270078812e-07,0.0005550801087718458,0.9999998459427998,0.0,0.0,0.0,0.0,0.0,0.0,0.0,0.0,0.0,0.030122125642175458,-0.03218525031426549,0.006768478695878507,0.0,0.0,0.0,0.0,0.0,0.0,0.0,0.0,0.0,0.043225609857206665,0.09332484448694214,9.818341330353485,0.0,0.0,0.0,0.0,0.0,0.0,0.0,0.0,0.0
94.565,2800,94,564000000,IMU,2.055084722237006e-06,8.35739915210267e-08,0.0005776113720603428,0.9999998331804223,0.0,0.0,0.0,0.0,0.0,0.0,0.0,0.0,0.0,0.03537248471790306,-0.02154440299823243,0.04860525468627433,0.0,0.0,0.0,0.0,0.0,0.0,0.0,0.0,0.0,-0.01777914983250883,0.023739027008840702,9.7686708100259,0.0,0.0,0.0,0.0,0.0,0.0,0.0,0.0,0.0
94.575,2801,94,574000000,IMU,-9.929272710497014e-13,-1.7710928867301888e-12,0.0006081681196194272,0.9999998150657522,0.0,0.0,0.0,0.0,0.0,0.0,0.0,0.0,0.0,-0.05926727309359156,-0.017165818136577627,-0.049617309496001696,0.0,0.0,0.0,0.0,0.0,0.0,0.0,0.0,0.0,0.001398157031523281,-0.017062800056808644,9.889699021387164,0.0,0.0,0.0,0.0,0.0,0.0,0.0,0.0,0.0
94.585,2802,94,584000000,IMU,-3.56912069567511e-07,-7.04244444536314e-07,0.0006373748549156731,0.999999796876315,0.0,0.0,0.0,0.0,0.0,0.0,0.0,0.0,0.0,0.03535984761123258,0.033904097103665244,0.09084088944803158,0.0,0.0,0.0,0.0,0.0,0.0,0.0,0.0,0.0,0.08017036689116339,0.009195517912808308,9.796535321186951,0.0,0.0,0.0,0.0,0.0,0.0,0.0,0.0,0.0
94.595,2803,94,594000000,IMU,5.957455331568226e-07,-2.3471850401264207e-07,0.0006700589881868679,0.9999997755102461,0.0,0.0,0.0,0.0,0.0,0.0,0.0,0.0,0.0,-0.002770987121875649,0.023572618840483225,-0.0534675717671279,0.0,0.0,0.0,0.0,0.0,0.0,0.0,0.0,0.0,0.16901894026783795,0.1586496361254005,9.760669643446581,0.0,0.0,0.0,0.0,0.0,0.0,0.0,0.0,0.0
94.605,2804,94,604000000,IMU,1.5699960077555648e-06,1.739181729664387e-07,0.0007030420469642108,0.999999752864662,0.0,0.0,0.0,0.0,0.0,0.0,0.0,0.0,0.0,-0.04712003642914128,-0.002517953650533272,0.012438171594699707,0.0,0.0,0.0,0.0,0.0,0.0,0.0,0.0,0.0,0.04242911498065909,0.05202879383041516,9.778963134044103,0.0,0.0,0.0,0.0,0.0,0.0,0.0,0.0,0.0
94.615,2805,94,614000000,IMU,-2.9544461861660666e-11,3.8146621055253077e-08,0.0007470059482404297,0.999999720991017,0.0,0.0,0.0,0.0,0.0,0.0,0.0,0.0,0.0,0.030241138731192944,-0.02496456365656698,-0.019543029742227422,0.0,0.0,0.0,0.0,0.0,0.0,0.0,0.0,0.0,0.014331767730213427,-0.17018731034990717,9.758591256829352,0.0,0.0,0.0,0.0,0.0,0.0,0.0,0.0,0.0
94.625,2806,94,624000000,IMU,-1.4336453928988521e-06,-1.049767907616841e-06,0.0007925469144921968,0.9999996859330663,0.0,0.0,0.0,0.0,0.0,0.0,0.0,0.0,0.0,0.015028452379491766,0.018155496994906633,-0.020404856477560015,0.0,0.0,0.0,0.0,0.0,0.0,0.0,0.0,0.0,-0.06743564019763779,-0.04694029297029793,9.732789114260681,0.0,0.0,0.0,0.0,0.0,0.0,0.0,0.0,0.0
94.635,2807,94,634000000,IMU,1.230802962000221e-06,-6.14560420131344e-06,0.0008437165725603238,0.9999996440514676,0.0,0.0,0.0,0.0,0.0,0.0,0.0,0.0,0.0,0.0006803243874723714,-0.02627962513810137,0.0033514954607465064,0.0,0.0,0.0,0.0,0.0,0.0,0.0,0.0,0.0,0.07625940272038294,0.056114983649919806,9.88757120187869,0.0,0.0,0.0,0.0,0.0,0.0,0.0,0.0,0.0
94.645,2808,94,644000000,IMU,1.7489165904864471e-06,2.9725168804324922e-06,0.0009057118574276314,0.9999995898369843,0.0,0.0,0.0,0.0,0.0,0.0,0.0,0.0,0.0,-0.03159963010589105,0.057700496689981104,0.0716309997213532,0.0,0.0,0.0,0.0,0.0,0.0,0.0,0.0,0.0,-0.16609081666878567,-0.05931253332347067,9.732097230612524,0.0,0.0,0.0,0.0,0.0,0.0,0.0,0.0,0.0
94.655,2809,94,654000000,IMU,1.5062518391883851e-05,-1.2919045781261441e-05,0.0009757943635858891,0.999999523715676,0.0,0.0,0.0,0.0,0.0,0.0,0.0,0.0,0.0,0.036319930317362914,-0.023021666156522656,0.047122008486744034,0.0,0.0,0.0,0.0,0.0,0.0,0.0,0.0,0.0,0.07135808324095953,0.024408154297530016,9.941571038908076,0.0,0.0,0.0,0.0,0.0,0.0,0.0,0.0,0.0
94.665,2810,94,664000000,IMU,1.8166155337526367e-06,4.657517420904497e-06,0.001078711458520213,0.9999994181781292,0.0,0.0,0.0,0.0,0.0,0.0,0.0,0.0,0.0,-0.018860178836210658,-0.0077948443662845725,0.041990427619528564,0.0,0.0,0.0,0.0,0.0,0.0,0.0,0.0,0.0,-0.09792105810070455,-0.0653272578047698,9.78206016615627,0.0,0.0,0.0,0.0,0.0,0.0,0.0,0.0,0.0
94.675,2811,94,674000000,IMU,-5.151335948617728e-06,-2.8473817301242563e-05,0.0011804400942024577,0.9999993028617017,0.0,0.0,0.0,0.0,0.0,0.0,0.0,0.0,0.0,0.03995282793674848,-0.030929864045564227,0.0323151995152895,0.0,0.0,0.0,0.0,0.0,0.0,0.0,0.0,0.0,0.21691413691203196,0.06688418416640889,9.901582151718094,0.0,0.0,0.0,0.0,0.0,0.0,0.0,0.0,0.0
94.685,2812,94,684000000,IMU,1.463162245214064e-05,-1.0782567971319478e-05,0.0012950896501583487,0.9999991612058732,0.0,0.0,0.0,0.0,0.0,0.0,0.0,0.0,0.0,0.02075328415609288,0.016266293550176128,0.07478313586955287,0.0,0.0,0.0,0.0,0.0,0.0,0.0,0.0,0.0,0.03485417257163238,0.08252485266831763,9.723710484687487,0.0,0.0,0.0,0.0,0.0,0.0,0.0,0.0,0.0
94.695,2813,94,694000000,IMU,-3.141688329401288e-05,-8.15345049181059e-06,0.0014024541341670028,0.9999990160339671,0.0,0.0,0.0,0.0,0.0,0.0,0.0,0.0,0.0,0.0657414318975168,0.030211523235440588,-0.008244954275899781,0.0,0.0,0.0,0.0,0.0,0.0,0.0,0.0,0.0,0.04508240599522077,-0.10837006167020276,9.955440068144682,0.0,0.0,0.0,0.0,0.0,0.0,0.0,0.0,0.0
94.705,2814,94,704000000,IMU,-8.007734248795238e-06,-4.476345226360868e-05,0.001509956486249605,0.9999988589811086,0.0,0.0,0.0,0.0,0.0,0.0,0.0,0.0,0.0,-0.058863446852997256,-0.04010308429441266,0.02699643634114975,0.0,0.0,0.0,0.0,0.0,0.0,0.0,0.0,0.0,-0.06836294185226419,0.07941478201995052,9.697909597770186,0.0,0.0,0.0,0.0,0.0,0.0,0.0,0.0,0.0
94.715,2815,94,714000000,IMU,1.1343193306195506e-05,-5.4657568438221455e-08,0.0016412832536313302,0.9999986530293979,0.0,0.0,0.0,0.0,0.0,0.0,0.0,0.0,0.0,0.046098269537656285,0.09841707285555647,0.052887091996697805,0.0,0.0,0.0,0.0,0.0,0.0,0.0,0.0,0.0,-0.02497452230803779,0.057813428742457006,9.77525804750732,0.0,0.0,0.0,0.0,0.0,0.0,0.0,0.0,0.0
94.725,2816,94,724000000,IMU,-1.2853677006636882e-05,-1.2615708501460365e-05,0.001795890898338735,0.9999983872244536,0.0,0.0,0.0,0.0,0.0,0.0,0.0,0.0,0.0,-0.01487719775484448,-0.045444783624835464,-0.03392619606000086,0.0,0.0,0.0,0.0,0.0,0.0,0.0,0.0,0.0,0.04553565043586959,-0.29524664098340914,9.836839374181686,0.0,0.0,0.0,0.0,0.0,0.0,0.0,0.0,0.0
94.735,2817,94,734000000,IMU,4.1730743057200956e-05,-4.098450318077793e-05,0.0018955095242201034,0.9999982018096129,0.0,0.0,0.0,0.0,0.0,0.0,0.0,0.0,0.0,0.09107418268538806,0.008123763596818805,-0.021274220237352825,0.0,0.0,0.0,0.0,0.0,0.0,0.0,0.0,0.0,-0.04917938329133899,0.26327535891870907,9.848243643005873,0.0,0.0,0.0,0.0,0.0,0.0,0.0,0.0,0.0
94.745,2818,94,744000000,IMU,6.433556074126032e-05,-1.6880417213132146e-05,0.0020502306712676783,0.9999978960628775,0.0,0.0,0.0,0.0,0.0,0.0,0.0,0.0,0.0,0.005297093035078358,-0.05501683893337318,-0.025385190408365267,0.0,0.0,0.0,0.0,0.0,0.0,0.0,0.0,0.0,-0.08792986513531775,0.11488981866369055,9.640940828451287,0.0,0.0,0.0,0.0,0.0,0.0,0.0,0.0,0.0
94.754,2819,94,754000000,IMU,1.902411236506932e-05,1.3939793224523664e-05,0.0022265654659788248,0.9999975209219226,0.0,0.0,0.0,0.0,0.0,0.0,0.0,0.0,0.0,-0.0065874352153286655,0.013013283500728312,0.041537466336371606,0.0,0.0,0.0,0.0,0.0,0.0,0.0,0.0,0.0,-0.19953653502178315,-0.05190312864539929,9.75441932612322,0.0,0.0,0.0,0.0,0.0,0.0,0.0,0.0,0.0
94.765,2820,94,764000000,IMU,5.358820908896367e-06,-2.7738294323633053e-05,0.002373133860417965,0.9999971837148096,0.0,0.0,0.0,0.0,0.0,0.0,0.0,0.0,0.0,-0.07550373668241643,-0.041745632189033904,0.02273214185138224,0.0,0.0,0.0,0.0,0.0,0.0,0.0,0.0,0.0,0.2413028316211907,-0.02643865295304575,9.912599724477127,0.0,0.0,0.0,0.0,0.0,0.0,0.0,0.0,0.0
94.775,2821,94,774000000,IMU,5.20581215348338e-05,-7.601286573232784e-06,0.0025082856077957667,0.9999968528627889,0.0,0.0,0.0,0.0,0.0,0.0,0.0,0.0,0.0,-0.05343317464796975,0.037799040220939675,0.050619746326867124,0.0,0.0,0.0,0.0,0.0,0.0,0.0,0.0,0.0,-0.19922687711568116,0.11656945004501018,9.756080152771089,0.0,0.0,0.0,0.0,0.0,0.0,0.0,0.0,0.0
94.785,2822,94,784000000,IMU,3.196226033325112e-05,3.0494858085252913e-06,0.0026791573325234386,0.9999964105361091,0.0,0.0,0.0,0.0,0.0,0.0,0.0,0.0,0.0,-0.026627161406277813,0.020806034080607085,-0.01029001179028561,0.0,0.0,0.0,0.0,0.0,0.0,0.0,0.0,0.0,-0.060551665153221294,-0.17172629626663594,9.663478417658892,0.0,0.0,0.0,0.0,0.0,0.0,0.0,0.0,0.0
94.795,2823,94,794000000,IMU,2.1398454966401237e-06,5.755018152982031e-06,0.002888512943563863,0.9999958282189361,0.0,0.0,0.0,0.0,0.0,0.0,0.0,0.0,0.0,-0.04527711769326517,-0.005840471456085146,0.01834537330269084,0.0,0.0,0.0,0.0,0.0,0.0,0.0,0.0,0.0,-0.01896881536970177,0.14016559179673,9.867803751627289,0.0,0.0,0.0,0.0,0.0,0.0,0.0,0.0,0.0
94.805,2824,94,804000000,IMU,1.0933096449427267e-06,-9.7440425450702e-06,0.0030776464452870497,0.9999952639868932,0.0,0.0,0.0,0.0,0.0,0.0,0.0,0.0,0.0,-0.03338127298745405,-0.0009980874123929606,0.021520937399985285,0.0,0.0,0.0,0.0,0.0,0.0,0.0,0.0,0.0,-0.058262951073324964,0.013218043968321259,9.831154115540157,0.0,0.0,0.0,0.0,0.0,0.0,0.0,0.0,0.0
94.815,2825,94,814000000,IMU,-6.36741993396099e-06,-1.972687360913648e-06,0.003278907963775909,0.999994624344616,0.0,0.0,0.0,0.0,0.0,0.0,0.0,0.0,0.0,-0.0030452311889683902,-0.002354764116243635,-0.03487137365442165,0.0,0.0,0.0,0.0,0.0,0.0,0.0,0.0,0.0,0.1207473430288924,-0.17230829126868952,9.814040994568415,0.0,0.0,0.0,0.0,0.0,0.0,0.0,0.0,0.0
94.825,2826,94,824000000,IMU,3.469149710551355e-06,-1.6938554457372806e-05,0.0034748514488821694,0.9999939625360039,0.0,0.0,0.0,0.0,0.0,0.0,0.0,0.0,0.0,0.04497568127925544,-0.032681004548058695,0.013992802479457285,0.0,0.0,0.0,0.0,0.0,0.0,0.0,0.0,0.0,-0.032121479159228666,0.11513474393761146,9.8340581127649,0.0,0.0,0.0,0.0,0.0,0.0,0.0,0.0,0.0
94.835,2827,94,834000000,IMU,3.2891716458870364e-06,6.7692228558959795e-06,0.003693547666533031,0.9999931788012326,0.0,0.0,0.0,0.0,0.0,0.0,0.0,0.0,0.0,-0.0268036080021321,0.016771714658504376,0.05095561916451118,0.0,0.0,0.0,0.0,0.0,0.0,0.0,0.0,0.0,-0.11707708123079621,-0.05255894068655742,9.750280891712006,0.0,0.0,0.0,0.0,0.0,0.0,0.0,0.0,0.0
94.847,2828,94,844000000,IMU,-1.1604749674511907e-05,-2.303778557623137e-05,0.0038894378921313765,0.9999924357751281,0.0,0.0,0.0,0.0,0.0,0.0,0.0,0.0,0.0,0.03235626351347015,0.023423876228320917,0.07718067886351351,0.0,0.0,0.0,0.0,0.0,0.0,0.0,0.0,0.0,0.1601008260077067,0.021362948144860575,9.785771248431278,0.0,0.0,0.0,0.0,0.0,0.0,0.0,0.0,0.0
94.855,2829,94,854000000,IMU,9.964001272253592e-06,-4.3779827522600224e-05,0.004110136138520439,0.9999915523468028,0.0,0.0,0.0,0.0,0.0,0.0,0.0,0.0,0.0,-0.029618062802147224,0.04515103880463456,0.030210684831052943,0.0,0.0,0.0,0.0,0.0,0.0,0.0,0.0,0.0,-0.008992258717524161,0.056422537647227815,9.703017537031249,0.0,0.0,0.0,0.0,0.0,0.0,0.0,0.0,0.0
94.865,2830,94,864000000,IMU,9.914892353599471e-06,-2.6175538230276428e-05,0.004346561323605698,0.9999905532659776,0.0,0.0,0.0,0.0,0.0,0.0,0.0,0.0,0.0,0.011283298627513932,-0.04608449100288793,0.08460639250454141,0.0,0.0,0.0,0.0,0.0,0.0,0.0,0.0,0.0,-0.023103548618699683,0.020560258611010664,9.67386383281396,0.0,0.0,0.0,0.0,0.0,0.0,0.0,0.0,0.0
94.875,2831,94,874000000,IMU,-3.767297943634412e-07,3.5083194389377188e-06,0.004598396205496714,0.9999894273140527,0.0,0.0,0.0,0.0,0.0,0.0,0.0,0.0,0.0,0.035551147361266744,0.024271683174604403,0.06380754844553474,0.0,0.0,0.0,0.0,0.0,0.0,0.0,0.0,0.0,0.013189932988030263,0.11848131347264376,9.84736910355201,0.0,0.0,0.0,0.0,0.0,0.0,0.0,0.0,0.0
94.885,2832,94,884000000,IMU,2.0840597403921189e-07,-1.450270697959314e-05,0.0048328472324842865,0.9999883216204356,0.0,0.0,0.0,0.0,0.0,0.0,0.0,0.0,0.0,-0.02421925101390519,-0.017942559086921956,0.08099272332027349,0.0,0.0,0.0,0.0,0.0,0.0,0.0,0.0,0.0,-0.13773250185129143,-0.13795750779291907,9.91697076262069,0.0,0.0,0.0,0.0,0.0,0.0,0.0,0.0,0.0
94.894,2833,94,894000000,IMU,2.6357183472468006e-06,-2.3154969235368012e-07,0.005094634692270292,0.9999870222609649,0.0,0.0,0.0,0.0,0.0,0.0,0.0,0.0,0.0,0.015708597389915948,0.004873966458568309,0.05419120505161074,0.0,0.0,0.0,0.0,0.0,0.0,0.0,0.0,0.0,-0.08188335425371902,0.13374524218116574,9.714971205010649,0.0,0.0,0.0,0.0,0.0,0.0,0.0,0.0,0.0
94.905,2834,94,904000000,IMU,-1.70110659638893e-05,-1.8270495755368819e-06,0.005372039437719861,0.9999855703456751,0.0,0.0,0.0,0.0,0.0,0.0,0.0,0.0,0.0,-0.05374891462957172,0.049814766750934686,0.07452732178433585,0.0,0.0,0.0,0.0,0.0,0.0,0.0,0.0,0.0,-0.07989464004519904,-0.23537397683106503,9.828179533148981,0.0,0.0,0.0,0.0,0.0,0.0,0.0,0.0,0.0
94.915,2835,94,914000000,IMU,3.1132580073257453e-06,-1.292029417706929e-05,0.0056203291077425435,0.9999842057373177,0.0,0.0,0.0,0.0,0.0,0.0,0.0,0.0,0.0,0.008425367990229308,0.07928507450391296,0.0582620791873152,0.0,0.0,0.0,0.0,0.0,0.0,0.0,0.0,0.0,-0.002297168984570011,-0.020042327733462054,9.680465149952783,0.0,0.0,0.0,0.0,0.0,0.0,0.0,0.0,0.0
94.924,2836,94,924000000,IMU,5.880703496702159e-06,1.7045249497163062e-05,0.005889619376476375,0.9999826558788294,0.0,0.0,0.0,0.0,0.0,0.0,0.0,0.0,0.0,0.05831066177834721,-0.05296094893823826,0.05854877086773212,0.0,0.0,0.0,0.0,0.0,0.0,0.0,0.0,0.0,-0.15231438640817263,-0.005039265891043733,9.748304816885357,0.0,0.0,0.0,0.0,0.0,0.0,0.0,0.0,0.0
94.935,2837,94,934000000,IMU,-1.5122486417953796e-05,-3.849966863911727e-07,0.00617397464815775,0.999980940722475,0.0,0.0,0.0,0.0,0.0,0.0,0.0,0.0,0.0,0.00866953962893523,-0.008253846739823488,0.061527781256085816,0.0,0.0,0.0,0.0,0.0,0.0,0.0,0.0,0.0,0.036460570324842866,-0.04672319708045498,9.730089219474754,0.0,0.0,0.0,0.0,0.0,0.0,0.0,0.0,0.0
94.945,2838,94,944000000,IMU,4.490926354513311e-06,-1.3458213787235928e-05,0.006484130932271838,0.9999789777014121,0.0,0.0,0.0,0.0,0.0,0.0,0.0,0.0,0.0,0.04050836294476317,0.012080113567585291,0.0626009969707525,0.0,0.0,0.0,0.0,0.0,0.0,0.0,0.0,0.0,0.008812689900262977,0.19692419226247493,9.854538952406232,0.0,0.0,0.0,0.0,0.0,0.0,0.0,0.0,0.0
94.955,2839,94,954000000,IMU,1.1228697222189397e-05,7.320393941131854e-06,0.006752744935609588,0.9999771998681584,0.0,0.0,0.0,0.0,0.0,0.0,0.0,0.0,0.0,-0.010202175124431615,0.03686377790273009,0.004283631506180663,0.0,0.0,0.0,0.0,0.0,0.0,0.0,0.0,0.0,-0.02607929292430872,-0.05061350055125125,9.703375193956427,0.0,0.0,0.0,0.0,0.0,0.0,0.0,0.0,0.0
94.965,2840,94,964000000,IMU,-1.4688092532635725e-06,1.1138462613904008e-05,0.00706222659503511,0.9999750621036995,0.0,0.0,0.0,0.0,0.0,0.0,0.0,0.0,0.0,-0.03614387909789565,-0.0015973667354142306,0.1317622605440646,0.0,0.0,0.0,0.0,0.0,0.0,0.0,0.0,0.0,0.020454225277986574,-0.13905356132689897,9.71905639813193,0.0,0.0,0.0,0.0,0.0,0.0,0.0,0.0,0.0
94.974,2841,94,974000000,IMU,4.4606903296968806e-06,-4.4019932762592387e-07,0.007382808498274776,0.9999727466879217,0.0,0.0,0.0,0.0,0.0,0.0,0.0,0.0,0.0,-0.06145952818674311,0.0469309847305223,0.08080286799103806,0.0,0.0,0.0,0.0,0.0,0.0,0.0,0.0,0.0,-0.06915439537911706,0.020307575023889718,9.86046402444366,0.0,0.0,0.0,0.0,0.0,0.0,0.0,0.0,0.0
94.985,2842,94,984000000,IMU,6.577726938198282e-06,8.823394343429112e-07,0.007705044329039398,0.999970315683342,0.0,0.0,0.0,0.0,0.0,0.0,0.0,0.0,0.0,-0.05256705267691148,0.020111427606119125,0.06749814517212821,0.0,0.0,0.0,0.0,0.0,0.0,0.0,0.0,0.0,-0.022865148887087447,0.06440378457899729,9.752371467128473,0.0,0.0,0.0,0.0,0.0,0.0,0.0,0.0,0.0
94.995,2843,94,994000000,IMU,-7.408090360476074e-07,-1.0545176139033779e-06,0.008038031090025695,0.9999676945054451,0.0,0.0,0.0,0.0,0.0,0.0,0.0,0.0,0.0,-0.017791412439882193,0.05020323678349056,0.07733541644348911,0.0,0.0,0.0,0.0,0.0,0.0,0.0,0.0,0.0,0.009913223846108227,0.07550603716835608,9.838720580489511,0.0,0.0,0.0,0.0,0.0,0.0,0.0,0.0,0.0
95.004,2844,95,4000000,IMU,1.1000361112931067e-06,-6.248090251721894e-07,0.008366089955130655,0.9999650036562591,0.0,0.0,0.0,0.0,0.0,0.0,0.0,0.0,0.0,-0.027596001547595624,-0.004498381082697171,0.025890298488310953,0.0,0.0,0.0,0.0,0.0,0.0,0.0,0.0,0.0,0.000662632166411492,0.041285674114302465,9.712733742129128,0.0,0.0,0.0,0.0,0.0,0.0,0.0,0.0,0.0
95.015,2845,95,14000000,IMU,4.0786760943062517e-07,-2.06682298422288e-06,0.008707687242376246,0.9999620873705418,0.0,0.0,0.0,0.0,0.0,0.0,0.0,0.0,0.0,-0.040853699974547,0.0537250875196969,0.028926971434651838,0.0,0.0,0.0,0.0,0.0,0.0,0.0,0.0,0.0,-0.001600009186004163,-0.010520753914368592,9.82857533237411,0.0,0.0,0.0,0.0,0.0,0.0,0.0,0.0,0.0
95.025,2846,95,24000000,IMU,4.511795097796076e-06,3.0073872095699793e-07,0.009058477566914002,0.9999589711401778,0.0,0.0,0.0,0.0,0.0,0.0,0.0,0.0,0.0,-0.034698886654094326,0.014399227433812332,-0.03817631458971882,0.0,0.0,0.0,0.0,0.0,0.0,0.0,0.0,0.0,0.0533077097599374,0.06273581428494794,9.709136735848148,0.0,0.0,0.0,0.0,0.0,0.0,0.0,0.0,0.0
95.035,2847,95,34000000,IMU,1.651261788255952e-05,1.5007688131442042e-07,0.00941953505378282,0.9999556350592168,0.0,0.0,0.0,0.0,0.0,0.0,0.0,0.0,0.0,-0.003431406656542121,-0.006857778539088693,0.03917996243598835,0.0,0.0,0.0,0.0,0.0,0.0,0.0,0.0,0.0,-0.07269156600287885,-0.025387034332019404,9.83024105537379,0.0,0.0,0.0,0.0,0.0,0.0,0.0,0.0,0.0
95.045,2848,95,44000000,IMU,3.779781554131408e-05,-2.224853858999717e-06,0.00979068479262171,0.9999520693801613,0.0,0.0,0.0,0.0,0.0,0.0,0.0,0.0,0.0,0.11488095938231317,0.022776640688416824,0.14393754368675876,0.0,0.0,0.0,0.0,0.0,0.0,0.0,0.0,0.0,-0.007929155383700887,-0.09798269228781893,9.72622847786014,0.0,0.0,0.0,0.0,0.0,0.0,0.0,0.0,0.0
95.055,2849,95,54000000,IMU,5.39705539019088e-05,-1.2040553570652694e-05,0.010170239505182132,0.9999482802478394,0.0,0.0,0.0,0.0,0.0,0.0,0.0,0.0,0.0,-0.023157503139116895,0.043346530502073384,0.10676625892118259,0.0,0.0,0.0,0.0,0.0,0.0,0.0,0.0,0.0,-0.029073031651766026,0.009471906462032316,9.872137359673722,0.0,0.0,0.0,0.0,0.0,0.0,0.0,0.0,0.0
95.065,2850,95,64000000,IMU,5.110655419878775e-05,-2.4385925851311742e-05,0.010552414915248673,0.9999443201163268,0.0,0.0,0.0,0.0,0.0,0.0,0.0,0.0,0.0,0.04369787872816043,-0.0013183135734760561,0.061193782497992164,0.0,0.0,0.0,0.0,0.0,0.0,0.0,0.0,0.0,0.07170047381171686,-0.006351749385886583,9.73359986583571,0.0,0.0,0.0,0.0,0.0,0.0,0.0,0.0,0.0
95.074,2851,95,74000000,IMU,3.2014777952755806e-05,-3.134444683938294e-05,0.01093315743775436,0.9999402302442987,0.0,0.0,0.0,0.0,0.0,0.0,0.0,0.0,0.0,-0.01193287889934497,-0.02678330427473663,0.049379571674020226,0.0,0.0,0.0,0.0,0.0,0.0,0.0,0.0,0.0,0.038701030832574694,-0.0688461079621686,9.860890966240241,0.0,0.0,0.0,0.0,0.0,0.0,0.0,0.0,0.0
95.085,2852,95,84000000,IMU,1.41502730165337e-05,-3.107364933776338e-05,0.011352684050587964,0.999935555622984,0.0,0.0,0.0,0.0,0.0,0.0,0.0,0.0,0.0,-0.001721782122324538,0.026122034142677147,0.12760585316144302,0.0,0.0,0.0,0.0,0.0,0.0,0.0,0.0,0.0,-0.036034734146290735,-0.034015846427938604,9.900869746645336,0.0,0.0,0.0,0.0,0.0,0.0,0.0,0.0,0.0
95.095,2853,95,94000000,IMU,1.841700261203903e-05,-3.114997388845418e-05,0.011701897139998934,0.9999315298028252,0.0,0.0,0.0,0.0,0.0,0.0,0.0,0.0,0.0,-0.016123265771916948,0.028876507597449967,0.07962519576649776,0.0,0.0,0.0,0.0,0.0,0.0,0.0,0.0,0.0,-0.0050443848423429695,-0.057562143926204054,9.841930658098033,0.0,0.0,0.0,0.0,0.0,0.0,0.0,0.0,0.0
95.105,2854,95,104000000,IMU,4.3979405902389195e-05,-3.832784470543397e-05,0.012099320738706482,0.9999267988380202,0.0,0.0,0.0,0.0,0.0,0.0,0.0,0.0,0.0,0.012980675075191482,-0.05719126568410145,0.05446805263447245,0.0,0.0,0.0,0.0,0.0,0.0,0.0,0.0,0.0,-0.02281304666516814,0.05022863263062381,9.778902833825548,0.0,0.0,0.0,0.0,0.0,0.0,0.0,0.0,0.0
95.115,2855,95,114000000,IMU,7.307320941667238e-05,-5.406473391046712e-05,0.012504845686191039,0.9999218072287829,0.0,0.0,0.0,0.0,0.0,0.0,0.0,0.0,0.0,-0.014487778047195858,0.028056322568224587,0.0784347072017596,0.0,0.0,0.0,0.0,0.0,0.0,0.0,0.0,0.0,-0.015952728966681314,-0.011380035216141934,9.8493988567901,0.0,0.0,0.0,0.0,0.0,0.0,0.0,0.0,0.0
95.125,2856,95,124000000,IMU,8.822983969726887e-05,-7.167278274166658e-05,0.012913331313703095,0.9999166129997491,0.0,0.0,0.0,0.0,0.0,0.0,0.0,0.0,0.0,-0.009866932067055401,0.010028818354527364,0.0983333180170897,0.0,0.0,0.0,0.0,0.0,0.0,0.0,0.0,0.0,0.005643515054152605,-0.009473868655295831,9.73875048719982,0.0,0.0,0.0,0.0,0.0,0.0,0.0,0.0,0.0
95.135,2857,95,134000000,IMU,8.265729470541952e-05,-8.242975629569987e-05,0.013319700088539395,0.9999112820458916,0.0,0.0,0.0,0.0,0.0,0.0,0.0,0.0,0.0,0.05372193663447561,0.023614203847191702,0.07976788312856938,0.0,0.0,0.0,0.0,0.0,0.0,0.0,0.0,0.0,0.026546528716205876,0.08899579710079344,9.871597633953899,0.0,0.0,0.0,0.0,0.0,0.0,0.0,0.0,0.0
95.145,2858,95,144000000,IMU,6.540551015602345e-05,-8.388202751944681e-05,0.01372242865503197,0.9999058373855674,0.0,0.0,0.0,0.0,0.0,0.0,0.0,0.0,0.0,-0.022834618819429494,-0.005347643630360948,0.10761834873039491,0.0,0.0,0.0,0.0,0.0,0.0,0.0,0.0,0.0,-0.004108199963895974,0.03140982898971692,9.79170763475395,0.0,0.0,0.0,0.0,0.0,0.0,0.0,0.0,0.0
95.155,2859,95,154000000,IMU,5.1464729294179816e-05,-7.98246101712079e-05,0.01412430709393285,0.9999002424884842,0.0,0.0,0.0,0.0,0.0,0.0,0.0,0.0,0.0,-0.017731810168432872,0.008400151659347287,0.07441481771350664,0.0,0.0,0.0,0.0,0.0,0.0,0.0,0.0,0.0,0.005275589436302209,-0.07360011008485706,9.879487063728957,0.0,0.0,0.0,0.0,0.0,0.0,0.0,0.0,0.0
95.165,2860,95,164000000,IMU,5.517093427704199e-05,-7.984069204499654e-05,0.014530945578842531,0.9998944155270678,0.0,0.0,0.0,0.0,0.0,0.0,0.0,0.0,0.0,0.05154549536613788,-0.03025151093453763,0.1476094508741161,0.0,0.0,0.0,0.0,0.0,0.0,0.0,0.0,0.0,0.12600205181566318,-0.09317806988197015,9.917003416200894,0.0,0.0,0.0,0.0,0.0,0.0,0.0,0.0,0.0
95.175,2861,95,174000000,IMU,7.690550828023955e-05,-9.158090831546879e-05,0.014946113504386347,0.9998882934556209,0.0,0.0,0.0,0.0,0.0,0.0,0.0,0.0,0.0,-0.05199687505270119,-0.024112028045434206,0.12159077053717547,0.0,0.0,0.0,0.0,0.0,0.0,0.0,0.0,0.0,0.007895329796739098,-0.014621510785417692,9.972080991687733,0.0,0.0,0.0,0.0,0.0,0.0,0.0,0.0,0.0
95.185,2862,95,184000000,IMU,0.00010243120435456427,-0.00011325532088439787,0.015369019287077769,0.9998818779872122,0.0,0.0,0.0,0.0,0.0,0.0,0.0,0.0,0.0,-0.041221470757053,-0.03736609557831822,0.05050310956562607,0.0,0.0,0.0,0.0,0.0,0.0,0.0,0.0,0.0,0.037564068150583746,0.01341190901107242,9.840492900061236,0.0,0.0,0.0,0.0,0.0,0.0,0.0,0.0,0.0
95.195,2863,95,194000000,IMU,0.00011559301953962186,-0.00013414675123848125,0.015795090291179478,0.9998752340995334,0.0,0.0,0.0,0.0,0.0,0.0,0.0,0.0,0.0,-0.02756996459663103,0.0017346490072419974,0.030956887181339023,0.0,0.0,0.0,0.0,0.0,0.0,0.0,0.0,0.0,0.10884340544877952,-0.032586515484939425,9.930592679629335,0.0,0.0,0.0,0.0,0.0,0.0,0.0,0.0,0.0
95.205,2864,95,204000000,IMU,0.00011040541438401191,-0.00014372241847403978,0.01621971682854521,0.9998684353156233,0.0,0.0,0.0,0.0,0.0,0.0,0.0,0.0,0.0,-0.0696222632927212,0.013591088444702847,0.10502526773380308,0.0,0.0,0.0,0.0,0.0,0.0,0.0,0.0,0.0,-0.03840812251782563,-0.07340342281694845,9.824239757383085,0.0,0.0,0.0,0.0,0.0,0.0,0.0,0.0,0.0
95.215,2865,95,214000000,IMU,9.430688372193734e-05,-0.00014078467929763653,0.016641284245974265,0.9998615098825089,0.0,0.0,0.0,0.0,0.0,0.0,0.0,0.0,0.0,-0.00793881271625335,-0.0015788954979472903,0.05213744780107713,0.0,0.0,0.0,0.0,0.0,0.0,0.0,0.0,0.0,-0.012570676365239526,0.05117782704032772,9.899860033503876,0.0,0.0,0.0,0.0,0.0,0.0,0.0,0.0,0.0
95.225,2866,95,224000000,IMU,8.12545648872508e-05,-0.00013192339923988265,0.017104168882904263,0.9998537009986699,0.0,0.0,0.0,0.0,0.0,0.0,0.0,0.0,0.0,-0.007233059545559587,0.056257688325907884,0.056948104096750204,0.0,0.0,0.0,0.0,0.0,0.0,0.0,0.0,0.0,0.006515000181607447,-0.05968566634638267,9.889368004795529,0.0,0.0,0.0,0.0,0.0,0.0,0.0,0.0,0.0
95.235,2867,95,234000000,IMU,8.503200482514547e-05,-0.0001326827980732598,0.017486689681157887,0.9998470837327217,0.0,0.0,0.0,0.0,0.0,0.0,0.0,0.0,0.0,0.01614638682287795,0.022442360390234086,0.0913399394526711,0.0,0.0,0.0,0.0,0.0,0.0,0.0,0.0,0.0,-0.009855045486331695,0.05558355992971459,9.865496828779687,0.0,0.0,0.0,0.0,0.0,0.0,0.0,0.0,0.0
95.245,2868,95,244000000,IMU,0.00010300657607591036,-0.0001481754639710244,0.017918790320939754,0.9998394293020814,0.0,0.0,0.0,0.0,0.0,0.0,0.0,0.0,0.0,-0.005299945186154449,0.029322308649567367,0.08340185098548032,0.0,0.0,0.0,0.0,0.0,0.0,0.0,0.0,0.0,0.017154117021439375,-0.060811457216269946,9.909230835592654,0.0,0.0,0.0,0.0,0.0,0.0,0.0,0.0,0.0
95.255,2869,95,254000000,IMU,0.00012424780225230868,-0.00017512686071112868,0.01835786518114373,0.9998314571361802,0.0,0.0,0.0,0.0,0.0,0.0,0.0,0.0,0.0,-0.012497474454429756,-0.017407831634942014,0.033776637857649255,0.0,0.0,0.0,0.0,0.0,0.0,0.0,0.0,0.0,0.04434308052517486,-0.0102608316895562,9.952905834401962,0.0,0.0,0.0,0.0,0.0,0.0,0.0,0.0,0.0
95.265,2870,95,264000000,IMU,0.00013386920522930835,-0.00019849444178367205,0.018800305803781066,0.9998232299665161,0.0,0.0,0.0,0.0,0.0,0.0,0.0,0.0,0.0,0.07955960688733131,-0.018715685940075243,0.09090231776901286,0.0,0.0,0.0,0.0,0.0,0.0,0.0,0.0,0.0,0.06480716119627299,0.0605770884466694,9.861362821846463,0.0,0.0,0.0,0.0,0.0,0.0,0.0,0.0,0.0
95.275,2871,95,274000000,IMU,0.00012617829182147078,-0.0002055822353849843,0.0192426282966966,0.9998148143887539,0.0,0.0,0.0,0.0,0.0,0.0,0.0,0.0,0.0,0.004702077075644125,0.006754125668257345,0.11054627167771311,0.0,0.0,0.0,0.0,0.0,0.0,0.0,0.0,0.0,0.05183387619702603,0.03503995474944527,9.882105747496173,0.0,0.0,0.0,0.0,0.0,0.0,0.0,0.0,0.0
95.284,2872,95,284000000,IMU,0.00010972642213939173,-0.00019619103169145701,0.01968293529051537,0.9998062469936567,0.0,0.0,0.0,0.0,0.0,0.0,0.0,0.0,0.0,-0.027775790872717164,-0.013907429470827438,0.1183112378053198,0.0,0.0,0.0,0.0,0.0,0.0,0.0,0.0,0.0,-0.010097525034902065,0.03313080252287316,9.943829660743928,0.0,0.0,0.0,0.0,0.0,0.0,0.0,0.0,0.0
95.294,2873,95,294000000,IMU,0.00010052449906207606,-0.0001846503905113535,0.02012284566617026,0.9997974929361215,0.0,0.0,0.0,0.0,0.0,0.0,0.0,0.0,0.0,0.024573413024088647,0.026176586589935325,0.134316675640459,0.0,0.0,0.0,0.0,0.0,0.0,0.0,0.0,0.0,0.06672923830436628,-0.01708345427552183,9.89853880370531,0.0,0.0,0.0,0.0,0.0,0.0,0.0,0.0,0.0
95.305,2874,95,304000000,IMU,0.00010572297859590548,-0.00018588782413714766,0.02056566213333346,0.9997884815346626,0.0,0.0,0.0,0.0,0.0,0.0,0.0,0.0,0.0,-0.027515421899102947,0.006256236405380115,0.10163163405237494,0.0,0.0,0.0,0.0,0.0,0.0,0.0,0.0,0.0,-0.010703962876189306,0.0348507882049251,9.974791555535639,0.0,0.0,0.0,0.0,0.0,0.0,0.0,0.0,0.0
95.315,2875,95,314000000,IMU,0.00012297222005188557,-0.00020765561823633027,0.02101435518897715,0.9997791449280031,0.0,0.0,0.0,0.0,0.0,0.0,0.0,0.0,0.0,0.03849069372062251,-0.01230559879189153,0.07582872957439668,0.0,0.0,0.0,0.0,0.0,0.0,0.0,0.0,0.0,0.02446570703595796,-0.02250098633906529,9.968065806742576,0.0,0.0,0.0,0.0,0.0,0.0,0.0,0.0,0.0
95.325,2876,95,324000000,IMU,0.0001390030381544496,-0.00023962309486695187,0.021468845493438964,0.999769479396179,0.0,0.0,0.0,0.0,0.0,0.0,0.0,0.0,0.0,0.07170802533377509,-0.002928559511547555,0.09904443678217006,0.0,0.0,0.0,0.0,0.0,0.0,0.0,0.0,0.0,0.03938203064463016,-0.10707827269307789,9.81140406693215,0.0,0.0,0.0,0.0,0.0,0.0,0.0,0.0,0.0
95.335,2877,95,334000000,IMU,0.00014326460176913785,-0.00026465703036341085,0.021927416645851613,0.9997595200002596,0.0,0.0,0.0,0.0,0.0,0.0,0.0,0.0,0.0,0.034570503005055916,0.03726814776719276,0.0905557043855345,0.0,0.0,0.0,0.0,0.0,0.0,0.0,0.0,0.0,0.12915552521190557,0.004529836637514899,9.901937693017336,0.0,0.0,0.0,0.0,0.0,0.0,0.0,0.0,0.0
95.345,2878,95,344000000,IMU,0.0001349636779791007,-0.00026918578898700346,0.02238706981380283,0.9997493327974611,0.0,0.0,0.0,0.0,0.0,0.0,0.0,0.0,0.0,0.002186552219461108,0.014279714824354419,0.06299171518754434,0.0,0.0,0.0,0.0,0.0,0.0,0.0,0.0,0.0,-0.006236694150444047,0.06608854956134887,9.947093008755024,0.0,0.0,0.0,0.0,0.0,0.0,0.0,0.0,0.0
95.355,2879,95,354000000,IMU,0.00012375050788642438,-0.00025683330309011045,0.02284616015160282,0.999738951771308,0.0,0.0,0.0,0.0,0.0,0.0,0.0,0.0,0.0,0.04022119714438548,0.0021569593054641145,0.06396753042826894,0.0,0.0,0.0,0.0,0.0,0.0,0.0,0.0,0.0,-0.004175341767501428,-0.039766657349585996,9.914414620949145,0.0,0.0,0.0,0.0,0.0,0.0,0.0,0.0,0.0
95.365,2880,95,364000000,IMU,0.00011937944285572466,-0.00024382838618004562,0.023304804212615562,0.9997283693068226,0.0,0.0,0.0,0.0,0.0,0.0,0.0,0.0,0.0,0.03394665230684458,0.05046267833361947,0.04577664305264103,0.0,0.0,0.0,0.0,0.0,0.0,0.0,0.0,0.0,-0.06801489922543213,-0.08148843888966122,9.861954710909677,0.0,0.0,0.0,0.0,0.0,0.0,0.0,0.0,0.0
95.375,2881,95,374000000,IMU,0.00012630522516374489,-0.00024727781474164867,0.023764920631534098,0.9997175358310214,0.0,0.0,0.0,0.0,0.0,0.0,0.0,0.0,0.0,0.027050388091559078,-0.04833619202843758,0.08000161683493295,0.0,0.0,0.0,0.0,0.0,0.0,0.0,0.0,0.0,0.06629164604504673,-0.02195074104107946,9.994838681235517,0.0,0.0,0.0,0.0,0.0,0.0,0.0,0.0,0.0
95.385,2882,95,384000000,IMU,0.0001398951584350713,-0.0002740369469916101,0.024229114083414445,0.9997063845769063,0.0,0.0,0.0,0.0,0.0,0.0,0.0,0.0,0.0,-0.0037420449315390394,0.05627961305663154,0.14853129092260753,0.0,0.0,0.0,0.0,0.0,0.0,0.0,0.0,0.0,0.0472119282752551,0.06934036569683744,10.005420483755241,0.0,0.0,0.0,0.0,0.0,0.0,0.0,0.0,0.0
95.395,2883,95,394000000,IMU,0.00014933932647156472,-0.00030983274882339653,0.024697979323931543,0.9996948992161299,0.0,0.0,0.0,0.0,0.0,0.0,0.0,0.0,0.0,-0.0356428654089505,-0.07570703203023905,0.11157074351613719,0.0,0.0,0.0,0.0,0.0,0.0,0.0,0.0,0.0,0.06633664447412371,0.020230012815482416,9.89724750912569,0.0,0.0,0.0,0.0,0.0,0.0,0.0,0.0,0.0
95.405,2884,95,404000000,IMU,0.00014918155632178098,-0.00033399503455739564,0.025171266764009867,0.9996830865437684,0.0,0.0,0.0,0.0,0.0,0.0,0.0,0.0,0.0,-0.0017245556550807496,-0.016561581498415533,0.12205034401773189,0.0,0.0,0.0,0.0,0.0,0.0,0.0,0.0,0.0,-0.02096097556821727,0.01613504048635314,9.872002634659038,0.0,0.0,0.0,0.0,0.0,0.0,0.0,0.0,0.0
95.414,2885,95,414000000,IMU,0.0001417962347262712,-0.00033420999910479426,0.025648010961606404,0.9996709697351512,0.0,0.0,0.0,0.0,0.0,0.0,0.0,0.0,0.0,-0.02875590745615277,-0.07317086265026004,0.12154486949892603,0.0,0.0,0.0,0.0,0.0,0.0,0.0,0.0,0.0,0.006713985308399959,-0.05682650630971405,9.902409691343442,0.0,0.0,0.0,0.0,0.0,0.0,0.0,0.0,0.0
95.424,2886,95,424000000,IMU,0.00013509850915276305,-0.0003173096821127441,0.026125655092173416,0.9996586073300042,0.0,0.0,0.0,0.0,0.0,0.0,0.0,0.0,0.0,0.021298925829938604,-0.03573894446632972,0.10440095235672917,0.0,0.0,0.0,0.0,0.0,0.0,0.0,0.0,0.0,-0.12203743774539609,0.02529948412184995,9.809089176116995,0.0,0.0,0.0,0.0,0.0,0.0,0.0,0.0,0.0
95.434,2887,95,434000000,IMU,0.00013599899200507687,-0.0003022485171000789,0.02660294476375336,0.9996460240905302,0.0,0.0,0.0,0.0,0.0,0.0,0.0,0.0,0.0,0.02868941301161971,-0.07296685245986596,0.11607730054033041,0.0,0.0,0.0,0.0,0.0,0.0,0.0,0.0,0.0,0.029408199204549974,0.07519228392130504,9.878038752608177,0.0,0.0,0.0,0.0,0.0,0.0,0.0,0.0,0.0
95.445,2888,95,444000000,IMU,0.00014361561290010942,-0.0003083811120936655,0.027079995864824725,0.9996332117830052,0.0,0.0,0.0,0.0,0.0,0.0,0.0,0.0,0.0,0.030966604397429594,-0.014879207271366603,0.08650095381360937,0.0,0.0,0.0,0.0,0.0,0.0,0.0,0.0,0.0,0.009625503183367249,-0.048225991108445124,9.873741860911815,0.0,0.0,0.0,0.0,0.0,0.0,0.0,0.0,0.0
95.455,2889,95,454000000,IMU,0.00015120529186344055,-0.000337807670163927,0.0275586358404409,0.9996201201524267,0.0,0.0,0.0,0.0,0.0,0.0,0.0,0.0,0.0,-0.031650544551302284,0.018987376768057018,0.09009485627009836,0.0,0.0,0.0,0.0,0.0,0.0,0.0,0.0,0.0,-0.02721524921186723,-0.023514576983934776,9.945301877161766,0.0,0.0,0.0,0.0,0.0,0.0,0.0,0.0,0.0
95.465,2890,95,464000000,IMU,0.00015258082783300186,-0.00037648991305724833,0.028041189670647837,0.9996066859801864,0.0,0.0,0.0,0.0,0.0,0.0,0.0,0.0,0.0,0.03523111974281229,0.078549885375396,0.09856145381058831,0.0,0.0,0.0,0.0,0.0,0.0,0.0,0.0,0.0,0.08864860247404309,-0.021913513345063484,9.915280407435548,0.0,0.0,0.0,0.0,0.0,0.0,0.0,0.0,0.0
95.474,2891,95,474000000,IMU,0.0001474106137827912,-0.0003994011127637005,0.028529546276051043,0.9995928589871702,0.0,0.0,0.0,0.0,0.0,0.0,0.0,0.0,0.0,0.02403966937539059,-0.04190765797735466,0.10695833922832856,0.0,0.0,0.0,0.0,0.0,0.0,0.0,0.0,0.0,0.0856074347076185,-0.04848775515605655,9.92173492645865,0.0,0.0,0.0,0.0,0.0,0.0,0.0,0.0,0.0
95.485,2892,95,484000000,IMU,0.0001416982043282028,-0.0003958640674387902,0.029023050026333944,0.9995786541240403,0.0,0.0,0.0,0.0,0.0,0.0,0.0,0.0,0.0,-0.026550266102171732,0.003122810586362651,0.1002603694530686,0.0,0.0,0.0,0.0,0.0,0.0,0.0,0.0,0.0,0.015469676609672902,0.03680420219243068,9.936718183142238,0.0,0.0,0.0,0.0,0.0,0.0,0.0,0.0,0.0
95.495,2893,95,494000000,IMU,0.00014157552734571152,-0.0003741077109882831,0.029519381586421697,0.9995641280631002,0.0,0.0,0.0,0.0,0.0,0.0,0.0,0.0,0.0,0.001781316313055274,-0.009699674457268269,0.07589468519285228,0.0,0.0,0.0,0.0,0.0,0.0,0.0,0.0,0.0,-0.050782569228401006,0.04044124575094613,9.95102282227417,0.0,0.0,0.0,0.0,0.0,0.0,0.0,0.0,0.0
95.505,2894,95,504000000,IMU,0.0001492618259687707,-0.00035865791438030353,0.030064310223418253,0.99954789096681,0.0,0.0,0.0,0.0,0.0,0.0,0.0,0.0,0.0,0.040689760588979905,0.03523672283504624,0.09632715512524825,0.0,0.0,0.0,0.0,0.0,0.0,0.0,0.0,0.0,-0.01508822670963108,0.029565913890841133,9.865644603183036,0.0,0.0,0.0,0.0,0.0,0.0,0.0,0.0,0.0
95.515,2895,95,514000000,IMU,0.00015589748718253488,-0.0003698504495471518,0.03050801837622993,0.9995344414883233,0.0,0.0,0.0,0.0,0.0,0.0,0.0,0.0,0.0,-0.05946293820258768,-0.023137591626119614,0.12313744810252784,0.0,0.0,0.0,0.0,0.0,0.0,0.0,0.0,0.0,-0.0503801477997803,0.06074702124574748,9.82959378226341,0.0,0.0,0.0,0.0,0.0,0.0,0.0,0.0,0.0
95.525,2896,95,524000000,IMU,0.00015715135349850799,-0.0004034956178916289,0.03100043696109549,0.9995192771542526,0.0,0.0,0.0,0.0,0.0,0.0,0.0,0.0,0.0,0.0021202052614271378,-0.0672522251687648,0.01981712501022391,0.0,0.0,0.0,0.0,0.0,0.0,0.0,0.0,0.0,-0.05166981583970671,0.08126288896293808,9.906775130959707,0.0,0.0,0.0,0.0,0.0,0.0,0.0,0.0,0.0
95.535,2897,95,534000000,IMU,0.00015053262766677325,-0.0004400859595210442,0.031496107208897284,0.9995037663235502,0.0,0.0,0.0,0.0,0.0,0.0,0.0,0.0,0.0,-0.03556621504798646,-0.023111243880862015,0.1054116999858271,0.0,0.0,0.0,0.0,0.0,0.0,0.0,0.0,0.0,0.010636869764870528,-0.050293157579863884,10.082822632016896,0.0,0.0,0.0,0.0,0.0,0.0,0.0,0.0,0.0
95.545,2898,95,544000000,IMU,0.00014141610402416857,-0.00045757772983322773,0.03199899919232368,0.9994877861558872,0.0,0.0,0.0,0.0,0.0,0.0,0.0,0.0,0.0,0.01978912190006409,0.011386585124982173,0.14823965606667522,0.0,0.0,0.0,0.0,0.0,0.0,0.0,0.0,0.0,0.005994221288726325,-0.09946780093596966,9.857629981435267,0.0,0.0,0.0,0.0,0.0,0.0,0.0,0.0,0.0
95.555,2899,95,554000000,IMU,0.00013919255501097918,-0.00044799007621168393,0.03250999277200921,0.9994713003885046,0.0,0.0,0.0,0.0,0.0,0.0,0.0,0.0,0.0,-0.005693362755845926,-0.042990148787456516,0.09763943040908843,0.0,0.0,0.0,0.0,0.0,0.0,0.0,0.0,0.0,0.016564650242935307,-0.01912493159694008,9.922305719809778,0.0,0.0,0.0,0.0,0.0,0.0,0.0,0.0,0.0
95.565,2900,95,564000000,IMU,0.00014640596752266692,-0.0004273149646115354,0.0330243893812482,0.9994544440209417,0.0,0.0,0.0,0.0,0.0,0.0,0.0,0.0,0.0,0.007401600602087393,0.03805912707259108,0.13297881572221662,0.0,0.0,0.0,0.0,0.0,0.0,0.0,0.0,0.0,-0.03279757556067849,0.07701175996443034,9.959386785206023,0.0,0.0,0.0,0.0,0.0,0.0,0.0,0.0,0.0
95.575,2901,95,574000000,IMU,0.00015704348776458997,-0.0004196206220748681,0.03353647878094903,0.9994373936604791,0.0,0.0,0.0,0.0,0.0,0.0,0.0,0.0,0.0,-0.022336393203023157,-0.04827631187201926,0.09349193259921179,0.0,0.0,0.0,0.0,0.0,0.0,0.0,0.0,0.0,-0.019779852044720908,0.04702533922325354,9.943771734110214,0.0,0.0,0.0,0.0,0.0,0.0,0.0,0.0,0.0
95.584,2902,95,584000000,IMU,0.00016180594536739697,-0.00043817700860461365,0.03404358057632996,0.999420240159908,0.0,0.0,0.0,0.0,0.0,0.0,0.0,0.0,0.0,-0.0059067230505729425,0.02029996084936259,0.07344010224758166,0.0,0.0,0.0,0.0,0.0,0.0,0.0,0.0,0.0,-0.03977510635908761,-0.08956759786038701,9.93029665257464,0.0,0.0,0.0,0.0,0.0,0.0,0.0,0.0,0.0
95.595,2903,95,594000000,IMU,0.00015482767563339682,-0.000474953194589485,0.03454824148227893,0.9994029064688257,0.0,0.0,0.0,0.0,0.0,0.0,0.0,0.0,0.0,-0.03885890259733967,0.043502463909481544,0.1310691392477987,0.0,0.0,0.0,0.0,0.0,0.0,0.0,0.0,0.0,-0.03333165611985648,-0.07935971771456922,9.89584153352934,0.0,0.0,0.0,0.0,0.0,0.0,0.0,0.0,0.0
95.605,2904,95,604000000,IMU,0.000140234536711094,-0.0005091669808266482,0.03505638116624026,0.9993851966197956,0.0,0.0,0.0,0.0,0.0,0.0,0.0,0.0,0.0,0.07440275749190267,-0.016385456867459826,0.14449292252107432,0.0,0.0,0.0,0.0,0.0,0.0,0.0,0.0,0.0,0.126386163907656,0.05510765696275569,9.903967873375183,0.0,0.0,0.0,0.0,0.0,0.0,0.0,0.0,0.0
95.615,2905,95,614000000,IMU,0.00013102809047497104,-0.000519349461599724,0.03557403653681235,0.9993669001083905,0.0,0.0,0.0,0.0,0.0,0.0,0.0,0.0,0.0,-0.0078098845632398,0.04783004629176091,0.05096000428040235,0.0,0.0,0.0,0.0,0.0,0.0,0.0,0.0,0.0,0.04694332017987704,-0.14681213079993166,9.953532342990227,0.0,0.0,0.0,0.0,0.0,0.0,0.0,0.0,0.0
95.625,2906,95,624000000,IMU,0.00013561451357132446,-0.0005053324967976937,0.0361021802848275,0.9993479668396056,0.0,0.0,0.0,0.0,0.0,0.0,0.0,0.0,0.0,-0.024310519019194385,-0.033297606558831364,0.12961141799054088,0.0,0.0,0.0,0.0,0.0,0.0,0.0,0.0,0.0,0.015621422807599516,0.020746677206723546,9.855304635503492,0.0,0.0,0.0,0.0,0.0,0.0,0.0,0.0,0.0
95.635,2907,95,634000000,IMU,0.0001515710142476823,-0.0004852001902407832,0.03663428436428809,0.999328610025811,0.0,0.0,0.0,0.0,0.0,0.0,0.0,0.0,0.0,0.01127232952862309,-0.030264164557766534,0.11141427970754346,0.0,0.0,0.0,0.0,0.0,0.0,0.0,0.0,0.0,0.014261615977367697,0.07595991605687337,9.850540289874543,0.0,0.0,0.0,0.0,0.0,0.0,0.0,0.0,0.0
95.645,2908,95,644000000,IMU,0.00016492590993926005,-0.00048423991188413794,0.037161927821601826,0.9993091260624682,0.0,0.0,0.0,0.0,0.0,0.0,0.0,0.0,0.0,-0.013528080669861022,0.033458692954982515,0.08362949074019423,0.0,0.0,0.0,0.0,0.0,0.0,0.0,0.0,0.0,0.010273847996673706,0.059298444149514386,10.007427061402115,0.0,0.0,0.0,0.0,0.0,0.0,0.0,0.0,0.0
95.655,2909,95,654000000,IMU,0.00016397758375738644,-0.000509331956491171,0.037682019520519916,0.9992896372409581,0.0,0.0,0.0,0.0,0.0,0.0,0.0,0.0,0.0,0.02981504221820561,-0.0213725553365256,0.09161786372450789,0.0,0.0,0.0,0.0,0.0,0.0,0.0,0.0,0.0,-0.10841111002211894,0.04852538293474028,9.915908953025683,0.0,0.0,0.0,0.0,0.0,0.0,0.0,0.0,0.0
95.665,2910,95,664000000,IMU,0.00014838913803741672,-0.000544345632985335,0.03819869104080424,0.9992700043888363,0.0,0.0,0.0,0.0,0.0,0.0,0.0,0.0,0.0,-0.05922372304575524,0.06702951647789158,0.09261800278122946,0.0,0.0,0.0,0.0,0.0,0.0,0.0,0.0,0.0,-0.03757219137837603,0.007514409087648069,9.846798657330844,0.0,0.0,0.0,0.0,0.0,0.0,0.0,0.0,0.0
95.675,2911,95,674000000,IMU,0.00012907161101068473,-0.0005697772548789781,0.0387202295526601,0.9992499199488527,0.0,0.0,0.0,0.0,0.0,0.0,0.0,0.0,0.0,0.054714014295885766,0.08632612360207952,0.09888931087520234,0.0,0.0,0.0,0.0,0.0,0.0,0.0,0.0,0.0,0.015545220348450961,-0.06421845583838853,10.000731069985546,0.0,0.0,0.0,0.0,0.0,0.0,0.0,0.0,0.0
95.685,2912,95,684000000,IMU,0.00012263199891483618,-0.0005716187438903864,0.03925403325410816,0.9992290923940766,0.0,0.0,0.0,0.0,0.0,0.0,0.0,0.0,0.0,0.021901633326952424,0.0010430368063189864,0.05906380333654374,0.0,0.0,0.0,0.0,0.0,0.0,0.0,0.0,0.0,0.07069285645174382,-0.05525509829076945,9.881278656517091,0.0,0.0,0.0,0.0,0.0,0.0,0.0,0.0,0.0
95.695,2913,95,694000000,IMU,0.0001363905476765124,-0.000554607077639164,0.039800056134610205,0.9992075006425293,0.0,0.0,0.0,0.0,0.0,0.0,0.0,0.0,0.0,0.04386800438850822,-0.07310490409727502,0.17710203304164868,0.0,0.0,0.0,0.0,0.0,0.0,0.0,0.0,0.0,-0.019163692760405287,0.06093775263271942,9.85896581028588,0.0,0.0,0.0,0.0,0.0,0.0,0.0,0.0,0.0
95.705,2914,95,704000000,IMU,0.00015883724410821836,-0.000541744585699542,0.04034887134150442,0.9991854932218545,0.0,0.0,0.0,0.0,0.0,0.0,0.0,0.0,0.0,0.041169212636421496,0.01264602243490772,0.026044278242043292,0.0,0.0,0.0,0.0,0.0,0.0,0.0,0.0,0.0,-0.05466286613527192,0.004119585627825105,9.939018412769881,0.0,0.0,0.0,0.0,0.0,0.0,0.0,0.0,0.0
95.715,2915,95,714000000,IMU,0.0001707739216652005,-0.0005491949093660798,0.04089058435972453,0.9991634647703745,0.0,0.0,0.0,0.0,0.0,0.0,0.0,0.0,0.0,-0.006517275046814008,-0.05021285147995635,0.08313229830045253,0.0,0.0,0.0,0.0,0.0,0.0,0.0,0.0,0.0,-0.03768400898702052,0.011577999550180889,9.863020781006636,0.0,0.0,0.0,0.0,0.0,0.0,0.0,0.0,0.0
95.725,2916,95,724000000,IMU,0.00015947812984376202,-0.0005786887797375385,0.041475734231375114,0.999139331202606,0.0,0.0,0.0,0.0,0.0,0.0,0.0,0.0,0.0,0.001215927829140668,-0.011579813743518498,0.0752751393766402,0.0,0.0,0.0,0.0,0.0,0.0,0.0,0.0,0.0,0.038176471798083755,0.003315698569510958,9.888769364028844,0.0,0.0,0.0,0.0,0.0,0.0,0.0,0.0,0.0
95.735,2917,95,734000000,IMU,0.00013775393057548983,-0.0006049487870614114,0.04195176140344571,0.9991194446991651,0.0,0.0,0.0,0.0,0.0,0.0,0.0,0.0,0.0,0.030976666704329907,-0.04198002317255238,0.06253705496720995,0.0,0.0,0.0,0.0,0.0,0.0,0.0,0.0,0.0,0.03344288298549027,0.07073259218142042,9.982271999306812,0.0,0.0,0.0,0.0,0.0,0.0,0.0,0.0,0.0
95.745,2918,95,744000000,IMU,0.00011802963398884058,-0.0006208192257658997,0.04248732214241306,0.9990968061752882,0.0,0.0,0.0,0.0,0.0,0.0,0.0,0.0,0.0,0.0025008545659270446,0.01300746506462565,0.14770755049256587,0.0,0.0,0.0,0.0,0.0,0.0,0.0,0.0,0.0,0.002187955437537612,0.004329889115646864,10.001132184479761,0.0,0.0,0.0,0.0,0.0,0.0,0.0,0.0,0.0
95.755,2919,95,754000000,IMU,0.00011833619192716268,-0.0006184507178784328,0.043036643133137126,0.9990732960414296,0.0,0.0,0.0,0.0,0.0,0.0,0.0,0.0,0.0,-0.0039945544047595115,0.06281407151514244,0.14802639185307412,0.0,0.0,0.0,0.0,0.0,0.0,0.0,0.0,0.0,0.030411104006872185,0.05209454412502253,9.894476384465205,0.0,0.0,0.0,0.0,0.0,0.0,0.0,0.0,0.0
95.765,2920,95,764000000,IMU,0.00013863561202295894,-0.0006081943146082319,0.04359753100773591,0.9990489808662399,0.0,0.0,0.0,0.0,0.0,0.0,0.0,0.0,0.0,0.04288470866408045,0.0038615799249959986,0.11781942303737257,0.0,0.0,0.0,0.0,0.0,0.0,0.0,0.0,0.0,0.012418420359029384,0.026015346949682862,10.022878513282832,0.0,0.0,0.0,0.0,0.0,0.0,0.0,0.0,0.0
95.775,2921,95,774000000,IMU,0.00016178977809383092,-0.0006065237926265625,0.04415924516350692,0.9990243075218671,0.0,0.0,0.0,0.0,0.0,0.0,0.0,0.0,0.0,-0.03788890495985135,-0.028994742974284903,0.13674342012673804,0.0,0.0,0.0,0.0,0.0,0.0,0.0,0.0,0.0,0.03389925688743802,-0.017962881229229878,9.871620628967817,0.0,0.0,0.0,0.0,0.0,0.0,0.0,0.0,0.0
95.784,2922,95,784000000,IMU,0.0001666328730311856,-0.0006222036663083831,0.04471122107931406,0.9989997456484562,0.0,0.0,0.0,0.0,0.0,0.0,0.0,0.0,0.0,0.035424423923041765,-0.05133113433354316,0.1947209982519597,0.0,0.0,0.0,0.0,0.0,0.0,0.0,0.0,0.0,-0.013455867762363252,0.002408623167929074,9.949475412458437,0.0,0.0,0.0,0.0,0.0,0.0,0.0,0.0,0.0
95.795,2923,95,794000000,IMU,0.00014589269596143166,-0.0006491633238053971,0.04525272161058115,0.9989753492900292,0.0,0.0,0.0,0.0,0.0,0.0,0.0,0.0,0.0,-0.04649268106286126,-0.004000832997780212,0.10344774265493348,0.0,0.0,0.0,0.0,0.0,0.0,0.0,0.0,0.0,0.05577382176710671,0.0357065303654643,9.968923144435102,0.0,0.0,0.0,0.0,0.0,0.0,0.0,0.0,0.0
95.804,2924,95,804000000,IMU,0.00011337823963036426,-0.0006715467410936669,0.045791831190878984,0.9989507717433004,0.0,0.0,0.0,0.0,0.0,0.0,0.0,0.0,0.0,-0.03639838222550512,-0.039850866506398394,0.09809572722022752,0.0,0.0,0.0,0.0,0.0,0.0,0.0,0.0,0.0,-0.03433776339952679,-0.00450583363657714,9.882376514034954,0.0,0.0,0.0,0.0,0.0,0.0,0.0,0.0,0.0
95.815,2925,95,814000000,IMU,9.584099235729133e-05,-0.0006778258820741967,0.04634138091685925,0.9989254265365841,0.0,0.0,0.0,0.0,0.0,0.0,0.0,0.0,0.0,0.04070118687037065,-0.039153944047522656,0.07613185231813496,0.0,0.0,0.0,0.0,0.0,0.0,0.0,0.0,0.0,0.032894799106908804,0.0031618332629174996,9.90185653568716,0.0,0.0,0.0,0.0,0.0,0.0,0.0,0.0,0.0
95.824,2926,95,824000000,IMU,0.00010678498699996272,-0.0006720708652261925,0.046907986918247206,0.9988989827209739,0.0,0.0,0.0,0.0,0.0,0.0,0.0,0.0,0.0,0.035894835456543005,-0.02311298520023738,0.16492202776476364,0.0,0.0,0.0,0.0,0.0,0.0,0.0,0.0,0.0,-0.045135677137244486,-0.06385815229293598,9.878506466008544,0.0,0.0,0.0,0.0,0.0,0.0,0.0,0.0,0.0
95.835,2927,95,834000000,IMU,0.0001372100238111584,-0.0006673890182603086,0.047484935586009455,0.9988717218230279,0.0,0.0,0.0,0.0,0.0,0.0,0.0,0.0,0.0,0.014151935357936362,0.014261163875597666,0.12871511787620304,0.0,0.0,0.0,0.0,0.0,0.0,0.0,0.0,0.0,-0.013882974530975097,0.011376276530442687,9.959540166416701,0.0,0.0,0.0,0.0,0.0,0.0,0.0,0.0,0.0
95.844,2928,95,844000000,IMU,0.00015888969475645948,-0.0006762209615403651,0.04805943413673049,0.998844236239932,0.0,0.0,0.0,0.0,0.0,0.0,0.0,0.0,0.0,-0.05984161737338562,-0.05013446486134448,0.19279618599023923,0.0,0.0,0.0,0.0,0.0,0.0,0.0,0.0,0.0,0.04171400753978518,0.04004777728158246,9.878028112856793,0.0,0.0,0.0,0.0,0.0,0.0,0.0,0.0,0.0
