Time,header.seq,header.stamp.secs,header.stamp.nsecs,header.frame_id,torques.x,torques.y,torques.z
36.905,1,36,900000000,,2.287720187629537e-06,-1.588131622941386e-05,0.0004769561151947157
36.906,2,36,906000000,,6.8284098744551385e-06,-4.7597299699860244e-05,0.0014333829745457466
36.907,3,36,907000000,,1.1383172365997512e-05,-7.937945860610452e-05,0.002395859077778437
36.908,4,36,908000000,,1.5905627546459873e-05,-0.00011118418832531908,0.0033643543553618224
36.918,5,36,918000000,,2.0435527379247647e-05,-0.00014305510863370723,0.004338838737767582
36.929,6,36,928000000,,2.4941018976436176e-05,-0.00017496389635513553,0.005319282155464611
36.939,7,36,938000000,,2.9440038945627908e-05,-0.00020693120771920193,0.0063056545389243495
36.948,8,36,948000000,,3.3919410221252304e-05,-0.00023894745812084976,0.0072979258186164474
36.959,9,36,958000000,,3.838156776082675e-05,-0.00027101820265835926,0.00829606592501144
36.969,10,36,968000000,,4.282125086000751e-05,-0.0003031414498269223,0.00930004478857934
36.978,11,36,978000000,,4.7248404844867556e-05,-0.0003353299010064755,0.010309832339791393
36.989,12,36,988000000,,5.1646541002203864e-05,-0.0003675702243783877,0.011325398509116633
36.998,13,36,998000000,,5.602901637294007e-05,-0.0003998791818427052,0.01234671322702678
37.008,14,37,8000000,,6.038352396929244e-05,-0.0004322466589875653,0.013373746423991008
37.019,15,37,18000000,,6.47085863552282e-05,-0.0004646738381185761,0.014406468030479562
37.028,16,37,28000000,,6.900996039778525e-05,-0.0004971702678031142,0.015444847976963752
37.038,17,37,38000000,,-0.0013169440328566668,-0.00021190306760243753,0.016478552002118403
37.049,18,37,48000000,,9.518073617523275e-05,-0.0016564172692094918,0.01752380022180292
37.058,19,37,58000000,,-0.0007892384055968661,-0.0005972976805666342,0.018128166763942886
37.068,20,37,68000000,,8.33991838148042e-05,0.00027936751818597236,0.01964298260568675
37.079,21,37,78000000,,0.0009676191286678219,-0.0006589181187324153,0.020212785359118066
37.088,22,37,88000000,,9.145031176853994e-05,0.0002631973790411372,0.02128857883819517
37.098,23,37,98000000,,0.000968040643776084,-0.0007121698488658436,0.022844317891190596
37.109,24,37,108000000,,0.0014500167122627622,-0.0007595501336200382,0.02359385649138927
37.118,25,37,118000000,,0.00028089708627462964,-0.0007332315297844165,0.02379501588707165
37.128,26,37,128000000,,-0.0011013293151564657,-0.0008280773718006256,0.025764077033814017
37.138,27,37,138000000,,2.1988646255683055e-05,-0.0009267363923944648,0.02719659815601793
37.149,28,37,148000000,,0.00024331577479202126,-0.000895287281351345,0.028294617351318323
37.158,29,37,158000000,,-0.0011679214890794542,-0.0009517283061726609,0.028839195895872607
37.168,30,37,168000000,,0.00012787483425577385,0.0005120747748658704,0.02960221376136124
37.178,31,37,178000000,,0.00010861264493595776,-0.0009489405751697533,0.03161821395622764
37.189,32,37,188000000,,0.0014422217346462696,-0.0010285783640500005,0.03176550952198961
37.199,33,37,198000000,,0.00013484862575844617,0.0003199997722683061,0.03349863382116782
37.209,34,37,208000000,,0.0014484967835589472,-0.0014452164660565476,0.03389627209657731
37.219,35,37,218000000,,-8.240691017650771e-05,-0.0025899733976532087,0.03528519561480157
37.229,36,37,228000000,,-0.00015275856069514137,-0.0024249979252129873,0.03458084067774229
37.239,37,37,239000000,,0.0020979876223223837,-0.0012038851512352832,0.03603787308000858
37.248,38,37,248000000,,-0.0006401486021860524,-0.002896536646834277,0.03649303336884309
37.258,39,37,258000000,,0.0020675186539577733,-0.0012610361270235728,0.03752188963547309
37.269,40,37,269000000,,0.0013704034712532472,-0.0017517353946030474,0.03988295598336142
37.279,41,37,278000000,,-0.0005946329608616293,-0.003921844072814271,0.03936865140935623
37.288,42,37,288000000,,0.00094433603442799,0.003158182701634425,0.03805227879821299
37.299,43,37,298000000,,-0.0023404139944849796,0.001059281331411856,0.035712189685955055
37.309,44,37,308000000,,-0.0027530575717309687,-0.0014495186079846716,0.03817630532590237
37.319,45,37,318000000,,-0.0010483309042577948,-0.000817951992607655,0.0403193484651923
37.329,46,37,328000000,,0.0005951974855767604,0.00044648906928630705,0.04133000758949026
37.339,47,37,338000000,,-0.0016714941041758194,-0.0013760254935504413,0.041728465916227836
37.349,48,37,348000000,,-0.002379639547859987,-0.0003003978853211485,0.042514670187338316
37.359,49,37,358000000,,-7.389607880578367e-05,-0.00884969962440857,0.041846848547019366
37.369,50,37,368000000,,-0.00559385921785786,0.0013027438454759669,0.03779149607309291
37.378,51,37,378000000,,0.0003636819810905323,0.0018879142806137437,0.04239067942928164
37.388,52,37,388000000,,0.011194911794509921,-0.005300216801727229,0.04168536306234478
37.399,53,37,399000000,,-0.005688179092440722,0.0021047527486508194,0.03779534221920923
37.408,54,37,408000000,,0.0073938562516532545,-0.007453440795938121,0.0361557784522174
37.419,55,37,418000000,,-0.009692310632296657,0.003632415703391842,0.03759326961507917
37.429,56,37,428000000,,0.007977987114538159,-0.004674075892037804,0.03678233310710438
37.439,57,37,438000000,,-0.005003920143937763,-0.0035363117823370887,0.04295131858478278
37.448,58,37,448000000,,0.011519181499023519,-0.002807783955253116,0.03850480215713077
37.459,59,37,458000000,,-0.011319118837573952,0.002799566264886183,0.0389996016186427
37.469,60,37,468000000,,0.0073168131206260145,-0.006753770685622566,0.038233742582989026
37.479,61,37,478000000,,0.005612657355759468,0.012925062232727436,0.036757528088529744
37.488,62,37,488000000,,-0.008184661517729293,-0.007012481793150275,0.039894411000176364
37.498,63,37,498000000,,0.00875632950613364,-0.00791506464341176,0.03630801567211993
37.508,64,37,508000000,,0.005114019348712529,0.012647191599943729,0.03407430826188858
37.518,65,37,518000000,,-0.009896727796268916,-0.005529781697917699,0.03810801436203709
37.529,66,37,528000000,,0.00640322904128377,-0.0048471089765791614,0.033669448151276954
37.539,67,37,538000000,,0.010227039724165617,0.0015777376209733214,0.026676544422175694
37.548,68,37,548000000,,-0.011170293416118202,-0.0025166393210246775,0.045414379121218
37.559,69,37,558000000,,-0.002526264347768096,-0.006330105588759524,0.030266478509147696
37.568,70,37,568000000,,0.011030104475794776,-0.004461942824395253,0.03194650352909339
37.579,71,37,578000000,,0.01040056352330976,0.0021515824193648315,0.02484049519949871
37.589,72,37,588000000,,0.0011058955117669795,-0.0041780671905367345,0.030792921038060583
37.599,73,37,598000000,,0.0006354874646371638,0.0024551042304675912,0.026291411783188307
37.609,74,37,608000000,,0.0005627040376969786,-0.004982448756226595,0.02819965958050654
37.619,75,37,618000000,,0.0022480309918987873,-0.006290699772875377,0.03207012597340363
37.629,76,37,628000000,,-0.004123564879714689,0.000812210435846076,0.026930727085243945
37.639,77,37,638000000,,0.003143436378157285,-0.002058413986324529,0.024837129205591165
37.648,78,37,648000000,,-0.0017906562191848142,-0.0007793304384884779,0.02541389051214758
37.659,79,37,658000000,,6.748274517916179e-05,-0.00529188438135068,0.021626491944611605
37.668,80,37,668000000,,0.002642452245589256,0.004872612780301304,0.025045309818416454
37.679,81,37,678000000,,-0.0033481558619848045,-0.002679363025467158,0.027073050783768902
37.689,82,37,688000000,,-0.00033961948501300663,-0.004827816176109973,0.022709479592494072
37.699,83,37,698000000,,0.0043023460529101176,-0.0021770223975316532,0.021849716339868035
37.709,84,37,708000000,,-0.004837141094703257,0.0022583293188759707,0.02752265888436004
37.719,85,37,718000000,,-0.0021671664961660235,-0.001282851185252818,0.01682495571247012
37.728,86,37,728000000,,0.0005840985568014408,-0.00279777417699012,0.01425124551149578
37.739,87,37,738000000,,0.0015275729019665876,-0.0032980777693047527,0.01527068288045191
37.749,88,37,748000000,,0.0017133022870358219,-0.0032385403271452803,0.017194968347135912
37.758,89,37,758000000,,0.0014442689805815162,-0.0029993611226100695,0.018268387693442596
37.769,90,37,768000000,,0.00045622349986276155,-0.002777933472704133,0.016759043171888793
37.778,91,37,778000000,,-0.0004429476620285848,-0.0023570469631004768,0.014191814305953348
37.789,92,37,788000000,,-0.0010056688940746038,-0.0013256080722608892,0.010410717405568579
37.799,93,37,798000000,,-0.000556470717474206,-0.000513518582132128,0.009408389309165932
37.809,94,37,808000000,,0.0004128419243178238,-0.0005366356630859437,0.010905165990847124
37.818,95,37,818000000,,0.0009827391741031072,-0.0008767975126089237,0.013214848886623758
37.829,96,37,828000000,,0.0008445809934845751,-0.0011511956335231094,0.01466383981321466
37.838,97,37,838000000,,-0.00014506820442676963,-0.001061716890601594,0.013729048158860401
37.848,98,37,848000000,,-0.0009334813804941712,-0.0006850254384150147,0.011275654426898957
37.858,99,37,858000000,,-0.001007824692388789,-0.0003772646689874226,0.00908063694978328
37.869,100,37,868000000,,-0.0004080042243320614,-0.0004440900895711901,0.008806566863662848
37.879,101,37,878000000,,0.00029577669395740964,-0.0007980542005303652,0.010546024414484528
37.889,102,37,888000000,,0.000800425417853463,-0.0012482427280107798,0.013155764883119543
37.898,103,37,898000000,,0.0005596507867960613,-0.0014056339893787659,0.014679291919658652
37.908,104,37,908000000,,-0.00017779516775609332,-0.0010771451481894083,0.013872196053714175
37.919,105,37,918000000,,-0.0007521272419520023,-0.000534582080103332,0.011738064851336296
37.928,106,37,928000000,,-0.0007440339586955591,-0.0002183478441895319,0.009856071458121576
37.939,107,37,938000000,,-0.00031846477624187825,-0.0003819413870398777,0.009761076503044957
37.948,108,37,948000000,,0.0003399265299417116,-0.0010265327639562825,0.011246235857239682
37.958,109,37,958000000,,0.0005357620982019358,-0.0014845743499573086,0.01333802538467855
37.969,110,37,968000000,,0.0002476782639336425,-0.0015589359520016759,0.014594406975524183
37.979,111,37,978000000,,-0.0002070380735398128,-0.0011495161147834425,0.01418698811748174
37.989,112,37,988000000,,-0.0005969299118801025,-0.00039077121934107594,0.012047841537663806
37.999,113,37,998000000,,-0.0005040173864695632,-0.00011867650696716027,0.010924004598470819
38.009,114,38,8000000,,-0.00010719974614730144,-0.00040337086706877855,0.010705976184105721
38.019,115,38,18000000,,0.00023584949760400856,-0.0011122698376359228,0.011784903005150955
38.029,116,38,28000000,,0.0002540843286348457,-0.001740670474173981,0.013625606861722431
38.039,117,38,38000000,,3.432708749683146e-06,-0.001683744442326192,0.014405962535780553
38.048,118,38,48000000,,-0.00034969503094457277,-0.0009984569620575595,0.013736035545626952
38.058,119,38,58000000,,-0.0003878662349340933,-0.00033766993904136525,0.012630500436646043
38.068,120,38,68000000,,-0.00019292138914003788,-0.00013997698515937843,0.012058239649024576
38.078,121,38,78000000,,7.492310611567915e-05,-0.0005090416533119031,0.011862977328677388
38.088,122,38,88000000,,0.0001372220337099334,-0.0013557035091464513,0.01282711978132791
38.099,123,38,98000000,,-4.2704622732878044e-05,-0.0017724328162176573,0.013503494526152775
38.109,124,38,108000000,,-0.00030421305272668143,-0.0016528740830522872,0.013895751275569003
38.119,125,38,118000000,,-0.00039080123985520826,-0.0010074057259758002,0.013636362407751727
38.129,126,38,128000000,,-0.00020014956422561772,-0.000327936226814819,0.013300121146571125
38.139,127,38,138000000,,0.0001351724035730648,-0.00018014806241075656,0.01296822920535573
38.149,128,38,148000000,,0.00020159844822676716,-0.0007409025370138185,0.01335379955004424
38.159,129,38,158000000,,2.438833585183511e-06,-0.001428943560106036,0.013472100581513014
38.169,130,38,168000000,,-0.00036213375046064393,-0.0018150826114823986,0.013545821858990876
38.179,131,38,178000000,,-0.000561567843092872,-0.001559474755784102,0.01321322810997091
38.189,132,38,188000000,,-0.0003914365048763018,-0.0008837302159283347,0.013278550643790694
38.198,133,38,198000000,,8.740279669226236e-05,-0.00030143582790176956,0.01390766044517102
38.209,134,38,208000000,,0.00035996216917796593,-0.0004004188849835198,0.014419431406693358
38.219,135,38,218000000,,0.00022336101097694038,-0.0009801113502813535,0.014621218892853574
38.229,136,38,228000000,,-0.00024246876746151878,-0.001556279954697645,0.014002829661802833
38.239,137,38,238000000,,-0.00063268643979271,-0.0016879113930579584,0.01325732361199574
38.249,138,38,248000000,,-0.0007146494953190789,-0.0013402915361921857,0.012549589725342477
38.259,139,38,258000000,,-0.00031089847653758,-0.0007686908662002561,0.013011447094734424
38.269,140,38,268000000,,0.00027930827925218087,-0.0004427584951997897,0.014613921526567961
38.279,141,38,278000000,,0.0005518453642938475,-0.0006706271974577326,0.016068853899919935
38.289,142,38,288000000,,0.00023430225769423502,-0.001148843174058177,0.01609377121176213
38.298,143,38,298000000,,-0.00044613290246488203,-0.0015786166357707305,0.014413023745620921
38.308,144,38,308000000,,-0.0009295153764895072,-0.0015368995061367605,0.012491565871727754
38.319,145,38,318000000,,-0.0007980719582627924,-0.001098015374316592,0.011696406937035492
38.328,146,38,328000000,,-5.44852284771536e-05,-0.0006619014070045246,0.013265103152559146
38.339,147,38,338000000,,0.0005278769944210822,-0.0006821075000791319,0.015937679282562827
38.348,148,38,348000000,,0.0005521906996535415,-0.0010260230147237424,0.017485288599463807
38.359,149,38,359000000,,-2.1922810060162447e-05,-0.0014005619470317037,0.016694945018517485
38.369,150,38,369000000,,-0.0006818394862945367,-0.0014761704467019072,0.014398339837019773
38.379,151,38,378000000,,-0.001060993639282242,-0.0012107452929250129,0.011533417240848012
38.389,152,38,389000000,,-0.0007216009510871978,-0.0008491198948596747,0.011184641073610727
38.398,153,38,398000000,,0.00017589226743788586,-0.0007485429250591124,0.013998952588863526
38.409,154,38,408000000,,0.0006423612986025209,-0.0009728103988526081,0.017107517538690043
38.418,155,38,418000000,,0.0005253867289832316,-0.001340498503659956,0.019068044405132396
38.429,156,38,428000000,,-0.0002096081416475091,-0.0015134572312352494,0.017544669567108272
38.438,157,38,438000000,,-0.0009799959881563814,-0.0012826417729790577,0.013618269646057725
38.449,158,38,448000000,,-0.0011178040589327491,-0.0008488434371531498,0.01051027509361534
38.459,159,38,458000000,,-0.0004164328162684378,-0.0006807130675637208,0.011252577148724761
38.468,160,38,468000000,,0.00029205634440418536,-0.0009402084048579906,0.014782952791351668
38.479,161,38,478000000,,0.00069147724512318,-0.0013899921884269189,0.018943356077735674
38.488,162,38,488000000,,0.00024830453270473793,-0.001650857246327492,0.019880712325537862
38.498,163,38,498000000,,-0.0005052267618657841,-0.0014460313901311,0.01732327560403274
38.508,164,38,508000000,,-0.001142603522117384,-0.000837107782820881,0.0120578469956774
38.518,165,38,518000000,,-0.0009574122242028523,-0.0005297266537184436,0.010148247251209198
38.528,166,38,528000000,,-0.0002046568351173439,-0.0007118272338344405,0.011740258638213583
38.539,167,38,538000000,,0.0005048840901637732,-0.0013122789289986081,0.016596129341878783
38.548,168,38,548000000,,0.0005895447549132019,-0.001817562921160582,0.02051467986339175
38.558,169,38,558000000,,-0.0001356488244403929,-0.0017456111063725093,0.020169340492527346
38.569,170,38,568000000,,-0.0008071572401992304,-0.0011800413036555692,0.016656005943907762
38.579,171,38,578000000,,-0.001081466061962094,-0.0004508069707213372,0.01150905871205608
38.588,172,38,588000000,,-0.0006570669723990506,-0.000301205704942277,0.009853204240771879
38.598,173,38,598000000,,8.299201495554832e-05,-0.0009441454723884844,0.013232795348594447
38.609,174,38,608000000,,0.0005119449793932521,-0.0018089684670482154,0.018437313996632728
38.619,175,38,618000000,,0.00019669683458587545,-0.0021412320465385723,0.021578799831659043
38.628,176,38,628000000,,-0.0005140577388239808,-0.0015593255716137445,0.019361407656707103
38.638,177,38,638000000,,-0.000956501027818813,-0.0006042418567556646,0.014507306760681411
38.649,178,38,648000000,,-0.0008254780871492214,-0.00011047519508845414,0.0112443369584949
38.659,179,38,658000000,,-0.000261492031209715,-0.0004177756899847677,0.011062704861109392
38.669,180,38,668000000,,0.00028850217965793116,-0.0014571339611310528,0.015398510616655198
38.679,181,38,678000000,,0.0002897245194192279,-0.0023009509960370184,0.02014695377232093
38.689,182,38,688000000,,-0.00029107704660630014,-0.0021386594417394864,0.02144285392514858
38.699,183,38,698000000,,-0.0007904800015905315,-0.0010939086691907163,0.01810181198382144
38.709,184,38,708000000,,-0.0008235893253517961,-0.00016567657690917518,0.013824334358046421
38.719,185,38,718000000,,-0.0003634902685097365,4.3258322862693406e-05,0.010819668044438447
38.728,186,38,728000000,,1.95365283174004e-05,-0.0007880790026683989,0.01302514355997911
38.739,187,38,738000000,,0.00013793679386928275,-0.002061006530706012,0.017671982957399635
38.749,188,38,748000000,,-0.0002327040806485875,-0.0025787250334358795,0.02122778697689315
38.759,189,38,758000000,,-0.0006434279937433461,-0.001880250866400631,0.020563523139063917
38.768,190,38,768000000,,-0.0007893427596939687,-0.00037133437479834944,0.016118076905279236
38.779,191,38,779000000,,-0.00046988147973782516,0.00027133378280974683,0.013284366306128979
38.788,192,38,788000000,,-1.182592822608868e-06,-0.00016771692520884394,0.012298102154910461
38.798,193,38,798000000,,0.00010561891528661652,-0.001514720189549549,0.015258404423341698
38.809,194,38,808000000,,-0.0002507858142940785,-0.002610101916997935,0.019160638802823995
38.818,195,38,818000000,,-0.000775781895833722,-0.0023634424048247916,0.020678137665640375
38.829,196,38,828000000,,-0.0008333413139969078,-0.0010331611945974116,0.018516153713951784
38.839,197,38,838000000,,-0.00046847908337714465,6.009326275663459e-05,0.015749982159712288
38.849,198,38,848000000,,6.473667726915222e-05,0.00028566863969655093,0.013693632967391001
38.859,199,38,858000000,,0.00018564555998146622,-0.000966883263000185,0.014755786653288944
38.869,200,38,868000000,,-0.0002442210987436506,-0.002188793766429393,0.017342491358067667
38.878,201,38,878000000,,-0.000929443176874981,-0.0026648230484680596,0.019452120889104363
38.889,202,38,888000000,,-0.0010583028383518165,-0.0018144616687898493,0.019158263322376412
38.899,203,38,898000000,,-0.0005982294198637857,-0.0003190022919683067,0.01734164682889306
38.908,204,38,908000000,,0.00012992359499126743,0.0004628300952683668,0.01564932983217604
38.919,205,38,918000000,,0.00043425100727276754,-0.00019205231418775704,0.015596462842952371
38.929,206,38,928000000,,-5.259454508358392e-05,-0.0017055809706959025,0.01672769437590781
38.939,207,38,938000000,,-0.0010284205852684359,-0.002731013444551877,0.017955136559981405
38.949,208,38,948000000,,-0.001361647780713214,-0.002236727027366446,0.01819313862765634
38.958,209,38,958000000,,-0.0009081646873363854,-0.0008297893459870687,0.0176897072389347
38.969,210,38,968000000,,6.390439465019652e-05,0.00028268040563834344,0.01719661297124198
38.979,211,38,978000000,,0.0007011214718083819,5.0750315825002015e-05,0.017256692146034414
38.989,212,38,988000000,,0.0002876005472839863,-0.0011013645152980224,0.017552682686555028
38.998,213,38,998000000,,-0.0009510452592456248,-0.002439681295121402,0.01737206316013989
39.008,214,39,8000000,,-0.001635566782218077,-0.0022932735327722917,0.016855840408229347
39.019,215,39,18000000,,-0.0012304600090504857,-0.0011356024826693783,0.01677269943997193
39.029,216,39,28000000,,-0.00021253864286871046,-0.0001482445782926096,0.01753788882771802
39.039,217,39,38000000,,0.0008506049720278639,9.895984283911754e-05,0.018944073560493116
39.049,218,39,48000000,,0.0005953408684931222,-0.0008662977809782522,0.019282465785113043
39.059,219,39,58000000,,-0.0006412781139845577,-0.001998960493722614,0.018184942025667717
39.068,220,39,68000000,,-0.0017381217766615528,-0.0021823500144167516,0.01597828853290466
39.079,221,39,78000000,,-0.0017358767871000422,-0.0014577491879459118,0.01525476289204152
39.089,222,39,88000000,,-0.0006006080095959488,-0.0003869638619651151,0.01668099290252034
39.099,223,39,99000000,,0.00075967852741547,3.887979732775234e-05,0.019484674454278622
39.109,224,39,108000000,,0.0010727346703723012,-0.0005776054093139132,0.021159210688121984
39.119,225,39,118000000,,-4.8670387505376955e-05,-0.0016666309790581983,0.020243281575606318
39.129,226,39,128000000,,-0.0016200660685761511,-0.002104293821219668,0.01659293293000989
39.139,227,39,139000000,,-0.0021617967411885013,-0.0014634641978143142,0.013894282987445225
39.149,228,39,148000000,,-0.0011346208842242464,-0.000492817570757316,0.01454706795458224
39.158,229,39,158000000,,0.0005309621698045006,-0.00012545635067724898,0.018717005820839006
39.169,230,39,168000000,,0.0012935822839682458,-0.0006315387573341497,0.02253756040993698
39.179,231,39,178000000,,0.00018720208704368286,-0.0014703210187291744,0.021997021839520205
39.188,232,39,188000000,,-0.0013641509689663023,-0.0020466931852320554,0.01767396523896575
39.198,233,39,198000000,,-0.0021995852781935346,-0.0012284963332347676,0.013911796322015777
39.208,234,39,208000000,,-0.0015414341037409312,-0.00038053738273708944,0.0128301858747112
39.219,235,39,218000000,,0.00035420660826449994,-0.00026210703717471657,0.01802172451412432
39.229,236,39,229000000,,0.0012410341063810928,-0.000816199526687254,0.022444821196903702
39.239,237,39,238000000,,0.0007089309229562234,-0.001588104263374747,0.023953393775070365
39.249,238,39,248000000,,-0.0011938253072651187,-0.001732933256421119,0.019515543422024988
39.259,239,39,258000000,,-0.0022426461597131425,-0.0009177971736407828,0.013729231784562559
39.269,240,39,268000000,,-0.001783965833528333,-0.00022008908131039963,0.012018165611151897
39.279,241,39,278000000,,-0.00017275891009609705,-0.0002249381553595573,0.015534633031268164
39.288,242,39,288000000,,0.0011827931741395755,-0.0009907526621527225,0.02195942973785745
39.299,243,39,298000000,,0.0009686138603537902,-0.0017781749881143256,0.02539011676285483
39.309,244,39,308000000,,-0.0006631734701494924,-0.0017812264822758832,0.022414633720135732
39.319,245,39,318000000,,-0.0021231342806263746,-0.0008130430907598248,0.015626090447373366
39.329,246,39,328000000,,-0.0018945067540599792,0.0002308856765364418,0.010704335966097447
39.339,247,39,338000000,,-0.0005263973774971964,1.4695734468011482e-06,0.01362082550445863
39.349,248,39,348000000,,0.0009405368241241951,-0.0011140476430589576,0.020824572865992166
39.358,249,39,358000000,,0.0010091831761628528,-0.0020534478038150825,0.02546629699733407
39.369,250,39,368000000,,-0.0006256024310221304,-0.001830600019911904,0.023352698024390293
39.378,251,39,378000000,,-0.0018326215632994865,-0.000664033065791977,0.017527755722533515
39.389,252,39,388000000,,-0.0018192166480970927,0.0005963627745136538,0.011296123689270505
39.399,253,39,399000000,,-0.0006615618097976781,0.0002975411627144718,0.012828197801926941
39.409,254,39,409000000,,0.0007090855016626757,-0.0011341849213989488,0.01950882267075707
39.419,255,39,419000000,,0.0008848908761338151,-0.0023205567142087855,0.025030454384589354
39.429,256,39,428000000,,-0.0005197591253725489,-0.00200035092483242,0.02432811105178554
39.439,257,39,438000000,,-0.0017164454762391322,-0.0003890118203581413,0.018196961357200305
39.449,258,39,448000000,,-0.0016163907835709335,0.0008816258599445657,0.01277288853653346
39.459,259,39,458000000,,-0.0004770395443112034,0.00045252532716843715,0.013192422816445046
39.469,260,39,468000000,,0.00046180675064290584,-0.0010456462539807727,0.018353478867679882
39.479,261,39,478000000,,0.0005390643286122239,-0.0025789397795245765,0.0245500109290466
39.489,262,39,488000000,,-0.0004006442503336015,-0.0022453734122129935,0.02451249415550566
39.499,263,39,498000000,,-0.0015881624048988518,-0.00023824043573535255,0.019117322673864203
39.509,264,39,509000000,,-0.0015594536842210129,0.0012240663622083135,0.014467490068132059
39.519,265,39,518000000,,-0.00033758619603267194,0.0008312664692943954,0.013236704107185105
39.529,266,39,528000000,,0.000396778648687628,-0.0009174226833429245,0.01744114126911063
39.539,267,39,538000000,,0.0003125313228121235,-0.0026322779222302814,0.02282121303054537
39.549,268,39,548000000,,-0.0007353058942755153,-0.002286775066501175,0.02392404106113128
39.559,269,39,558000000,,-0.0013663303147302239,-0.0004611456812595682,0.02066123588422352
39.569,270,39,568000000,,-0.0010739362609696263,0.0015149283383490706,0.01529587204939051
39.579,271,39,578000000,,-0.00014309546724286477,0.0010277906662948468,0.014931883569010374
39.589,272,39,588000000,,0.0003151985281055618,-0.0008501813830756031,0.01769434177838891
39.599,273,39,598000000,,-1.7177822992922782e-05,-0.0026803532925820145,0.021584836237370172
39.609,274,39,608000000,,-0.000895615416408551,-0.002433648252603825,0.02278394331865143
39.618,275,39,618000000,,-0.0013553822661013194,-0.0002988716580948393,0.020410335866493694
39.629,276,39,629000000,,-0.0008246699642580543,0.0016198624635783603,0.017369289835393185
39.639,277,39,638000000,,0.00011391440545166368,0.0013708179417021697,0.016371876923521374
39.649,278,39,648000000,,0.000363248939211351,-0.0011118681885349624,0.018289779089507536
39.659,279,39,658000000,,-0.00033417966477641354,-0.002599350464593561,0.020472005816361983
39.669,280,39,668000000,,-0.0012348718456315503,-0.0022306092256675347,0.02114789592910609
39.679,281,39,678000000,,-0.0013577853304751783,-8.347862521457966e-05,0.019956654691092115
39.689,282,39,688000000,,-0.00031143689068449345,0.0018302985837214954,0.018279230209207093
39.699,283,39,698000000,,0.0005026545981537397,0.0011192379873859563,0.01834472351782799
39.708,284,39,708000000,,0.00030200073221953963,-0.0008523665248066944,0.018971338467639008
39.719,285,39,718000000,,-0.000729065372208348,-0.0025344883735375495,0.019577049881075444
39.729,286,39,728000000,,-0.0015420507019387876,-0.002009645930314375,0.019349590759017293
39.738,287,39,738000000,,-0.0012056571856133458,0.00016771168871441153,0.019079317236500287
39.749,288,39,748000000,,9.286348406041815e-06,0.0017740016594322314,0.019693025780375382
39.759,289,39,758000000,,0.0008235152723410731,0.0011856808036083822,0.02034545378611297
39.769,290,39,768000000,,0.00017609101349519776,-0.0012287531567478117,0.01979153985700564
39.779,291,39,778000000,,-0.0010532365026023633,-0.0022834821505111442,0.018422230442009375
39.788,292,39,788000000,,-0.0017787244201571742,-0.0014896456886717424,0.017348736502423995
39.799,293,39,798000000,,-0.0008848227634781919,0.0007157044853615554,0.018666703583082523
39.808,294,39,808000000,,0.0004255021260148219,0.001613322142980819,0.020869457376116507
39.819,295,39,818000000,,0.0010597211227132656,0.0007966660880063202,0.02227589074598519
39.828,296,39,828000000,,-4.338096495295758e-05,-0.001311613385322018,0.020339235538676195
39.838,297,39,838000000,,-0.0014148429843642534,-0.0019385544033962625,0.01733010665748497
39.849,298,39,848000000,,-0.001898184902967967,-0.0009037680683411438,0.015538657821971093
39.859,299,39,858000000,,-0.0007362333794776366,0.0008288837922936054,0.018097046217818654
39.869,300,39,868000000,,0.0008940506979899314,0.0015263357685831565,0.022234252896172466
39.879,301,39,878000000,,0.0011794163769201543,0.0002848980806692597,0.02396940446752467
39.889,302,39,888000000,,-0.00011918905317403003,-0.001112986837069293,0.021056082226644703
39.898,303,39,898000000,,-0.0017704755045658109,-0.0014949403944452058,0.015847446604549918
39.909,304,39,908000000,,-0.001905984827090979,-0.0003048737397728276,0.013894183803085087
39.919,305,39,918000000,,-0.00034933501107694507,0.0010789611949609118,0.01801920263438495
39.928,306,39,928000000,,0.0012741152193847282,0.0012318980926186362,0.0237585591713914
39.939,307,39,938000000,,0.0012308913420962526,3.3928894299147124e-05,0.025194301615947254
39.948,308,39,948000000,,-0.0006984946793907426,-0.0012376675490125924,0.02007555878451251
39.959,309,39,958000000,,-0.0019434169180074278,-0.0008663967833638065,0.014847756514285531
39.969,310,39,968000000,,-0.0014944035038193127,0.0005464339927893795,0.013275267637503314
39.978,311,39,978000000,,0.00032407629251733925,0.0011562041103822486,0.01918376434815753
39.988,312,39,988000000,,0.0014408898462441508,0.0007000941579549312,0.024672673802671234
39.998,313,39,998000000,,0.0009341586072859776,-0.00039804369436058514,0.0257268680824857
40.008,314,40,8000000,,-0.001112737962543323,-0.0009042919396128988,0.019022621403168752
40.019,315,40,18000000,,-0.0019956481605512104,-0.00010679006353973798,0.01346525927031406
40.028,316,40,28000000,,-0.001018405851742333,0.0010613608526515452,0.013033596403624993
40.038,317,40,38000000,,0.0007992121970779074,0.0010200333111936625,0.02046003941319246
40.048,318,40,48000000,,0.0015199851785396572,0.0002274259646727789,0.02581763889510977
40.058,319,40,58000000,,0.0005455969779463513,-0.0006249206230901428,0.02555735393371472
40.069,320,40,68000000,,-0.0014390337656386737,-0.000369298142037632,0.017516249231816345
40.079,321,40,78000000,,-0.0018369801892011276,0.0006722922025272183,0.012389890785626058
40.089,322,40,88000000,,-0.000604840727960941,0.0013544253218428638,0.013411583101510804
40.098,323,40,98000000,,0.0012543127061192478,0.0007295551973942148,0.022169627945777898
40.108,324,40,108000000,,0.0014471142512914718,-0.00020491089083451183,0.02669656128026769
40.119,325,40,118000000,,-0.00013678551695192707,-0.0006022397671709877,0.023930803202925413
40.129,326,40,129000000,,-0.0015213426054022678,0.00037237698901583223,0.01610838497725793
40.139,327,40,138000000,,-0.0012898283204360022,0.0014528714324696934,0.01167112058190476
40.149,328,40,148000000,,2.8699864105484084e-05,0.001397456979501297,0.014944884389123567
40.158,329,40,158000000,,0.0014220628529307067,0.00021825527113856482,0.023888812858044242
40.169,330,40,168000000,,0.0010921925690557967,-0.0005329166754673679,0.026774627382652082
40.179,331,40,178000000,,-0.0004287535971077147,-0.0002632476889789704,0.023008992446391888
40.189,332,40,188000000,,-0.0014534970261145725,0.0010377468569112802,0.015288470079906519
40.198,333,40,198000000,,-0.0008627025447256219,0.0019175306848512668,0.011849937714983647
40.208,334,40,208000000,,0.0007727141594418436,0.001156345168981688,0.01746744999588502
40.218,335,40,218000000,,0.0013273792016605334,-5.7993373533021786e-05,0.02351429131066907
40.229,336,40,228000000,,0.0004262057366820137,-0.0005866313590997168,0.025652232161812758
40.239,337,40,238000000,,-0.0008281034122699609,0.0005055398729825295,0.02010970794665261
40.248,338,40,248000000,,-0.001023398123517528,0.0017707649512989398,0.014692463586824828
40.259,339,40,258000000,,-7.944223210430208e-05,0.002041513404948973,0.01348570739410631
40.269,340,40,268000000,,0.0011204868868401373,0.000663253512298675,0.019664865195610733
40.278,341,40,278000000,,0.000996286938897157,-0.00047442025388845895,0.024492516534048672
40.289,342,40,288000000,,5.016135376333152e-05,-0.00022316818781583508,0.023969186914559175
40.299,343,40,298000000,,-0.0008177344128768879,0.0012057448029860192,0.018837293666141345
40.308,344,40,308000000,,-0.00043362202102581736,0.0023979497227797067,0.013954195771345686
40.319,345,40,318000000,,0.0005275038570731615,0.0018696376281627407,0.01560817214391359
40.329,346,40,328000000,,0.001138436945520552,0.00032312475039385945,0.02039446517572194
40.338,347,40,338000000,,0.0006548408783141445,-0.0004834976675439456,0.023641645621115103
40.348,348,40,348000000,,-0.000314982467889269,0.00037177075418127163,0.02193865153965382
40.358,349,40,358000000,,-0.0005474792542578543,0.0021142890040314584,0.017218978521357748
40.369,350,40,368000000,,0.0001812313441243589,0.002489078960294413,0.015940989318497252
40.379,351,40,378000000,,0.0010089593942204686,0.001385373616822487,0.017625296896024437
40.388,352,40,388000000,,0.0009673077040513406,-1.771697676412014e-05,0.021126381663444764
40.399,353,40,398000000,,7.305656896675452e-05,-3.35913795866654e-05,0.021880837796125496
40.409,354,40,408000000,,-0.0003625855318440598,0.0014017029080960104,0.019679273235415056
40.419,355,40,418000000,,4.114222877882128e-05,0.0024606744211362,0.01779446959936667
40.428,356,40,428000000,,0.0008418449396129499,0.002251967968020502,0.017643066953800482
40.439,357,40,438000000,,0.0011161901657321207,0.0008790501800960372,0.018942760632875127
40.448,358,40,448000000,,0.0005636829746956722,-9.971549723614668e-06,0.02016911816799798
40.458,359,40,458000000,,-0.00017694692826416723,0.0007675833550150021,0.019848553544451503
40.469,360,40,468000000,,-5.363162887559662e-05,0.0020310015444312286,0.019090873740224917
40.479,361,40,478000000,,0.0007450745618279423,0.002734253077331041,0.018882717137408137
40.489,362,40,488000000,,0.0012204643028633395,0.0015035660906156417,0.01915251797811203
40.499,363,40,498000000,,0.0007973715035417205,0.0005381367085388346,0.01892110668516282
40.509,364,40,508000000,,0.00010616839202642306,0.0006114713307189851,0.01836174085407709
40.519,365,40,518000000,,-5.4383468219094434e-05,0.0015632675614521481,0.018457322456059598
40.528,366,40,528000000,,0.0005934106051867001,0.002607742698993485,0.019791992469530395
40.539,367,40,538000000,,0.0012344825601199507,0.002285130817354041,0.020518991534736464
40.549,368,40,548000000,,0.0011503169755232555,0.001212318015046368,0.01945227691711789
40.559,369,40,558000000,,0.0005653924644464111,0.0007843111449031925,0.017476919439563032
40.569,370,40,569000000,,9.57808558635241e-05,0.0011290879032700117,0.016652246477105944
40.578,371,40,578000000,,0.00038820202838553495,0.002359557836595298,0.018751630431557188
40.588,372,40,588000000,,0.0011347134456662898,0.0025768543525980406,0.021428893894019842
40.598,373,40,598000000,,0.0013969370992114227,0.0018422913994137363,0.021336421704514913
40.609,374,40,608000000,,0.0009084393701646592,0.001142101841483481,0.018076313620164364
40.619,375,40,618000000,,0.0003203901539856251,0.001338910064150606,0.015093205997800249
40.629,376,40,628000000,,0.00033877897765108853,0.0020493295476658223,0.01610239250351618
40.639,377,40,638000000,,0.0009361185343872569,0.0025879916730441083,0.02030534411573221
40.648,378,40,648000000,,0.0015099198115091647,0.0022643988242377084,0.023284124370218963
40.659,379,40,658000000,,0.001299293190558293,0.0015986361488125322,0.020655772365402288
40.669,380,40,668000000,,0.0007709766815728761,0.0014898254985581771,0.016187548687531594
40.679,381,40,678000000,,0.00044856121856311,0.001999042918561976,0.013316979111953259
40.688,382,40,688000000,,0.0008338696705842059,0.0025858339821471952,0.017683631867043633
40.698,383,40,698000000,,0.001368690261071604,0.00251736500764939,0.022430059773007226
40.709,384,40,708000000,,0.0015518694670232612,0.0020161657141114057,0.023635493472799356
40.719,385,40,718000000,,0.0011192160474915048,0.0017141538959348362,0.017921129693010625
40.729,386,40,728000000,,0.0007814212658500632,0.0020705398092539427,0.01327227805500987
40.739,387,40,738000000,,0.0008497147127224128,0.0026327054160696557,0.013893089114899223
40.749,388,40,749000000,,0.0012565371797114725,0.002662400586230351,0.019813258099832524
40.759,389,40,758000000,,0.0015862859568169215,0.002227053154226129,0.02493670316385533
40.769,390,40,768000000,,0.0014089092991250397,0.0019799187027591237,0.02145803835411237
40.778,391,40,778000000,,0.0011144377318727929,0.0022527885551178674,0.01431801932250069
40.789,392,40,788000000,,0.0010805933930811136,0.0027292688786760507,0.011580047260570187
40.798,393,40,798000000,,0.001282491011471969,0.0028335173426547334,0.016064997195773995
40.809,394,40,808000000,,0.001522387937673043,0.002512571503299982,0.023399305313997247
40.819,395,40,818000000,,0.0015487046407104874,0.0021941451671093804,0.024782293932109227
40.829,396,40,828000000,,0.0014164420129959298,0.002347720675696301,0.017673275586492215
40.839,397,40,838000000,,0.0014136189574873756,0.0028237229350272447,0.011484072367069567
40.849,398,40,848000000,,0.0014842803428030513,0.003025186526147678,0.012439165790212406
40.859,399,40,858000000,,0.0015302231816979705,0.002790415382490937,0.02012688257000457
40.868,400,40,868000000,,0.0015128193558050455,0.002393121762584106,0.02546467295173098
40.879,401,40,878000000,,0.0015508983774870397,0.0024657610667360857,0.022160136678114672
40.889,402,40,888000000,,0.0017171274359453555,0.0028644321051163727,0.013941504436776457
40.899,403,40,898000000,,0.0018427246489236527,0.0031961488889421974,0.010156499166823546
40.909,404,40,908000000,,0.0016994596959602486,0.0030349679262352196,0.016452634609219047
40.919,405,40,918000000,,0.0014843841830214255,0.002695125115012994,0.02356674130919761
40.929,406,40,928000000,,0.001514476145429123,0.002667512278477096,0.02391744036852282
40.939,407,40,938000000,,0.0019201071868177656,0.0029841195345271564,0.016452145601046762
40.949,408,40,948000000,,0.0022407278490355286,0.003240350020943794,0.011087518964688107
40.959,409,40,958000000,,0.002080226623302139,0.0032380523471588745,0.01285695879002777
40.968,410,40,968000000,,0.0015892733316475473,0.0030094993320517295,0.020591106125903844
40.979,411,40,978000000,,0.0014166813178568141,0.002937195517875436,0.023954296260064914
40.989,412,40,988000000,,0.0019017971324549617,0.003130357111156659,0.019931320967752655
40.999,413,40,998000000,,0.0025558914314048778,0.0033040278358750694,0.012768858787287521
41.009,414,41,8000000,,0.0026274166153375496,0.0033297374238678273,0.011035292847018792
41.019,415,41,18000000,,0.001994365693215476,0.0032674638854111246,0.01631428353326984
41.028,416,41,28000000,,0.0013382176012885234,0.003240271025168424,0.023370640884518443
41.039,417,41,38000000,,0.001629430853033792,0.0033868127090357536,0.022575555110266154
41.049,418,41,48000000,,0.0025851339235568554,0.0034602275575891994,0.016317970361540392
41.059,419,41,58000000,,0.0031434629573899708,0.003350210535738237,0.010987491859902077
41.068,420,41,68000000,,0.0024849335677295478,0.0033459181861573437,0.01378818937137908
41.078,421,41,78000000,,0.0016197333548361233,0.0035524122645993507,0.019497062768161037
41.089,422,41,88000000,,0.0014378656770587133,0.0037742161738771006,0.022526718735288234
41.099,423,41,98000000,,0.002409760108182875,0.00373582828902075,0.018804095192535286
41.109,424,41,109000000,,0.0034921487667692232,0.0033463644106220634,0.012473470020753313
41.119,425,41,118000000,,0.003130780109367971,0.0032743009403871396,0.01263339169176388
41.128,426,41,128000000,,0.0020653392877418176,0.0036845672911325136,0.016786432751518914
41.138,427,41,138000000,,0.001359677243703675,0.004232207634571397,0.021543944644429668
41.149,428,41,148000000,,0.0021182036755564284,0.004215224835941808,0.01996670973886789
41.159,429,41,158000000,,0.0036155323234063324,0.0035040863020067057,0.014570963691822838
41.169,430,41,168000000,,0.00372505616698722,0.0030799813656738565,0.012512444752105036
41.178,431,41,178000000,,0.002689793925367806,0.003573650825223126,0.014986180764614164
41.188,432,41,188000000,,0.00146190131376546,0.004611439506571755,0.01964505553592026
41.199,433,41,198000000,,0.0018623390075760745,0.004849430538390968,0.01988543169329996
41.208,434,41,208000000,,0.0035219946514989868,0.003914441820784037,0.016226549682246884
41.219,435,41,218000000,,0.004170081591087364,0.0030196757507769973,0.013757534616644154
41.229,436,41,228000000,,0.003205188115541828,0.003289196360725998,0.01416073755216283
41.239,437,41,238000000,,0.0018773054905169059,0.004713306920550822,0.017310807119435924
41.249,438,41,248000000,,0.0018077310593353864,0.005475552004672396,0.018746735256682356
41.259,439,41,258000000,,0.0032854450257746286,0.004601553701609954,0.017055554556738572
41.269,440,41,268000000,,0.0042775404039628664,0.003000714277955683,0.014864953266445817
41.278,441,41,278000000,,0.003882551019913913,0.0030596873339557794,0.014216562383766285
41.289,442,41,288000000,,0.0025985004803443495,0.00427602397719556,0.015789089922611306
41.299,443,41,298000000,,0.0018476445635369103,0.005925868349411029,0.01725122771650195
41.309,444,41,308000000,,0.0029579492835353207,0.005569307868594652,0.016957880281775896
41.319,445,41,318000000,,0.00427133983182014,0.003757347043334488,0.01574501295883963
41.328,446,41,328000000,,0.004478970645879213,0.002417533831647174,0.01481462981147785
41.339,447,41,338000000,,0.003016139295866528,0.0038755918833310176,0.01544210644737705
41.348,448,41,348000000,,0.002135110861450147,0.006236892179566388,0.016028074321908156
41.359,449,41,358000000,,0.002900675464779879,0.006519300194790358,0.01588991476316609
41.369,450,41,368000000,,0.004339488912344179,0.004304881600222195,0.015516925602957456
41.378,451,41,378000000,,0.004646113470222597,0.0022872298028279634,0.015553975453507389
41.389,452,41,388000000,,0.003522266631771924,0.003179833371391651,0.015696906500427352
41.399,453,41,398000000,,0.002598527952870797,0.005793126272745471,0.0153307255068234
41.409,454,41,408000000,,0.002804448089606133,0.0075004830734179215,0.014787995416836348
41.419,455,41,419000000,,0.004144524509031318,0.005868999234377523,0.014734306562207655
41.429,456,41,428000000,,0.004975048330766609,0.0027458291796998834,0.01554770431460045
41.438,457,41,438000000,,0.004080859308389502,0.00220862060660033,0.016343766628356255
41.448,458,41,448000000,,0.0029132582274712495,0.005334150351696656,0.015339402445397516
41.459,459,41,458000000,,0.003041672277699451,0.007666777068825457,0.013708137687984175
41.469,460,41,468000000,,0.004239184499306799,0.007449212284651237,0.013413271442502893
41.479,461,41,478000000,,0.0051233960055615205,0.0031816663330347696,0.015316759052400273
41.489,462,41,489000000,,0.004335359563572472,0.0016930474038107913,0.01676942488562946
41.499,463,41,499000000,,0.0032972836558544673,0.004021986793218,0.016047889062165397
41.509,464,41,508000000,,0.0032030220386543374,0.007888809781315469,0.013625233248946211
41.519,465,41,518000000,,0.004332325596423001,0.008492648756623675,0.01201637597195429
41.529,466,41,528000000,,0.005323177245208371,0.0045253538540666015,0.013930687926064014
41.538,467,41,538000000,,0.0047209772664041335,0.0017880934405760545,0.016357784961691182
41.549,468,41,548000000,,0.0034066855982429053,0.0032733498472073464,0.016921985090991135
41.559,469,41,558000000,,0.0034654883405494568,0.007139619891232359,0.01402825631628626
41.569,470,41,568000000,,0.004662040092266717,0.009284663958506011,0.01115687529074252
41.579,471,41,578000000,,0.005630231779438954,0.006063579894521979,0.012195944756522211
41.589,472,41,588000000,,0.0049845643975592,0.0023938072744970995,0.015569900998800281
41.599,473,41,598000000,,0.003632134861952297,0.0019823805601225358,0.01739895618695246
41.609,474,41,609000000,,0.0034446422302736425,0.006645016681434501,0.014717585246326322
41.619,475,41,618000000,,0.0050556835639591945,0.009705050459408846,0.010758921188433641
41.629,476,41,628000000,,0.006086510552022456,0.007981342433592874,0.010440648146624485
41.638,477,41,638000000,,0.005466666503467051,0.0032890850864800572,0.01427858144380549
41.649,478,41,649000000,,0.0037651360157446886,0.0012980332076319235,0.01750522665348414
41.659,479,41,658000000,,0.0032778716296467322,0.004827553174565135,0.016327699246193806
41.669,480,41,668000000,,0.004907000413569345,0.00958574090068165,0.011438100254709479
41.679,481,41,678000000,,0.0067352745506347915,0.009294781473732633,0.008896240854292059
41.689,482,41,688000000,,0.005963470877710576,0.004425471301864936,0.01257974421119654
41.699,483,41,698000000,,0.003759106567182659,0.0014978375922492914,0.0168837025308509
41.709,484,41,708000000,,0.0030815544318592166,0.003784918141005963,0.016878765852962233
41.719,485,41,718000000,,0.004876200473447775,0.008935378644863483,0.012400744587200106
41.728,486,41,728000000,,0.007264532708860296,0.010557647855799556,0.008330823288620915
41.739,487,41,738000000,,0.007144602025142561,0.006592750480154315,0.00984447981558351
41.749,488,41,748000000,,0.0045481929514082295,0.0018928040248019774,0.015186188817551374
41.759,489,41,758000000,,0.0026730708312577424,0.002780794719723027,0.017459082513224044
41.769,490,41,768000000,,0.004631073209884283,0.008174498080038811,0.013405959550882925
41.779,491,41,778000000,,0.007542696387255996,0.010713135553350054,0.008934437313921725
41.789,492,41,788000000,,0.008174875545037727,0.008092528566152574,0.008203498037599368
41.799,493,41,798000000,,0.005322449313302399,0.0029869834630965302,0.013074255430735381
41.809,494,41,808000000,,0.0023914617807951205,0.002023970741635741,0.01749458594440655
41.819,495,41,818000000,,0.0038809689139065423,0.00697416244203734,0.014677023498374471
41.828,496,41,828000000,,0.007854946315185388,0.010872584639263418,0.009126349300540286
41.838,497,41,838000000,,0.009161356278829073,0.008962703630552517,0.007261279049052532
41.849,498,41,848000000,,0.006028605001895501,0.003947739487979987,0.01155556855982049
41.858,499,41,858000000,,0.0026371777391087535,0.00208393266781809,0.01574783305217011
41.869,500,41,868000000,,0.002691248412439139,0.005360721181832005,0.016077846705715222
41.879,501,41,878000000,,0.007461569785267013,0.010792027056477992,0.010235950306115595
41.889,502,41,888000000,,0.010205499216102407,0.010571041517798216,0.006732631421032037
41.899,503,41,899000000,,0.008205884321820433,0.005902192304000158,0.008703731923860595
41.908,504,41,908000000,,0.002871659333918585,0.0018979679738965437,0.01490507893391086
41.919,505,41,918000000,,0.0017765483676718346,0.00410862344853645,0.016090079549777234
41.929,506,41,928000000,,0.005882615332620592,0.009541398114379826,0.012330252711767093
41.939,507,41,938000000,,0.011001682035873232,0.011318074482012629,0.006496562483353362
41.949,508,41,948000000,,0.009618724456730473,0.007047671380935045,0.007265585513593152
41.958,509,41,958000000,,0.004016650574419627,0.0029119946149858316,0.012656854469389935
41.969,510,41,968000000,,0.0012968302198449295,0.004019203016546404,0.01576135312774147
41.979,511,41,978000000,,0.004591242931787293,0.008397329949397002,0.013490656269423376
41.989,512,41,988000000,,0.01113061781378993,0.011485459429641643,0.007405336908465522
41.999,513,41,998000000,,0.011452053367118511,0.008302107390067594,0.006002781192033228
42.009,514,42,8000000,,0.006385822911505165,0.004260150980056676,0.009810718393080325
42.019,515,42,18000000,,0.00111581619801083,0.003192573923528756,0.014768001431613966
42.028,516,42,28000000,,0.003233016327594277,0.007809679348756484,0.014324886851232566
42.038,517,42,38000000,,0.010209853510839136,0.01123227353118903,0.009068961148804615
42.049,518,42,48000000,,0.012974070572452432,0.009678168388462943,0.005803814667935765
42.058,519,42,58000000,,0.008648350733419193,0.005263002343003465,0.00771960116479459
42.069,520,42,68000000,,0.0017893958297038495,0.0032044725510358522,0.013010699660346745
42.078,521,42,78000000,,0.0014630713159947254,0.0068133426116858305,0.014826489681509557
42.088,522,42,88000000,,0.00787166383547806,0.010602587194781112,0.011091962573296024
42.099,523,42,98000000,,0.013871012250745456,0.010645734135122532,0.006036512332992761
42.109,524,42,108000000,,0.011458178008481673,0.006624443316743937,0.005984854652655372
42.118,525,42,118000000,,0.002753311879400798,0.0035012714532024272,0.011436706587279325
42.129,526,42,128000000,,0.00019962973700703602,0.005723954815654183,0.013967807519362996
42.139,527,42,138000000,,0.005878227636830249,0.0102566618119549,0.012198262586227655
42.149,528,42,149000000,,0.013779092327816897,0.01125553988985176,0.007104867774507833
42.158,529,42,158000000,,0.013477665952208943,0.007161136324327428,0.004993166254877253
42.169,530,42,168000000,,0.006103421875219557,0.00445445735738717,0.008466178111972313
42.179,531,42,178000000,,-0.00017737597681567762,0.005333883477369095,0.013039652832229996
42.189,532,42,188000000,,0.00325857759219014,0.009455091332495365,0.013093629612718403
42.198,533,42,198000000,,0.012445211030366575,0.011473296432987518,0.00851288193370473
42.209,534,42,208000000,,0.015902190926996383,0.008627826646668195,0.004827998070932055
42.218,535,42,218000000,,0.009183415730170945,0.004912318203501517,0.00654992893843451
42.229,536,42,228000000,,-3.767977548378091e-05,0.005157493696311998,0.011893926887932657
42.239,537,42,238000000,,0.0010621207175767204,0.008874540773949852,0.012887293104385064
42.249,538,42,248000000,,0.011398595130266606,0.011719902077797842,0.009334840257342682
42.258,539,42,258000000,,0.016786269602963075,0.008784364247752457,0.00526290605395776
42.269,540,42,268000000,,0.012207225997374713,0.005456571233399979,0.005392635454191472
42.279,541,42,278000000,,0.0023171827670489843,0.005039538289592962,0.00933801969219662
42.289,542,42,288000000,,-0.0007740169734019792,0.008461622081331558,0.012629010852214179
42.299,543,42,298000000,,0.008356396749869092,0.011893482966437802,0.010707326619128023
42.309,544,42,308000000,,0.016369520167487692,0.010032711517628714,0.006685653412880478
42.318,545,42,318000000,,0.015522421398252906,0.005920257614273094,0.0044145510997854655
42.329,546,42,328000000,,0.004101200547168166,0.003997789818555258,0.0077295737103773385
42.338,547,42,338000000,,-0.0008957376625268218,0.009795589030512225,0.011441099052457318
42.349,548,42,348000000,,0.005464759616506059,0.011856112388968009,0.011212868683730056
42.359,549,42,358000000,,0.015935497349984135,0.01017362638769517,0.007351133480136228
42.369,550,42,368000000,,0.017269374686574503,0.005869381930593881,0.004359648747331446
42.379,551,42,378000000,,0.00910094353540824,0.004739847675686951,0.005499122397206202
42.389,552,42,388000000,,-0.0005033128543498295,0.007646998069544307,0.009563091378470825
42.399,553,42,398000000,,0.0008873628023296012,0.011770565685896975,0.011686208133999326
42.409,554,42,408000000,,0.013388577033108771,0.01192766595466156,0.008793871678420648
42.419,555,42,418000000,,0.019132051077805527,0.007555885127483779,0.005283231256517421
42.428,556,42,428000000,,0.01234637325739212,0.00413052727117294,0.004326753057115844
42.439,557,42,438000000,,0.0012765560071752778,0.0071720341404117845,0.007914777444840957
42.449,558,42,448000000,,-0.0006334681751593383,0.011639841054746348,0.010592180137507668
42.459,559,42,458000000,,0.009984635739405478,0.01294351485505359,0.009773910702679392
42.468,560,42,468000000,,0.018718767563400077,0.008652600610993856,0.006257152868045428
42.479,561,42,479000000,,0.01732718226256906,0.004093512694057657,0.0036772915082435662
42.489,562,42,488000000,,0.00446284540950129,0.005715905454987284,0.005866444832243993
42.498,563,42,498000000,,-0.0015125471063453212,0.010905982918046054,0.009140528672450389
42.509,564,42,508000000,,0.004454084357373007,0.014061601216920107,0.010480265116708715
42.519,565,42,518000000,,0.016857900800818823,0.010726681921507993,0.007526389256759299
42.528,566,42,528000000,,0.020576596639208845,0.004718834952858613,0.003854748581706688
42.538,567,42,538000000,,0.010838053637468086,0.003911401409106353,0.0038202905264959584
42.549,568,42,548000000,,-0.0005862025084007719,0.009349445085363062,0.007471513746526693
42.559,569,42,558000000,,0.0011635319146889875,0.014659243322879163,0.01035992890709966
42.569,570,42,568000000,,0.01397620000837034,0.012201886538209137,0.00841342080101969
42.579,571,42,578000000,,0.02104971820294169,0.005288326442366129,0.004622726521433571
42.589,572,42,588000000,,0.015213372687257122,0.00302789253553558,0.0031264604372719176
42.599,573,42,598000000,,0.001313989122323828,0.008483721031546683,0.005904035992549173
42.609,574,42,608000000,,-0.0009652841956338568,0.01489848689137254,0.009228273662218067
42.619,575,42,618000000,,0.008474343859023624,0.014807573352577593,0.009337148475454776
42.629,576,42,629000000,,0.020507392295875976,0.008054349231682181,0.0060829148175102045
42.639,577,42,638000000,,0.019303675560662627,0.00196223528792646,0.0026203828151113526
42.649,578,42,648000000,,0.006350381616651358,0.005802521235020026,0.003860510445725952
42.659,579,42,659000000,,-0.0008255635756715713,0.014330311351175407,0.007188620923087416
42.669,580,42,668000000,,0.004071719531994011,0.015065754149870733,0.009733969277174268
42.679,581,42,678000000,,0.016462332358577643,0.011269696760329118,0.007636981121188846
42.689,582,42,688000000,,0.022143211410690297,0.0027870663038064092,0.0032760242082357643
42.699,583,42,698000000,,0.01194140516025895,0.0033060229535100995,0.002497516646133289
42.709,584,42,708000000,,9.766950160328461e-05,0.01171808457259428,0.0055658912585782256
42.719,585,42,718000000,,0.001100722789268242,0.017547799889990404,0.008763512734796863
42.729,586,42,728000000,,0.01377679394557857,0.013652473305713281,0.008283659270096968
42.739,587,42,738000000,,0.022652947353096323,0.004117050337457187,0.004603906853412515
42.749,588,42,748000000,,0.018131270569045836,0.0007353764684940138,0.0020762530277156563
42.759,589,42,758000000,,0.004707878099566947,0.007199473913466102,0.0030821882965799737
42.769,590,42,768000000,,-0.002227748431995781,0.01735797493672423,0.007430567531505547
42.779,591,42,778000000,,0.006231754533843983,0.01798738083570453,0.008778998062254871
42.789,592,42,788000000,,0.020406244046808332,0.009330116215841143,0.006582849946017235
42.799,593,42,798000000,,0.02270343915152177,-6.7783233210199495e-06,0.002157979012236676
42.809,594,42,808000000,,0.011589047002057314,0.0028298115785784115,0.0015491686222904241
42.819,595,42,818000000,,-0.0008098723289919544,0.013563854425952811,0.004678495643978837
42.829,596,42,828000000,,0.001922810960287165,0.01992071283676953,0.00865610688364333
42.838,597,42,838000000,,0.016296582996659887,0.013130952797850329,0.007701452576234299
42.848,598,42,848000000,,0.02383446016650109,0.001902202793719031,0.0037011911926362
42.859,599,42,858000000,,0.017253059418187368,-0.00014664390890572337,0.0011028622150386982
42.869,600,42,868000000,,0.003262825528457718,0.009192663940061128,0.0023453544008638413
42.879,601,42,878000000,,-0.0018252530407338722,0.0196409976110771,0.006574585510692137
42.889,602,42,888000000,,0.010217810902814291,0.01838263975387064,0.008653088692542424
42.899,603,42,898000000,,0.021969201095650637,0.007576771929214146,0.005965823153153983
42.909,604,42,908000000,,0.02286998784764386,-0.001599913266912601,0.0015637502677451568
42.919,605,42,918000000,,0.008436059533997092,0.00425171358515253,0.0006225633939812326
42.929,606,42,928000000,,-0.0012278737299332744,0.01731866118042545,0.0044464465058242295
42.939,607,42,938000000,,0.004480178697891691,0.021538747752022403,0.007935208350454224
42.949,608,42,948000000,,0.017259384847343875,0.013339323872588842,0.007320459598869399
42.959,609,42,958000000,,0.02533274050384679,-0.0006351757933814248,0.0026657423632225627
42.968,610,42,968000000,,0.017245911652406812,-0.0014801977828866886,2.408475448802301e-05
42.978,611,42,978000000,,0.0012641745784633992,0.011903111143549448,0.0018401866559610413
42.989,612,42,988000000,,-0.0008893693733180875,0.02194273977959524,0.0057952867721042505
42.998,613,42,998000000,,0.012266519455805487,0.01907313850011795,0.00828384572207313
43.008,614,43,8000000,,0.02344140370522823,0.006278309631413829,0.00549809937905441
43.018,615,43,18000000,,0.02322402409016575,-0.0035325503437573964,0.0007344703241971111
43.029,616,43,28000000,,0.00811226936771491,0.004183348603119281,-0.0005391121380899106
43.038,617,43,38000000,,-0.0011709644800547638,0.01923430696819388,0.0035554574743250087
43.049,618,43,48000000,,0.003936250326271813,0.023771938534868323,0.007145604445836187
43.059,619,43,58000000,,0.018704030562193264,0.013960117318854035,0.007318035087440477
43.069,620,43,68000000,,0.026605047614960537,-0.0009518455616919375,0.0028557397122401466
43.079,621,43,78000000,,0.01657771705147602,-0.0028252683438378615,-0.0014052326345447615
43.089,622,43,88000000,,0.0035869895280727006,0.01020863217900031,0.00011182818817768655
43.099,623,43,98000000,,-0.0009836340129463152,0.02387218906128746,0.005155873737221403
43.108,624,43,108000000,,0.011923187416855089,0.02102762508761283,0.008301175749716127
43.119,625,43,118000000,,0.02387848107199077,0.006697488060070547,0.005546849916879808
43.128,626,43,128000000,,0.024411791203382462,-0.005017269528228273,0.00016229097336135576
43.138,627,43,138000000,,0.011049508097507302,0.001245070420697823,-0.0019613471014480084
43.148,628,43,148000000,,-0.0016850657391171875,0.01993805570284472,0.0023498431012198675
43.158,629,43,158000000,,0.002880825196991753,0.026196290146996308,0.006544161401001168
43.169,630,43,168000000,,0.018342144182964107,0.016283103947493174,0.0075179459619322585
43.179,631,43,178000000,,0.02787085121446814,-0.0024073615120814417,0.002282819223607485
43.189,632,43,188000000,,0.01828560580556679,-0.004781031802000511,-0.0020327135717322746
43.199,633,43,198000000,,0.0033874692198044873,0.010733103823654699,-0.0008920307526391856
43.208,634,43,208000000,,-0.00016290032043053682,0.025695849809182658,0.0043667255215560415
43.218,635,43,218000000,,0.00977191710419764,0.024409662083331535,0.007585213839220299
43.229,636,43,228000000,,0.02568883034265878,0.006318380257094463,0.005538615032831397
43.239,637,43,238000000,,0.02597718683494473,-0.006091005487036205,0.00036067778163262343
43.249,638,43,248000000,,0.011246706387162537,-0.0004169868088460954,-0.0032496999214458137
43.259,639,43,258000000,,0.0006365320488914195,0.016751385452303178,-0.0002705902183903989
43.269,640,43,268000000,,0.0017607186015369922,0.028489893136918132,0.0057717831427947916
43.279,641,43,278000000,,0.016160467770721013,0.020492812622816735,0.0080740189845888
43.289,642,43,288000000,,0.02806788962240825,0.0011011338367622435,0.003904869534039546
43.299,643,43,298000000,,0.02209036653525038,-0.008159670726726272,-0.0028088609851629875
43.309,644,43,308000000,,0.006270121758684331,0.006103076420287969,-0.0030262935313954513
43.319,645,43,318000000,,-0.0007607828101957124,0.02502446623664106,0.0023228941414316093
43.328,646,43,328000000,,0.006969337818152504,0.028087025203113944,0.006932237591663618
43.339,647,43,338000000,,0.022643106841001508,0.013288403208176916,0.007093087959432916
43.349,648,43,348000000,,0.028786606988365042,-0.005483423357643702,0.0011969053491500316
43.359,649,43,358000000,,0.01812841082654097,-0.00705432975169795,-0.004194134361549156
43.369,650,43,368000000,,0.002456048230672245,0.011365787097349837,-0.002937890083841495
43.379,651,43,378000000,,-0.0011950139222922426,0.028966414651159303,0.0035619166413911746
43.389,652,43,388000000,,0.011683761842471621,0.026672994407083643,0.008206523206671984
43.398,653,43,398000000,,0.02714197373984347,0.006941131228737817,0.00567405436638246
43.408,654,43,408000000,,0.026808384368462092,-0.009965390120894846,-0.0021908279096559003
43.418,655,43,418000000,,0.011215447416551687,-0.00100904703502459,-0.004986834013762428
43.429,656,43,428000000,,0.0004283734951615985,0.018753060625758954,-0.001516634049362412
43.439,657,43,439000000,,0.0035412842241480157,0.03155184071976467,0.0064035689066642525
43.449,658,43,448000000,,0.019372269704622698,0.019535875853504414,0.008056010649726992
43.459,659,43,458000000,,0.028465339989784934,-0.00016171648364821274,0.003495482485647474
43.469,660,43,469000000,,0.023409769278270112,-0.010499776719434343,-0.003837062451016963
43.479,661,43,478000000,,0.005964062590031518,0.00516108896141529,-0.005565704666521571
