Time,header.seq,header.stamp.secs,header.stamp.nsecs,header.frame_id,orientation.x,orientation.y,orientation.z,orientation.w,orientation_covariance_0,orientation_covariance_1,orientation_covariance_2,orientation_covariance_3,orientation_covariance_4,orientation_covariance_5,orientation_covariance_6,orientation_covariance_7,orientation_covariance_8,angular_velocity.x,angular_velocity.y,angular_velocity.z,angular_velocity_covariance_0,angular_velocity_covariance_1,angular_velocity_covariance_2,angular_velocity_covariance_3,angular_velocity_covariance_4,angular_velocity_covariance_5,angular_velocity_covariance_6,angular_velocity_covariance_7,angular_velocity_covariance_8,linear_acceleration.x,linear_acceleration.y,linear_acceleration.z,linear_acceleration_covariance_0,linear_acceleration_covariance_1,linear_acceleration_covariance_2,linear_acceleration_covariance_3,linear_acceleration_covariance_4,linear_acceleration_covariance_5,linear_acceleration_covariance_6,linear_acceleration_covariance_7,linear_acceleration_covariance_8
56.244,1131,56,243000000,IMU,-2.012049892596789e-12,7.92138734391763e-13,4.03352122469543e-11,1.0,0.0,0.0,0.0,0.0,0.0,0.0,0.0,0.0,0.0,0.0056932152846073305,0.0015006934927342527,0.056258111389702374,0.0,0.0,0.0,0.0,0.0,0.0,0.0,0.0,0.0,0.04914968600220295,-0.04530724770385483,9.752701911670545,0.0,0.0,0.0,0.0,0.0,0.0,0.0,0.0,0.0
56.254,1132,56,253000000,IMU,-2.012049894022721e-12,7.921387223646732e-13,4.033521381053149e-11,1.0,0.0,0.0,0.0,0.0,0.0,0.0,0.0,0.0,0.0,-0.01195351129078053,-0.009997551337321301,-0.013521554957161395,0.0,0.0,0.0,0.0,0.0,0.0,0.0,0.0,0.0,0.03179627604258918,-0.02591769470960675,9.814934755715973,0.0,0.0,0.0,0.0,0.0,0.0,0.0,0.0,0.0
56.263,1133,56,263000000,IMU,7.602243777926961e-13,-2.0230189914905816e-12,4.0335215608529826e-11,1.0,0.0,0.0,0.0,0.0,0.0,0.0,0.0,0.0,0.0,-0.017232383464129208,0.04567769406018743,-0.001172283083650969,0.0,0.0,0.0,0.0,0.0,0.0,0.0,0.0,0.0,-0.04667684324079014,-0.04693588629799926,9.742311468653472,0.0,0.0,0.0,0.0,0.0,0.0,0.0,0.0,0.0
56.274,1134,56,273000000,IMU,-8.292011933007143e-13,3.213990096218335e-13,4.0335214529465524e-11,1.0,0.0,0.0,0.0,0.0,0.0,0.0,0.0,0.0,0.0,-0.06131477552094598,0.043409467184375806,-0.016654069938018788,0.0,0.0,0.0,0.0,0.0,0.0,0.0,0.0,0.0,0.008119277956001909,0.054091406564505104,9.75297434512112,0.0,0.0,0.0,0.0,0.0,0.0,0.0,0.0,0.0
56.284,1135,56,283000000,IMU,-7.815531771904745e-13,3.025941050241693e-13,4.0335214734858354e-11,1.0,0.0,0.0,0.0,0.0,0.0,0.0,0.0,0.0,0.0,-0.02293307756853526,-0.006651592227009729,0.002485344725597508,0.0,0.0,0.0,0.0,0.0,0.0,0.0,0.0,0.0,-0.050544554024645215,0.032387277819331706,9.693033947449122,0.0,0.0,0.0,0.0,0.0,0.0,0.0,0.0,0.0
56.294,1136,56,293000000,IMU,-7.463834817458533e-13,2.887425562600623e-13,4.0335215510792885e-11,1.0,0.0,0.0,0.0,0.0,0.0,0.0,0.0,0.0,0.0,-0.023901068728925418,0.01684445445682645,0.013036128007608422,0.0,0.0,0.0,0.0,0.0,0.0,0.0,0.0,0.0,0.0820759363443164,-0.018697600269682167,9.78209454471481,0.0,0.0,0.0,0.0,0.0,0.0,0.0,0.0,0.0
56.305,1137,56,303000000,IMU,2.3814860820342736e-13,-6.457703832567106e-13,4.0335216880395246e-11,1.0,0.0,0.0,0.0,0.0,0.0,0.0,0.0,0.0,0.0,0.04230899465319927,-0.016603582580890456,0.045877753865925,0.0,0.0,0.0,0.0,0.0,0.0,0.0,0.0,0.0,-0.022337528584435225,-0.05784507926924827,9.741032104507868,0.0,0.0,0.0,0.0,0.0,0.0,0.0,0.0,0.0
56.314,1138,56,313000000,IMU,2.2985512646934803e-13,-6.29630271509558e-13,4.03352184713675e-11,1.0,0.0,0.0,0.0,0.0,0.0,0.0,0.0,0.0,0.0,-0.014398975031549442,-0.0778314233738997,0.04224975514512407,0.0,0.0,0.0,0.0,0.0,0.0,0.0,0.0,0.0,0.017839858168321714,0.04672433445451333,9.74393706601586,0.0,0.0,0.0,0.0,0.0,0.0,0.0,0.0,0.0
56.324,1139,56,323000000,IMU,-7.502014928050611e-13,2.9053321128633996e-13,4.0335220307614976e-11,1.0,0.0,0.0,0.0,0.0,0.0,0.0,0.0,0.0,0.0,0.015787316070251533,0.018495651777144777,0.020598884594553446,0.0,0.0,0.0,0.0,0.0,0.0,0.0,0.0,0.0,0.01831700799299056,0.12146529957805521,9.843246316520455,0.0,0.0,0.0,0.0,0.0,0.0,0.0,0.0,0.0
56.334,1140,56,333000000,IMU,-7.443778533658739e-13,2.8831701125463447e-13,4.033522277983041e-11,1.0,0.0,0.0,0.0,0.0,0.0,0.0,0.0,0.0,0.0,0.04463236572500396,0.04883106192695283,-0.02100526108268219,0.0,0.0,0.0,0.0,0.0,0.0,0.0,0.0,0.0,0.07688660811717356,0.010802837743921248,9.768120427906268,0.0,0.0,0.0,0.0,0.0,0.0,0.0,0.0,0.0
56.344,1141,56,343000000,IMU,-7.157160489633372e-13,2.7764777458320615e-13,4.033522572816621e-11,1.0,0.0,0.0,0.0,0.0,0.0,0.0,0.0,0.0,0.0,0.0042874311031614815,0.023439324155423855,-0.07019273812808154,0.0,0.0,0.0,0.0,0.0,0.0,0.0,0.0,0.0,0.08780322839710725,-0.013673014360666006,9.708519250722489,0.0,0.0,0.0,0.0,0.0,0.0,0.0,0.0,0.0
56.353,1142,56,353000000,IMU,-6.688210138296307e-13,2.596951250080314e-13,4.0335229178865036e-11,1.0,0.0,0.0,0.0,0.0,0.0,0.0,0.0,0.0,0.0,0.025312432038122876,0.006489345964491154,0.02942259633273127,0.0,0.0,0.0,0.0,0.0,0.0,0.0,0.0,0.0,0.04488496067218851,-0.002434566073897115,9.860079639966509,0.0,0.0,0.0,0.0,0.0,0.0,0.0,0.0,0.0
56.364,1143,56,363000000,IMU,-6.311559510579245e-13,2.4551304732404373e-13,4.033523304700556e-11,1.0,0.0,0.0,0.0,0.0,0.0,0.0,0.0,0.0,0.0,-0.03455412737462243,0.04579120761566729,-0.007665610213282594,0.0,0.0,0.0,0.0,0.0,0.0,0.0,0.0,0.0,0.027814419633291253,0.09317300351637346,9.812338654774091,0.0,0.0,0.0,0.0,0.0,0.0,0.0,0.0,0.0
56.374,1144,56,373000000,IMU,-6.184808285478562e-13,2.414578550182979e-13,4.0335237576461526e-11,1.0,0.0,0.0,0.0,0.0,0.0,0.0,0.0,0.0,0.0,-0.013068715625979964,-0.04276139883420325,-0.042238498614476,0.0,0.0,0.0,0.0,0.0,0.0,0.0,0.0,0.0,0.009694032348438207,0.0005577051503736956,9.826464848294613,0.0,0.0,0.0,0.0,0.0,0.0,0.0,0.0,0.0
56.384,1145,56,383000000,IMU,-6.27225396284899e-13,2.461175414236592e-13,4.033524249962114e-11,1.0,0.0,0.0,0.0,0.0,0.0,0.0,0.0,0.0,0.0,0.026603969497779493,0.0011504702108254155,-0.04266271765124706,0.0,0.0,0.0,0.0,0.0,0.0,0.0,0.0,0.0,0.01717543170732797,-0.019251973431108262,9.80049414895171,0.0,0.0,0.0,0.0,0.0,0.0,0.0,0.0,0.0
56.394,1146,56,393000000,IMU,-6.861174217454535e-13,2.7300629380566793e-13,4.0335248468428927e-11,1.0,0.0,0.0,0.0,0.0,0.0,0.0,0.0,0.0,0.0,-0.03176301542891524,0.05915068136925508,0.047722923741996465,0.0,0.0,0.0,0.0,0.0,0.0,0.0,0.0,0.0,-0.07292450594533104,0.014064139475550342,9.81987669974551,0.0,0.0,0.0,0.0,0.0,0.0,0.0,0.0,0.0
56.404,1147,56,403000000,IMU,-7.269082679929221e-13,2.9223570941379845e-13,4.0335255243672513e-11,1.0,0.0,0.0,0.0,0.0,0.0,0.0,0.0,0.0,0.0,-0.010364496083391777,-0.030445132367011903,0.017327713346332974,0.0,0.0,0.0,0.0,0.0,0.0,0.0,0.0,0.0,-0.07608223056459266,-0.00755912432009087,9.688134183336242,0.0,0.0,0.0,0.0,0.0,0.0,0.0,0.0,0.0
56.414,1148,56,413000000,IMU,-7.664054735367017e-13,3.1167987760516795e-13,4.0335262400806584e-11,1.0,0.0,0.0,0.0,0.0,0.0,0.0,0.0,0.0,0.0,0.040417301582181556,0.027772230122435824,0.04278533067178896,0.0,0.0,0.0,0.0,0.0,0.0,0.0,0.0,0.0,-0.06453394967270841,-0.00611317394778635,9.889955064115101,0.0,0.0,0.0,0.0,0.0,0.0,0.0,0.0,0.0
56.424,1149,56,423000000,IMU,-2.8776872856772466e-11,-9.388431175875358e-12,7.423626707065676e-07,0.9999999999997244,0.0,0.0,0.0,0.0,0.0,0.0,0.0,0.0,0.0,0.05202126624156177,0.07276428799843467,-0.04041394582280997,0.0,0.0,0.0,0.0,0.0,0.0,0.0,0.0,0.0,-0.02391776095415198,0.001793362127673137,9.826386141076089,0.0,0.0,0.0,0.0,0.0,0.0,0.0,0.0,0.0
56.434,1150,56,433000000,IMU,-8.164713760008905e-09,6.491350388409146e-08,1.6406848198092967e-06,0.999999999998652,0.0,0.0,0.0,0.0,0.0,0.0,0.0,0.0,0.0,-0.03224947572930061,0.01440218389136514,0.039640731793659144,0.0,0.0,0.0,0.0,0.0,0.0,0.0,0.0,0.0,-0.051622214600475946,0.01506217216638485,9.856978390392976,0.0,0.0,0.0,0.0,0.0,0.0,0.0,0.0,0.0
56.444,1151,56,443000000,IMU,-5.782616494266306e-12,2.4674992389661163e-11,3.1884455845890043e-06,0.9999999999949171,0.0,0.0,0.0,0.0,0.0,0.0,0.0,0.0,0.0,0.05273109809806433,0.027149884632266984,-0.046631296926688444,0.0,0.0,0.0,0.0,0.0,0.0,0.0,0.0,0.0,-0.001623522151443821,0.053274452980827794,9.816490204800328,0.0,0.0,0.0,0.0,0.0,0.0,0.0,0.0,0.0
56.456,1152,56,455000000,IMU,-8.61449921833217e-08,8.939190132636974e-11,4.566491755905393e-06,0.99999999998957,0.0,0.0,0.0,0.0,0.0,0.0,0.0,0.0,0.0,-0.03025328752506151,-0.006159018859610513,-0.048547184681650174,0.0,0.0,0.0,0.0,0.0,0.0,0.0,0.0,0.0,0.10026841922052655,-0.013761306645198123,9.80407532286994,0.0,0.0,0.0,0.0,0.0,0.0,0.0,0.0,0.0
56.466,1153,56,465000000,IMU,1.4374472330341182e-10,-1.2699113943143078e-11,5.882428436287926e-06,0.9999999999826986,0.0,0.0,0.0,0.0,0.0,0.0,0.0,0.0,0.0,0.04333810343739768,-0.045704994962546895,-0.016774778571202874,0.0,0.0,0.0,0.0,0.0,0.0,0.0,0.0,0.0,-0.025809126554405124,0.04454791507299647,9.813337556558338,0.0,0.0,0.0,0.0,0.0,0.0,0.0,0.0,0.0
56.476,1154,56,475000000,IMU,-4.049716311265542e-07,2.3014844959346097e-11,9.514912658501779e-06,0.9999999999546513,0.0,0.0,0.0,0.0,0.0,0.0,0.0,0.0,0.0,-0.015216763940785586,-0.05776749759839149,0.027358868892176168,0.0,0.0,0.0,0.0,0.0,0.0,0.0,0.0,0.0,0.05586588113618139,0.050724006488942416,9.88726874461391,0.0,0.0,0.0,0.0,0.0,0.0,0.0,0.0,0.0
56.486,1155,56,485000000,IMU,-4.282262278321001e-07,-2.3608017284185136e-11,1.2240004894392588e-05,0.9999999999249994,0.0,0.0,0.0,0.0,0.0,0.0,0.0,0.0,0.0,0.026263211098286894,-0.07296301422844664,-0.05472088798247241,0.0,0.0,0.0,0.0,0.0,0.0,0.0,0.0,0.0,0.03129607352547642,-0.05078290431558207,9.775393466099882,0.0,0.0,0.0,0.0,0.0,0.0,0.0,0.0,0.0
56.491,1156,56,495000000,IMU,-1.1753742580136624e-09,8.792812260601779e-08,1.3564194558034931e-05,0.9999999999080026,0.0,0.0,0.0,0.0,0.0,0.0,0.0,0.0,0.0,0.02328636035146798,0.03444876639144927,0.0011038296237325758,0.0,0.0,0.0,0.0,0.0,0.0,0.0,0.0,0.0,-0.06269711541445074,-0.07040266201604665,9.77748348623508,0.0,0.0,0.0,0.0,0.0,0.0,0.0,0.0,0.0
56.506,1157,56,505000000,IMU,1.0206992807637541e-10,-2.4016180269162824e-08,1.6270330811626473e-05,0.999999999867638,0.0,0.0,0.0,0.0,0.0,0.0,0.0,0.0,0.0,-0.008308160957644736,-0.06978497292958863,0.09065084557730084,0.0,0.0,0.0,0.0,0.0,0.0,0.0,0.0,0.0,0.017960741027162497,-0.09538504467633943,9.770474446931415,0.0,0.0,0.0,0.0,0.0,0.0,0.0,0.0,0.0
56.516,1158,56,515000000,IMU,-1.7627516416200651e-10,3.364356467865888e-07,1.875466704263651e-05,0.9999999998240747,0.0,0.0,0.0,0.0,0.0,0.0,0.0,0.0,0.0,0.06599521173562777,0.02556417460382199,0.010404858905364278,0.0,0.0,0.0,0.0,0.0,0.0,0.0,0.0,0.0,0.0973097237084404,-0.12317669457669658,9.810102993416525,0.0,0.0,0.0,0.0,0.0,0.0,0.0,0.0,0.0
56.526,1159,56,525000000,IMU,7.446827672981727e-11,-1.214802203130598e-07,2.13314193745465e-05,0.999999999772478,0.0,0.0,0.0,0.0,0.0,0.0,0.0,0.0,0.0,0.01361260581017718,0.059002370572019826,0.008755391780032932,0.0,0.0,0.0,0.0,0.0,0.0,0.0,0.0,0.0,-0.015080495542906655,0.016747636709680408,9.72547101731646,0.0,0.0,0.0,0.0,0.0,0.0,0.0,0.0,0.0
56.536,1160,56,535000000,IMU,-2.024432486682239e-10,2.4122346964985916e-07,2.4615132387324936e-05,0.9999999996970187,0.0,0.0,0.0,0.0,0.0,0.0,0.0,0.0,0.0,0.001194757567126827,0.06999123405083638,0.05779684273762308,0.0,0.0,0.0,0.0,0.0,0.0,0.0,0.0,0.0,-0.0024077429824941924,-0.11250480733828966,9.800757489598565,0.0,0.0,0.0,0.0,0.0,0.0,0.0,0.0,0.0
56.546,1161,56,545000000,IMU,-6.084895356520448e-07,-4.9100841981331204e-11,2.8635255625311265e-05,0.9999999995898259,0.0,0.0,0.0,0.0,0.0,0.0,0.0,0.0,0.0,0.010366115630330987,0.008084693741338217,-0.05257510979686225,0.0,0.0,0.0,0.0,0.0,0.0,0.0,0.0,0.0,-0.02282312606853967,0.016362541685245046,9.833195275135736,0.0,0.0,0.0,0.0,0.0,0.0,0.0,0.0,0.0
56.555,1162,56,555000000,IMU,-9.35288179816029e-08,-2.4774743052493903e-10,3.170371195036471e-05,0.9999999994974329,0.0,0.0,0.0,0.0,0.0,0.0,0.0,0.0,0.0,-0.022563458018283092,-0.05653136606104265,-0.03183509686592724,0.0,0.0,0.0,0.0,0.0,0.0,0.0,0.0,0.0,-0.014186920227852647,-0.09099629294171493,9.786503609321441,0.0,0.0,0.0,0.0,0.0,0.0,0.0,0.0,0.0
56.565,1163,56,565000000,IMU,1.4594966287116682e-10,6.868961236966404e-07,3.598572889120298e-05,0.9999999993522779,0.0,0.0,0.0,0.0,0.0,0.0,0.0,0.0,0.0,-0.03454405701695967,0.028975932849181204,0.01601868497933055,0.0,0.0,0.0,0.0,0.0,0.0,0.0,0.0,0.0,-0.029937740890279653,-0.06195307443079859,9.870555936288614,0.0,0.0,0.0,0.0,0.0,0.0,0.0,0.0,0.0
56.576,1164,56,575000000,IMU,1.385427196182521e-10,-4.745332208755503e-11,4.047815642426649e-05,0.9999999991807594,0.0,0.0,0.0,0.0,0.0,0.0,0.0,0.0,0.0,0.0056385354272145026,0.009357175793360742,-0.07593811639510502,0.0,0.0,0.0,0.0,0.0,0.0,0.0,0.0,0.0,-0.01390039827265677,-0.011605903737532466,9.82504929156622,0.0,0.0,0.0,0.0,0.0,0.0,0.0,0.0,0.0
56.586,1165,56,585000000,IMU,3.9237109848228853e-11,-3.211268651702909e-11,4.51509041411256e-05,0.9999999989806979,0.0,0.0,0.0,0.0,0.0,0.0,0.0,0.0,0.0,-0.00975636416325641,-0.03890031415433828,-0.0006208426275967267,0.0,0.0,0.0,0.0,0.0,0.0,0.0,0.0,0.0,0.019877587021638183,-0.05543445073654685,9.851274143077893,0.0,0.0,0.0,0.0,0.0,0.0,0.0,0.0,0.0
56.596000000000004,1166,56,595000000,IMU,9.582503691054365e-08,1.5254130733150312e-11,4.8635123684778515e-05,0.9999999988173078,0.0,0.0,0.0,0.0,0.0,0.0,0.0,0.0,0.0,0.07231330245092593,-0.05614704578122663,-0.04173192339125466,0.0,0.0,0.0,0.0,0.0,0.0,0.0,0.0,0.0,0.031034706158936054,0.03249656344594653,9.820493577452481,0.0,0.0,0.0,0.0,0.0,0.0,0.0,0.0,0.0
56.606,1167,56,605000000,IMU,-8.889982354552335e-08,-4.433485580804688e-12,5.436782209437964e-05,0.999999998522066,0.0,0.0,0.0,0.0,0.0,0.0,0.0,0.0,0.0,-0.02185395959020965,0.03588659867816552,-0.036672583345085684,0.0,0.0,0.0,0.0,0.0,0.0,0.0,0.0,0.0,-0.07697195233925581,0.010531561490713793,9.813847528434335,0.0,0.0,0.0,0.0,0.0,0.0,0.0,0.0,0.0
56.617,1168,56,615000000,IMU,4.4923931892832886e-08,-2.2995565164001425e-10,5.7844536219719896e-05,0.9999999983270039,0.0,0.0,0.0,0.0,0.0,0.0,0.0,0.0,0.0,0.05139588766528446,0.02143932611024103,0.00545564851618358,0.0,0.0,0.0,0.0,0.0,0.0,0.0,0.0,0.0,0.05902035076810784,-0.05457280807637022,9.829384901515972,0.0,0.0,0.0,0.0,0.0,0.0,0.0,0.0,0.0
56.628,1169,56,625000000,IMU,-2.1434179599357515e-07,2.1431326605584738e-07,6.649890528298291e-05,0.9999999977889019,0.0,0.0,0.0,0.0,0.0,0.0,0.0,0.0,0.0,-0.010792924593328014,-0.00023323524593031717,-0.031921141324236214,0.0,0.0,0.0,0.0,0.0,0.0,0.0,0.0,0.0,0.009354414987857268,-0.03680357569168461,9.868152037462954,0.0,0.0,0.0,0.0,0.0,0.0,0.0,0.0,0.0
56.636,1170,56,635000000,IMU,-4.833014570993849e-07,-6.290361634974296e-07,7.746419427184984e-05,0.9999999969993346,0.0,0.0,0.0,0.0,0.0,0.0,0.0,0.0,0.0,0.005916806725343852,-0.0280724572616755,0.030610443991224427,0.0,0.0,0.0,0.0,0.0,0.0,0.0,0.0,0.0,0.05856503182599328,-0.07891569089170375,9.837573950583216,0.0,0.0,0.0,0.0,0.0,0.0,0.0,0.0,0.0
56.646,1171,56,645000000,IMU,3.5471056543675044e-08,4.185225116619378e-12,8.898734134107085e-05,0.999999996040626,0.0,0.0,0.0,0.0,0.0,0.0,0.0,0.0,0.0,-0.012291661528930615,-0.03485875760428553,0.04264425123375123,0.0,0.0,0.0,0.0,0.0,0.0,0.0,0.0,0.0,-0.054866647280167664,0.04882178651641985,9.820535532980625,0.0,0.0,0.0,0.0,0.0,0.0,0.0,0.0,0.0
56.656,1172,56,655000000,IMU,4.1212088747310787e-07,-1.1206787055459977e-06,0.00010507479714952935,0.9999999944789306,0.0,0.0,0.0,0.0,0.0,0.0,0.0,0.0,0.0,0.006668883663825648,0.0593539939208195,0.0051349823494548025,0.0,0.0,0.0,0.0,0.0,0.0,0.0,0.0,0.0,0.02195607747499424,0.030784498396152726,9.802338723488829,0.0,0.0,0.0,0.0,0.0,0.0,0.0,0.0,0.0
56.666,1173,56,665000000,IMU,-1.5405717620738405e-06,-1.977592611721067e-10,0.0001291478177696334,0.9999999916592339,0.0,0.0,0.0,0.0,0.0,0.0,0.0,0.0,0.0,0.004645629677483248,0.026598835888158246,0.028103504085802956,0.0,0.0,0.0,0.0,0.0,0.0,0.0,0.0,0.0,-0.18983043639188016,0.06623338023574578,9.77489597742816,0.0,0.0,0.0,0.0,0.0,0.0,0.0,0.0,0.0
56.677,1174,56,675000000,IMU,-1.1551718777004646e-07,-9.254951139588645e-07,0.00015309783643656526,0.9999999882800913,0.0,0.0,0.0,0.0,0.0,0.0,0.0,0.0,0.0,-0.01971443608835898,0.01507581236463324,-0.00540586203554484,0.0,0.0,0.0,0.0,0.0,0.0,0.0,0.0,0.0,0.12392513596170501,-0.09038291789453647,9.76152380546796,0.0,0.0,0.0,0.0,0.0,0.0,0.0,0.0,0.0
56.686,1175,56,685000000,IMU,-7.661393154966718e-07,-5.726888004924661e-07,0.00017763795078295182,0.9999999842219217,0.0,0.0,0.0,0.0,0.0,0.0,0.0,0.0,0.0,0.03626426088688038,-0.026128484903007385,0.044485869464914264,0.0,0.0,0.0,0.0,0.0,0.0,0.0,0.0,0.0,0.0033450422858616533,-0.03596010720511006,9.763704816571797,0.0,0.0,0.0,0.0,0.0,0.0,0.0,0.0,0.0
56.698,1176,56,695000000,IMU,-7.313543607165218e-07,-9.187604177038054e-07,0.00020603688069756096,0.9999999787737123,0.0,0.0,0.0,0.0,0.0,0.0,0.0,0.0,0.0,0.033000845973879506,0.01884162193709584,-0.013962500966834759,0.0,0.0,0.0,0.0,0.0,0.0,0.0,0.0,0.0,0.04720492942563689,0.01910782982676249,9.740663538332171,0.0,0.0,0.0,0.0,0.0,0.0,0.0,0.0,0.0
56.706,1177,56,705000000,IMU,-1.0207948107840552e-10,4.207321600058813e-07,0.00023625144161374895,0.9999999720925394,0.0,0.0,0.0,0.0,0.0,0.0,0.0,0.0,0.0,-0.0054453982598960775,-0.0025602172638829906,0.01722732977588167,0.0,0.0,0.0,0.0,0.0,0.0,0.0,0.0,0.0,0.10076818651671736,-0.012022397528013377,9.895319027106117,0.0,0.0,0.0,0.0,0.0,0.0,0.0,0.0,0.0
56.716,1178,56,715000000,IMU,1.2481604606501574e-06,-9.678865678458007e-07,0.00027175571650133026,0.9999999630731673,0.0,0.0,0.0,0.0,0.0,0.0,0.0,0.0,0.0,-0.025747363858644214,-0.011137781509850017,0.07211047993797585,0.0,0.0,0.0,0.0,0.0,0.0,0.0,0.0,0.0,0.019963397526390685,0.008172625508854343,9.753054887142032,0.0,0.0,0.0,0.0,0.0,0.0,0.0,0.0,0.0
56.725,1179,56,725000000,IMU,1.638147604307948e-06,-3.1184019566553283e-07,0.0003164316576815859,0.9999999499341115,0.0,0.0,0.0,0.0,0.0,0.0,0.0,0.0,0.0,-0.0201477677466126,-0.0067892081678193805,-0.04903097443555598,0.0,0.0,0.0,0.0,0.0,0.0,0.0,0.0,0.0,-0.05787238030538361,-0.06075905934665632,9.800648114691292,0.0,0.0,0.0,0.0,0.0,0.0,0.0,0.0,0.0
56.736,1180,56,735000000,IMU,8.203654014854442e-07,1.9963907251521955e-06,0.00036503478410981655,0.9999999333724716,0.0,0.0,0.0,0.0,0.0,0.0,0.0,0.0,0.0,-0.014239217360675883,-0.03063964520002507,0.01908362079144473,0.0,0.0,0.0,0.0,0.0,0.0,0.0,0.0,0.0,-0.032736050543471756,0.025619542770679328,9.715577442352602,0.0,0.0,0.0,0.0,0.0,0.0,0.0,0.0,0.0
56.746,1181,56,745000000,IMU,6.932507373584309e-07,-1.5470350665665118e-06,0.000417295838348189,0.9999999129306509,0.0,0.0,0.0,0.0,0.0,0.0,0.0,0.0,0.0,-0.008182989147085607,0.018711330258786407,0.004317386912939168,0.0,0.0,0.0,0.0,0.0,0.0,0.0,0.0,0.0,0.12011929085856991,-0.017548712140964363,9.792611034882102,0.0,0.0,0.0,0.0,0.0,0.0,0.0,0.0,0.0
56.756,1182,56,755000000,IMU,-1.5360720310362436e-06,5.310885752844406e-07,0.00047833729923085956,0.9999998855953867,0.0,0.0,0.0,0.0,0.0,0.0,0.0,0.0,0.0,-0.03256341565942906,0.019491674344289018,-0.009949798865507184,0.0,0.0,0.0,0.0,0.0,0.0,0.0,0.0,0.0,-0.04066446768811102,-0.04057224467505909,9.873123596509803,0.0,0.0,0.0,0.0,0.0,0.0,0.0,0.0,0.0
56.766,1183,56,765000000,IMU,-1.8394368120546603e-07,-9.176884388581408e-07,0.0005509495567724105,0.9999998482268436,0.0,0.0,0.0,0.0,0.0,0.0,0.0,0.0,0.0,0.021696472723954176,0.008061183472934321,-0.019737082947309498,0.0,0.0,0.0,0.0,0.0,0.0,0.0,0.0,0.0,-0.03829886512158135,-0.08449126587480171,9.752924487059214,0.0,0.0,0.0,0.0,0.0,0.0,0.0,0.0,0.0
56.776,1184,56,775000000,IMU,2.21461281670965e-06,-4.497286849161192e-06,0.0006362632170917233,0.9999997975719738,0.0,0.0,0.0,0.0,0.0,0.0,0.0,0.0,0.0,0.04784354770634265,-0.02760130474578288,0.0015848777455693408,0.0,0.0,0.0,0.0,0.0,0.0,0.0,0.0,0.0,-0.0006711323953795256,-0.10684496636687069,9.79517490014242,0.0,0.0,0.0,0.0,0.0,0.0,0.0,0.0,0.0
56.786,1185,56,785000000,IMU,-2.956087163578417e-07,-4.390125878692416e-06,0.0007137842493884733,0.9999997452463099,0.0,0.0,0.0,0.0,0.0,0.0,0.0,0.0,0.0,0.03303556509969614,0.027024760364936208,0.027308100146459374,0.0,0.0,0.0,0.0,0.0,0.0,0.0,0.0,0.0,0.08476125475673256,0.007326369116357057,9.825414220541289,0.0,0.0,0.0,0.0,0.0,0.0,0.0,0.0,0.0
56.796,1186,56,795000000,IMU,-5.252816264678281e-08,-2.2848264477527104e-06,0.0008122533876339951,0.9999996701195513,0.0,0.0,0.0,0.0,0.0,0.0,0.0,0.0,0.0,0.03700571821473174,0.0022957115092299613,0.037963675134039185,0.0,0.0,0.0,0.0,0.0,0.0,0.0,0.0,0.0,0.029028521693088127,-0.08413898157119938,9.745826836518034,0.0,0.0,0.0,0.0,0.0,0.0,0.0,0.0,0.0
56.806,1187,56,805000000,IMU,-5.490738858976666e-07,-1.7038364483496838e-06,0.0009136175892210564,0.999999582649761,0.0,0.0,0.0,0.0,0.0,0.0,0.0,0.0,0.0,0.0007316532376014672,-0.02153439079935072,0.009756203086641229,0.0,0.0,0.0,0.0,0.0,0.0,0.0,0.0,0.0,0.08071832692061319,-0.032954348631425934,9.858269595771592,0.0,0.0,0.0,0.0,0.0,0.0,0.0,0.0,0.0
56.816,1188,56,815000000,IMU,-1.135687057378508e-06,3.676925700142354e-06,0.001015555640558941,0.9999994843158329,0.0,0.0,0.0,0.0,0.0,0.0,0.0,0.0,0.0,0.028673534647527518,0.04550165922876292,-0.006446296522407892,0.0,0.0,0.0,0.0,0.0,0.0,0.0,0.0,0.0,-0.08719732279724363,-0.11395857221045178,9.74201972445683,0.0,0.0,0.0,0.0,0.0,0.0,0.0,0.0,0.0
56.826,1189,56,825000000,IMU,-5.716779478486232e-07,3.9728632699889345e-07,0.0011274980697644568,0.9999993643736069,0.0,0.0,0.0,0.0,0.0,0.0,0.0,0.0,0.0,-0.03544229493800172,-0.03327191369674059,0.04611547565755954,0.0,0.0,0.0,0.0,0.0,0.0,0.0,0.0,0.0,-0.02101591115789981,0.0072398762571535755,9.773178558382156,0.0,0.0,0.0,0.0,0.0,0.0,0.0,0.0,0.0
56.835,1190,56,835000000,IMU,3.260320701612974e-07,3.2249782885521734e-07,0.0012440966725165324,0.9999992261113302,0.0,0.0,0.0,0.0,0.0,0.0,0.0,0.0,0.0,0.024445795520457045,0.05627021590979216,0.06475410543655277,0.0,0.0,0.0,0.0,0.0,0.0,0.0,0.0,0.0,-0.05565711702312941,0.05425383159048518,9.785809303179047,0.0,0.0,0.0,0.0,0.0,0.0,0.0,0.0,0.0
56.846000000000004,1191,56,845000000,IMU,1.2553279113446958e-06,7.422976835647746e-07,0.0013645558226025021,0.9999990689922068,0.0,0.0,0.0,0.0,0.0,0.0,0.0,0.0,0.0,-0.019969679966075803,-0.03336887430675658,0.014265137159520335,0.0,0.0,0.0,0.0,0.0,0.0,0.0,0.0,0.0,-0.010615585106402921,0.03416088054443913,9.862575383586298,0.0,0.0,0.0,0.0,0.0,0.0,0.0,0.0,0.0
56.862,1192,56,856000000,IMU,5.983602434610259e-07,9.518489201442955e-07,0.0015209948397576106,0.9999988432860477,0.0,0.0,0.0,0.0,0.0,0.0,0.0,0.0,0.0,0.024901365247038083,-0.01866492137022325,0.0409640829041687,0.0,0.0,0.0,0.0,0.0,0.0,0.0,0.0,0.0,-0.02912394117959157,0.09668168164251904,9.845079208371127,0.0,0.0,0.0,0.0,0.0,0.0,0.0,0.0,0.0
56.867,1193,56,866000000,IMU,3.7856302705796177e-07,5.021325230084788e-08,0.0016416390829136925,0.99999865250958,0.0,0.0,0.0,0.0,0.0,0.0,0.0,0.0,0.0,0.02057407504261494,-0.045670417598757465,0.06068563007401412,0.0,0.0,0.0,0.0,0.0,0.0,0.0,0.0,0.0,-0.031382693309400966,0.015689628839162473,9.818648249131959,0.0,0.0,0.0,0.0,0.0,0.0,0.0,0.0,0.0
56.879,1194,56,877000000,IMU,-3.8345466831054297e-10,2.0991669935253687e-07,0.0018164197331657639,0.9999983503082939,0.0,0.0,0.0,0.0,0.0,0.0,0.0,0.0,0.0,0.012819872174394606,0.001350188211912229,0.0021365938674566716,0.0,0.0,0.0,0.0,0.0,0.0,0.0,0.0,0.0,0.07909070366746682,0.025624132135981834,9.82016992137148,0.0,0.0,0.0,0.0,0.0,0.0,0.0,0.0,0.0
56.887,1195,56,887000000,IMU,3.8100933211673496e-07,4.127380281546894e-07,0.0019522346322638925,0.999998094387997,0.0,0.0,0.0,0.0,0.0,0.0,0.0,0.0,0.0,-0.027137472889097257,-0.028813432470740107,0.050638660483572434,0.0,0.0,0.0,0.0,0.0,0.0,0.0,0.0,0.0,-0.005887158820327349,0.07718056904286982,9.807533903964462,0.0,0.0,0.0,0.0,0.0,0.0,0.0,0.0,0.0
56.899,1196,56,898000000,IMU,-9.449495170917806e-12,3.138988111443797e-12,0.002142087478795,0.9999977057279849,0.0,0.0,0.0,0.0,0.0,0.0,0.0,0.0,0.0,0.028189666876359917,0.038931436114977555,0.06355600802793637,0.0,0.0,0.0,0.0,0.0,0.0,0.0,0.0,0.0,-0.0224386893531761,-0.027772316714815844,9.766516169951416,0.0,0.0,0.0,0.0,0.0,0.0,0.0,0.0,0.0
56.909,1197,56,908000000,IMU,-2.5660198281522463e-07,-4.971937181149304e-07,0.0022909042210082177,0.9999973758753254,0.0,0.0,0.0,0.0,0.0,0.0,0.0,0.0,0.0,0.027220720135928522,-0.04241843658493404,0.04844220678074278,0.0,0.0,0.0,0.0,0.0,0.0,0.0,0.0,0.0,0.0008254039536034936,-0.009242910555520088,9.741116364467814,0.0,0.0,0.0,0.0,0.0,0.0,0.0,0.0,0.0
56.919,1198,56,918000000,IMU,6.707585979884237e-07,7.65202398006336e-07,0.002460047293895283,0.9999969740785603,0.0,0.0,0.0,0.0,0.0,0.0,0.0,0.0,0.0,-0.010744137087284883,-0.021948597824542584,0.00661561437931479,0.0,0.0,0.0,0.0,0.0,0.0,0.0,0.0,0.0,-0.006024682494612896,-0.015612816265727573,9.791581394614322,0.0,0.0,0.0,0.0,0.0,0.0,0.0,0.0,0.0
56.929,1199,56,928000000,IMU,-6.061041124300136e-08,1.6450905183127526e-06,0.0026601134508469158,0.9999964618906002,0.0,0.0,0.0,0.0,0.0,0.0,0.0,0.0,0.0,0.0036431777229466566,0.035742658479113974,-0.0016647616786314642,0.0,0.0,0.0,0.0,0.0,0.0,0.0,0.0,0.0,-0.07056855907540516,-0.02206784717330035,9.71791190585874,0.0,0.0,0.0,0.0,0.0,0.0,0.0,0.0,0.0
56.937,1200,56,938000000,IMU,-1.096714866391228e-06,1.3093224430243949e-06,0.0028358887389686826,0.9999959788579867,0.0,0.0,0.0,0.0,0.0,0.0,0.0,0.0,0.0,0.04289908043785984,-0.003330414263257551,0.053988696542035204,0.0,0.0,0.0,0.0,0.0,0.0,0.0,0.0,0.0,0.04599262388839527,-0.013857114092998146,9.75546640663111,0.0,0.0,0.0,0.0,0.0,0.0,0.0,0.0,0.0
56.948,1201,56,948000000,IMU,2.9142881101435666e-06,8.048462933227107e-07,0.0030370715729332097,0.9999953880829251,0.0,0.0,0.0,0.0,0.0,0.0,0.0,0.0,0.0,0.0016039451106096992,0.07998296873283048,-0.02882094656388831,0.0,0.0,0.0,0.0,0.0,0.0,0.0,0.0,0.0,0.09342426823509048,-0.03738338279333363,9.797324459175433,0.0,0.0,0.0,0.0,0.0,0.0,0.0,0.0,0.0
56.959,1202,56,958000000,IMU,4.78014439871089e-06,-1.56439251824227e-06,0.0032437280955709843,0.9999947390875338,0.0,0.0,0.0,0.0,0.0,0.0,0.0,0.0,0.0,-0.009919763670981675,0.046834068419242106,0.0013578327330824244,0.0,0.0,0.0,0.0,0.0,0.0,0.0,0.0,0.0,0.04188050108091296,-0.03386739443690648,9.87043691834457,0.0,0.0,0.0,0.0,0.0,0.0,0.0,0.0,0.0
56.969,1203,56,968000000,IMU,2.7809934726064334e-06,3.266041280862143e-06,0.003457846570781673,0.9999940216214755,0.0,0.0,0.0,0.0,0.0,0.0,0.0,0.0,0.0,0.0349671485628011,-0.03517030354712743,0.037233942961674135,0.0,0.0,0.0,0.0,0.0,0.0,0.0,0.0,0.0,-0.06348842107608002,-0.004137427501417532,9.825082531193585,0.0,0.0,0.0,0.0,0.0,0.0,0.0,0.0,0.0
56.981,1204,56,978000000,IMU,1.0459260523830166e-05,-8.327469449469698e-06,0.0036723858226909534,0.9999932566790771,0.0,0.0,0.0,0.0,0.0,0.0,0.0,0.0,0.0,0.0207742936900688,0.01373816779090752,0.05900665403473805,0.0,0.0,0.0,0.0,0.0,0.0,0.0,0.0,0.0,0.012862551785386166,0.04806174547763173,9.867367511988762,0.0,0.0,0.0,0.0,0.0,0.0,0.0,0.0,0.0
56.989,1205,56,988000000,IMU,5.576294780636286e-06,3.133626099063928e-06,0.00390830160380733,0.9999923625396643,0.0,0.0,0.0,0.0,0.0,0.0,0.0,0.0,0.0,0.025949571642930866,-0.019833767383544237,0.03733688938716422,0.0,0.0,0.0,0.0,0.0,0.0,0.0,0.0,0.0,-0.07512583829613781,0.04100137663532634,9.677703574546957,0.0,0.0,0.0,0.0,0.0,0.0,0.0,0.0,0.0
56.999,1206,56,998000000,IMU,2.9885436002248703e-06,-1.6811818822359518e-05,0.0041391944896820064,0.9999914333520102,0.0,0.0,0.0,0.0,0.0,0.0,0.0,0.0,0.0,-0.021757562939226763,0.03428916673384291,0.03801006749173822,0.0,0.0,0.0,0.0,0.0,0.0,0.0,0.0,0.0,0.13125233921645063,-0.01975250840957402,9.891900087331614,0.0,0.0,0.0,0.0,0.0,0.0,0.0,0.0,0.0
57.009,1207,57,8000000,IMU,1.0232150536811225e-05,-1.6741796739916014e-05,0.004387097864056611,0.999990376447367,0.0,0.0,0.0,0.0,0.0,0.0,0.0,0.0,0.0,-0.030037583472950147,0.08066340185735196,0.006355856306731272,0.0,0.0,0.0,0.0,0.0,0.0,0.0,0.0,0.0,-0.03735331926533476,0.020105550011305137,9.708257178857956,0.0,0.0,0.0,0.0,0.0,0.0,0.0,0.0,0.0
57.019,1208,57,18000000,IMU,5.506033910728529e-07,4.602694477040017e-06,0.004664662821954392,0.999989120390452,0.0,0.0,0.0,0.0,0.0,0.0,0.0,0.0,0.0,-0.01079548435843903,-0.01430805278548751,0.09387485070891649,0.0,0.0,0.0,0.0,0.0,0.0,0.0,0.0,0.0,-0.1667966661036076,-0.07752172410135078,9.84993360914596,0.0,0.0,0.0,0.0,0.0,0.0,0.0,0.0,0.0
57.029,1209,57,28000000,IMU,-4.803516853436957e-06,-1.4029904733956773e-05,0.004919955364144318,0.9999878968364082,0.0,0.0,0.0,0.0,0.0,0.0,0.0,0.0,0.0,-0.049524708736457014,0.0034316753516884604,0.03876051831129469,0.0,0.0,0.0,0.0,0.0,0.0,0.0,0.0,0.0,0.06585569912099677,0.05511443677465244,9.834732688914093,0.0,0.0,0.0,0.0,0.0,0.0,0.0,0.0,0.0
57.039,1210,57,38000000,IMU,1.550723799319028e-05,-8.514965558627244e-06,0.005184846485827548,0.999986558436632,0.0,0.0,0.0,0.0,0.0,0.0,0.0,0.0,0.0,0.028948270682675702,-0.013162223759144071,0.0809840121585421,0.0,0.0,0.0,0.0,0.0,0.0,0.0,0.0,0.0,-0.058888730923724715,0.055741958465560126,9.812266755499984,0.0,0.0,0.0,0.0,0.0,0.0,0.0,0.0,0.0
57.049,1211,57,48000000,IMU,9.974149737248528e-06,1.501856274316043e-05,0.005454607598724378,0.9999851233547944,0.0,0.0,0.0,0.0,0.0,0.0,0.0,0.0,0.0,-0.0031260381176828464,0.01732340561509355,0.021265311490806967,0.0,0.0,0.0,0.0,0.0,0.0,0.0,0.0,0.0,-0.021597677651807347,-0.05935561795220675,9.726166175979731,0.0,0.0,0.0,0.0,0.0,0.0,0.0,0.0,0.0
57.059,1212,57,58000000,IMU,-6.462784186306218e-06,-3.3289130889228386e-06,0.005732107137503453,0.9999835713125066,0.0,0.0,0.0,0.0,0.0,0.0,0.0,0.0,0.0,-0.020041999083826676,0.016594816164991838,0.039310648844994946,0.0,0.0,0.0,0.0,0.0,0.0,0.0,0.0,0.0,0.120998242999042,-0.02588637297583047,9.875911197702568,0.0,0.0,0.0,0.0,0.0,0.0,0.0,0.0,0.0
57.069,1213,57,68000000,IMU,1.917767702298508e-05,-7.930764867483692e-06,0.0060059495133573775,0.9999819639072312,0.0,0.0,0.0,0.0,0.0,0.0,0.0,0.0,0.0,0.054385855567714234,-0.009090255010387753,0.11439540192187722,0.0,0.0,0.0,0.0,0.0,0.0,0.0,0.0,0.0,-0.09007466012369315,0.0014851669660241873,9.842773821235221,0.0,0.0,0.0,0.0,0.0,0.0,0.0,0.0,0.0
57.079,1214,57,78000000,IMU,2.7097950583075784e-05,2.70546181630403e-06,0.006344841366630339,0.999979870920617,0.0,0.0,0.0,0.0,0.0,0.0,0.0,0.0,0.0,-0.05078826403126614,-0.007454087157908012,0.020551140175570408,0.0,0.0,0.0,0.0,0.0,0.0,0.0,0.0,0.0,-0.0517478417565822,-0.04083559829211182,9.857962964808438,0.0,0.0,0.0,0.0,0.0,0.0,0.0,0.0,0.0
57.088,1215,57,88000000,IMU,1.6192995062195724e-05,-2.476427902203989e-06,0.00664318549807326,0.9999779336655847,0.0,0.0,0.0,0.0,0.0,0.0,0.0,0.0,0.0,0.055148710314397116,-0.020021700792099893,0.03983008675380324,0.0,0.0,0.0,0.0,0.0,0.0,0.0,0.0,0.0,-0.02595324247228089,0.007347982197829912,9.676539474694001,0.0,0.0,0.0,0.0,0.0,0.0,0.0,0.0,0.0
57.099,1216,57,98000000,IMU,7.6077009753965316e-06,4.785452652746835e-06,0.007012684991361784,0.9999754107819022,0.0,0.0,0.0,0.0,0.0,0.0,0.0,0.0,0.0,0.024378975531741422,-0.041777261002541165,0.03862613927722293,0.0,0.0,0.0,0.0,0.0,0.0,0.0,0.0,0.0,-0.009151908003357578,-0.035991644984107264,9.80637954972313,0.0,0.0,0.0,0.0,0.0,0.0,0.0,0.0,0.0
57.114,1217,57,108000000,IMU,-9.102190942992341e-07,-4.047324674232504e-07,0.007313469604072193,0.9999732562230643,0.0,0.0,0.0,0.0,0.0,0.0,0.0,0.0,0.0,-0.05703884915957711,-0.06066692305988201,0.10734865947607575,0.0,0.0,0.0,0.0,0.0,0.0,0.0,0.0,0.0,-0.06752356203981325,0.032215539175420485,9.821200290181805,0.0,0.0,0.0,0.0,0.0,0.0,0.0,0.0,0.0
57.12,1218,57,118000000,IMU,2.937338968502427e-06,-2.536183517269568e-07,0.007634985526017346,0.999970853068891,0.0,0.0,0.0,0.0,0.0,0.0,0.0,0.0,0.0,-0.01480353382444163,0.03523116462840027,0.0864674745311538,0.0,0.0,0.0,0.0,0.0,0.0,0.0,0.0,0.0,-0.020749485456326686,0.009549997843671575,9.864793633995708,0.0,0.0,0.0,0.0,0.0,0.0,0.0,0.0,0.0
57.129,1219,57,128000000,IMU,5.774395549458985e-06,1.4018612956087208e-07,0.007962310206476439,0.9999683002889703,0.0,0.0,0.0,0.0,0.0,0.0,0.0,0.0,0.0,0.03565607480678966,0.047450317926763186,0.13691926045321814,0.0,0.0,0.0,0.0,0.0,0.0,0.0,0.0,0.0,0.014944704123031852,-0.09733863742092298,9.892377680951167,0.0,0.0,0.0,0.0,0.0,0.0,0.0,0.0,0.0
57.14,1220,57,138000000,IMU,1.1199770602441473e-05,1.1879329996760585e-07,0.008344369675376936,0.9999651850785964,0.0,0.0,0.0,0.0,0.0,0.0,0.0,0.0,0.0,0.055335717607856265,0.021372917549347035,0.004343580035647832,0.0,0.0,0.0,0.0,0.0,0.0,0.0,0.0,0.0,-0.009585248230307493,-0.002700962145113518,9.797998767888968,0.0,0.0,0.0,0.0,0.0,0.0,0.0,0.0,0.0
57.149,1221,57,148000000,IMU,1.8581401231133384e-05,1.6117874208349022e-07,0.008675808646367583,0.9999623642912954,0.0,0.0,0.0,0.0,0.0,0.0,0.0,0.0,0.0,0.03869381298591659,-0.005073806638558296,0.11017696747128661,0.0,0.0,0.0,0.0,0.0,0.0,0.0,0.0,0.0,-0.024598716977644555,0.01855577972251713,9.724933570705517,0.0,0.0,0.0,0.0,0.0,0.0,0.0,0.0,0.0
57.16,1222,57,158000000,IMU,2.7950876436439785e-05,-1.9045302899360045e-06,0.009057593995671733,0.9999589787616944,0.0,0.0,0.0,0.0,0.0,0.0,0.0,0.0,0.0,0.03475774138885043,0.052280750278030134,0.052407493986304995,0.0,0.0,0.0,0.0,0.0,0.0,0.0,0.0,0.0,0.009519257991551998,-0.019878691052859672,9.73613024733933,0.0,0.0,0.0,0.0,0.0,0.0,0.0,0.0,0.0
57.169,1223,57,168000000,IMU,3.366596381231879e-05,-8.227774758754511e-06,0.009445110858984156,0.9999553933450073,0.0,0.0,0.0,0.0,0.0,0.0,0.0,0.0,0.0,0.002502855121980502,0.019064610866097714,0.08238444286361163,0.0,0.0,0.0,0.0,0.0,0.0,0.0,0.0,0.0,0.002832597550930989,0.008833869029640402,9.736684652610638,0.0,0.0,0.0,0.0,0.0,0.0,0.0,0.0,0.0
57.179,1224,57,178000000,IMU,3.3102719612531614e-05,-1.5943292107692028e-05,0.009827582251234417,0.9999517074724743,0.0,0.0,0.0,0.0,0.0,0.0,0.0,0.0,0.0,0.008021813652488205,0.03227082184926814,0.10262516166745231,0.0,0.0,0.0,0.0,0.0,0.0,0.0,0.0,0.0,0.031791652388931405,-0.009345888283436181,9.780015759871752,0.0,0.0,0.0,0.0,0.0,0.0,0.0,0.0,0.0
57.189,1225,57,188000000,IMU,2.993827044067082e-05,-2.0958314336633784e-05,0.010203081948057115,0.9999479465368235,0.0,0.0,0.0,0.0,0.0,0.0,0.0,0.0,0.0,0.07361235038598173,-0.025606330197742506,0.07399064298437337,0.0,0.0,0.0,0.0,0.0,0.0,0.0,0.0,0.0,0.04098870769652408,-0.016912232500158657,9.857365170473532,0.0,0.0,0.0,0.0,0.0,0.0,0.0,0.0,0.0
57.199,1226,57,198000000,IMU,3.162765989010458e-05,-2.4868068962871353e-05,0.010580721291702011,0.999944021792329,0.0,0.0,0.0,0.0,0.0,0.0,0.0,0.0,0.0,0.05164891972096818,0.02226490685058354,0.059942570191681366,0.0,0.0,0.0,0.0,0.0,0.0,0.0,0.0,0.0,0.0009893241067758978,0.052942779205096345,9.81423555396665,0.0,0.0,0.0,0.0,0.0,0.0,0.0,0.0,0.0
57.209,1227,57,208000000,IMU,3.938204692244164e-05,-3.127388869376397e-05,0.010969722766214463,0.9999398295164719,0.0,0.0,0.0,0.0,0.0,0.0,0.0,0.0,0.0,0.03500241709940568,0.017467794765430155,0.12623344081987659,0.0,0.0,0.0,0.0,0.0,0.0,0.0,0.0,0.0,-0.0799178552595755,-0.07145720837007044,9.828591400063178,0.0,0.0,0.0,0.0,0.0,0.0,0.0,0.0,0.0
57.219,1228,57,218000000,IMU,5.168011944925506e-05,-4.07731569113686e-05,0.011372899792831464,0.9999353243170366,0.0,0.0,0.0,0.0,0.0,0.0,0.0,0.0,0.0,-0.04355511338611153,-0.022257538824311616,0.13243652267378953,0.0,0.0,0.0,0.0,0.0,0.0,0.0,0.0,0.0,0.045266330518177196,-0.05546629750451508,9.848425614388052,0.0,0.0,0.0,0.0,0.0,0.0,0.0,0.0,0.0
57.228,1229,57,228000000,IMU,6.118001702378855e-05,-5.0351923985971935e-05,0.01178635066702833,0.9999305354171574,0.0,0.0,0.0,0.0,0.0,0.0,0.0,0.0,0.0,0.024092075270361845,-0.013955357047077392,0.03840575222535845,0.0,0.0,0.0,0.0,0.0,0.0,0.0,0.0,0.0,0.017980236474876135,-0.025071258003881186,9.797204744345205,0.0,0.0,0.0,0.0,0.0,0.0,0.0,0.0,0.0
57.239,1230,57,238000000,IMU,6.531206295042339e-05,-5.827984926815733e-05,0.012199806685479368,0.9999255757578313,0.0,0.0,0.0,0.0,0.0,0.0,0.0,0.0,0.0,0.030279547333830748,-0.03071493412225626,0.0713531582936014,0.0,0.0,0.0,0.0,0.0,0.0,0.0,0.0,0.0,-0.07335695477975007,0.009388125315198483,9.82825738105229,0.0,0.0,0.0,0.0,0.0,0.0,0.0,0.0,0.0
57.248,1231,57,248000000,IMU,6.514382987467154e-05,-6.295810540443678e-05,0.012604749041112508,0.9999205528911629,0.0,0.0,0.0,0.0,0.0,0.0,0.0,0.0,0.0,-0.017097169774828145,0.02604934593773563,0.05507747545943947,0.0,0.0,0.0,0.0,0.0,0.0,0.0,0.0,0.0,-0.04359130069063194,-0.006440895588719787,9.858615500915043,0.0,0.0,0.0,0.0,0.0,0.0,0.0,0.0,0.0
57.259,1232,57,258000000,IMU,6.323188382902844e-05,-6.528064966959344e-05,0.013040403305365777,0.9999149661955257,0.0,0.0,0.0,0.0,0.0,0.0,0.0,0.0,0.0,0.028571793660704753,-0.01287829944125649,0.06640506311190628,0.0,0.0,0.0,0.0,0.0,0.0,0.0,0.0,0.0,-0.038926439700334665,-0.09913772578682127,9.817383267425033,0.0,0.0,0.0,0.0,0.0,0.0,0.0,0.0,0.0
57.269,1233,57,268000000,IMU,6.553928142321473e-05,-6.909843763239992e-05,0.013438257661808775,0.9999096980032866,0.0,0.0,0.0,0.0,0.0,0.0,0.0,0.0,0.0,-0.04432838684245041,-0.06748990878069182,0.06797182487227688,0.0,0.0,0.0,0.0,0.0,0.0,0.0,0.0,0.0,-0.05762965736142968,-0.0284399146518739,9.989390576078222,0.0,0.0,0.0,0.0,0.0,0.0,0.0,0.0,0.0
57.279,1234,57,278000000,IMU,7.208659709773505e-05,-7.592606606374732e-05,0.013805370674333305,0.9999046958482091,0.0,0.0,0.0,0.0,0.0,0.0,0.0,0.0,0.0,0.013958363562030536,-0.014351049529545093,0.02373952040252056,0.0,0.0,0.0,0.0,0.0,0.0,0.0,0.0,0.0,-0.005192255432452568,-0.05502943679608316,9.795503530101675,0.0,0.0,0.0,0.0,0.0,0.0,0.0,0.0,0.0
57.289,1235,57,288000000,IMU,8.111680104729202e-05,-8.683530232752603e-05,0.01422594753832902,0.9998987990273474,0.0,0.0,0.0,0.0,0.0,0.0,0.0,0.0,0.0,0.025933511680743232,-0.002302496639503644,0.08973686411099614,0.0,0.0,0.0,0.0,0.0,0.0,0.0,0.0,0.0,0.03918906515771814,0.008085824431949884,9.880413573279432,0.0,0.0,0.0,0.0,0.0,0.0,0.0,0.0,0.0
57.301,1236,57,300000000,IMU,8.953492993926012e-05,-0.00010100889810964006,0.014784338369262755,0.999890696586223,0.0,0.0,0.0,0.0,0.0,0.0,0.0,0.0,0.0,-0.03396440809401316,0.02831781940164809,0.06934652134198684,0.0,0.0,0.0,0.0,0.0,0.0,0.0,0.0,0.0,-0.07041488104614858,0.02669886854408641,9.80313976358652,0.0,0.0,0.0,0.0,0.0,0.0,0.0,0.0,0.0
57.313,1237,57,312000000,IMU,9.079056945050096e-05,-0.00010972460000200908,0.015297191007901174,0.9998829809857014,0.0,0.0,0.0,0.0,0.0,0.0,0.0,0.0,0.0,-0.0013623273276611382,-0.013745676718085853,0.11333538410676644,0.0,0.0,0.0,0.0,0.0,0.0,0.0,0.0,0.0,-0.09005536585606497,-0.01770763085547246,9.89723851571637,0.0,0.0,0.0,0.0,0.0,0.0,0.0,0.0,0.0
57.323,1238,57,322000000,IMU,8.764812839278353e-05,-0.00011283229284299677,0.015674068555240322,0.9998771440340082,0.0,0.0,0.0,0.0,0.0,0.0,0.0,0.0,0.0,0.04715823089190365,0.004824547971584846,0.09193386001921636,0.0,0.0,0.0,0.0,0.0,0.0,0.0,0.0,0.0,0.04540750522833449,-0.07997915603664685,9.803110711376846,0.0,0.0,0.0,0.0,0.0,0.0,0.0,0.0,0.0
57.335,1239,57,332000000,IMU,8.637592795630679e-05,-0.00011421975221148612,0.01613188674977673,0.9998698623935716,0.0,0.0,0.0,0.0,0.0,0.0,0.0,0.0,0.0,-0.022184681665399136,-0.03974585938738357,0.06026644650745943,0.0,0.0,0.0,0.0,0.0,0.0,0.0,0.0,0.0,-0.0029835007956973006,0.01931295114094965,9.870447607964978,0.0,0.0,0.0,0.0,0.0,0.0,0.0,0.0,0.0
57.343,1240,57,342000000,IMU,9.120984719523926e-05,-0.00011761946885590714,0.016510936341619688,0.9998636741214012,0.0,0.0,0.0,0.0,0.0,0.0,0.0,0.0,0.0,0.013977979697753308,-0.019893176499040145,0.08440959508330538,0.0,0.0,0.0,0.0,0.0,0.0,0.0,0.0,0.0,0.012769156613399668,-0.009472887477601156,9.794484728392662,0.0,0.0,0.0,0.0,0.0,0.0,0.0,0.0,0.0
57.353,1241,57,352000000,IMU,9.923036692825892e-05,-0.00012740116204990463,0.01694175126880238,0.9998564651919916,0.0,0.0,0.0,0.0,0.0,0.0,0.0,0.0,0.0,-0.08687034432570695,0.013131097561051644,0.07423483515051113,0.0,0.0,0.0,0.0,0.0,0.0,0.0,0.0,0.0,-0.005936691301337707,-0.07493756415637809,9.7945384496001,0.0,0.0,0.0,0.0,0.0,0.0,0.0,0.0,0.0
57.362,1242,57,362000000,IMU,0.00010547620178102977,-0.0001402651577000379,0.017381790524688266,0.9998489098651918,0.0,0.0,0.0,0.0,0.0,0.0,0.0,0.0,0.0,-0.021086536855182417,-0.07947085051376405,0.08492911709001844,0.0,0.0,0.0,0.0,0.0,0.0,0.0,0.0,0.0,0.04361784761964772,-0.07994305360102266,9.909316917743665,0.0,0.0,0.0,0.0,0.0,0.0,0.0,0.0,0.0
57.373,1243,57,372000000,IMU,0.00010818850703301666,-0.00015224039546406562,0.017826848718695262,0.9998410716623266,0.0,0.0,0.0,0.0,0.0,0.0,0.0,0.0,0.0,-0.030474886641746187,0.01841129711817874,0.09018474357332032,0.0,0.0,0.0,0.0,0.0,0.0,0.0,0.0,0.0,0.034882212729700365,0.059590083222302734,9.887763570327683,0.0,0.0,0.0,0.0,0.0,0.0,0.0,0.0,0.0
57.383,1244,57,382000000,IMU,0.000108776433981335,-0.00015880659305352114,0.018269889328707253,0.9998330731137426,0.0,0.0,0.0,0.0,0.0,0.0,0.0,0.0,0.0,-0.012619442521932072,0.02262291113928342,0.1047420615310337,0.0,0.0,0.0,0.0,0.0,0.0,0.0,0.0,0.0,0.04802491722273548,0.06024325371711799,9.881191116213026,0.0,0.0,0.0,0.0,0.0,0.0,0.0,0.0,0.0
57.393,1245,57,392000000,IMU,0.00010887121911423149,-0.00016079360645293068,0.018751740140896738,0.9998241518057873,0.0,0.0,0.0,0.0,0.0,0.0,0.0,0.0,0.0,0.00293162576458061,0.02985348089226856,0.1791473467972518,0.0,0.0,0.0,0.0,0.0,0.0,0.0,0.0,0.0,0.07508671830576318,0.012083851736250269,9.898439827333007,0.0,0.0,0.0,0.0,0.0,0.0,0.0,0.0,0.0
57.403,1246,57,402000000,IMU,0.00011004569327468612,-0.0001620069126610848,0.019145120026299277,0.9998166962113025,0.0,0.0,0.0,0.0,0.0,0.0,0.0,0.0,0.0,0.04976783545016811,0.01978291346719579,0.06453928536606501,0.0,0.0,0.0,0.0,0.0,0.0,0.0,0.0,0.0,-0.011831285010826314,-0.014540077226273582,9.914482047949964,0.0,0.0,0.0,0.0,0.0,0.0,0.0,0.0,0.0
57.413,1247,57,412000000,IMU,0.00011400636642008238,-0.00016763895444495155,0.019587179738293794,0.9998081322381958,0.0,0.0,0.0,0.0,0.0,0.0,0.0,0.0,0.0,0.014470550903304256,0.005370423458315685,0.054774989910978705,0.0,0.0,0.0,0.0,0.0,0.0,0.0,0.0,0.0,0.10467536568833448,-0.04415576557718963,9.935708960132693,0.0,0.0,0.0,0.0,0.0,0.0,0.0,0.0,0.0
57.423,1248,57,422000000,IMU,0.00011946034653979309,-0.00018101827471405708,0.02008227238366635,0.9997983073087882,0.0,0.0,0.0,0.0,0.0,0.0,0.0,0.0,0.0,-0.013731698427285723,0.001039757679948,0.08943801980256576,0.0,0.0,0.0,0.0,0.0,0.0,0.0,0.0,0.0,0.03076645365915451,0.020263163901755005,9.888409847799537,0.0,0.0,0.0,0.0,0.0,0.0,0.0,0.0,0.0
57.433,1249,57,432000000,IMU,0.00012236364391453704,-0.00019333593432758437,0.02049313537825872,0.9997899674685297,0.0,0.0,0.0,0.0,0.0,0.0,0.0,0.0,0.0,0.044382283691833294,-0.04082601286751138,0.06874129900010159,0.0,0.0,0.0,0.0,0.0,0.0,0.0,0.0,0.0,0.06474353023089878,-0.004151949396596001,9.911120142791066,0.0,0.0,0.0,0.0,0.0,0.0,0.0,0.0,0.0
57.443,1250,57,442000000,IMU,0.0001233575831716632,-0.00020481124596576832,0.020952391832650956,0.999780445953886,0.0,0.0,0.0,0.0,0.0,0.0,0.0,0.0,0.0,-0.019586171878110552,0.050438980909156626,0.09147596686779298,0.0,0.0,0.0,0.0,0.0,0.0,0.0,0.0,0.0,-0.03965889204453604,-0.11402998025815392,9.98304245023816,0.0,0.0,0.0,0.0,0.0,0.0,0.0,0.0,0.0
57.453,1251,57,452000000,IMU,0.00012372529781393908,-0.00021157137148373619,0.021411195679151982,0.9997707240308623,0.0,0.0,0.0,0.0,0.0,0.0,0.0,0.0,0.0,0.03646120844319659,0.025177598278523804,0.07907011013006349,0.0,0.0,0.0,0.0,0.0,0.0,0.0,0.0,0.0,0.09530984822005159,0.05083742350087642,9.832948816879465,0.0,0.0,0.0,0.0,0.0,0.0,0.0,0.0,0.0
57.463,1252,57,462000000,IMU,0.00012534452714480765,-0.00021510749200661985,0.021869141322788884,0.9997608107319073,0.0,0.0,0.0,0.0,0.0,0.0,0.0,0.0,0.0,-0.054931429083928306,0.04161383500705264,0.0660355505559421,0.0,0.0,0.0,0.0,0.0,0.0,0.0,0.0,0.0,-0.05056850234423968,-0.016862027720450277,9.94679738020511,0.0,0.0,0.0,0.0,0.0,0.0,0.0,0.0,0.0
57.473,1253,57,472000000,IMU,0.00012872255658295958,-0.00021976147768311142,0.02237457324470663,0.9997496254600517,0.0,0.0,0.0,0.0,0.0,0.0,0.0,0.0,0.0,-0.05722376246845796,-0.015790315702444793,0.03826447224794361,0.0,0.0,0.0,0.0,0.0,0.0,0.0,0.0,0.0,-0.005950155136455516,-0.04612673848124191,9.888136784259995,0.0,0.0,0.0,0.0,0.0,0.0,0.0,0.0,0.0
57.486,1254,57,482000000,IMU,0.00013231026434300152,-0.0002286923257716271,0.022838588652905417,0.999739130504632,0.0,0.0,0.0,0.0,0.0,0.0,0.0,0.0,0.0,-0.0475129587378915,0.051044553602651525,0.07777027969318041,0.0,0.0,0.0,0.0,0.0,0.0,0.0,0.0,0.0,0.06875273885091271,-0.020874054426518476,9.9616891558578,0.0,0.0,0.0,0.0,0.0,0.0,0.0,0.0,0.0
57.493,1255,57,492000000,IMU,0.00013467681936285192,-0.00024217583910406072,0.023260483256783298,0.9997293999536466,0.0,0.0,0.0,0.0,0.0,0.0,0.0,0.0,0.0,0.0030767978394700356,0.0004718063622509024,0.10512960156317801,0.0,0.0,0.0,0.0,0.0,0.0,0.0,0.0,0.0,0.11401042258973935,0.009417535709450794,9.94824454364273,0.0,0.0,0.0,0.0,0.0,0.0,0.0,0.0,0.0
57.503,1256,57,502000000,IMU,0.0001352263201104756,-0.00025774865180682756,0.023730682281445252,0.9997183453342906,0.0,0.0,0.0,0.0,0.0,0.0,0.0,0.0,0.0,0.05296882443717562,-0.017272574803717553,0.11540322141844114,0.0,0.0,0.0,0.0,0.0,0.0,0.0,0.0,0.0,0.050810504539093776,-0.08105090115639725,9.929548732442651,0.0,0.0,0.0,0.0,0.0,0.0,0.0,0.0,0.0
57.512,1257,57,512000000,IMU,0.00013430589353226362,-0.0002677879574104795,0.024201426318360957,0.9997070577002515,0.0,0.0,0.0,0.0,0.0,0.0,0.0,0.0,0.0,-0.0428437806556391,0.026629352359150735,0.1187508081098059,0.0,0.0,0.0,0.0,0.0,0.0,0.0,0.0,0.0,-0.0005366327251567389,-0.0766112521853097,9.940296885679446,0.0,0.0,0.0,0.0,0.0,0.0,0.0,0.0,0.0
57.522,1258,57,522000000,IMU,0.00013434013314689162,-0.0002725555567450079,0.024673899131058535,0.9996955068258873,0.0,0.0,0.0,0.0,0.0,0.0,0.0,0.0,0.0,-0.030379098580013034,-0.0224663827210782,0.12885235715838836,0.0,0.0,0.0,0.0,0.0,0.0,0.0,0.0,0.0,0.012633740461685935,-0.06893983638584236,10.062823175410887,0.0,0.0,0.0,0.0,0.0,0.0,0.0,0.0,0.0
57.533,1259,57,532000000,IMU,0.00013695332714253993,-0.0002759312266176735,0.025150104537065104,0.9996836386315018,0.0,0.0,0.0,0.0,0.0,0.0,0.0,0.0,0.0,0.006751607234665071,0.08883992264726145,0.054638532088421746,0.0,0.0,0.0,0.0,0.0,0.0,0.0,0.0,0.0,0.06393592435312821,-0.0019374574412019795,9.965995296591032,0.0,0.0,0.0,0.0,0.0,0.0,0.0,0.0,0.0
57.543,1260,57,542000000,IMU,0.00014103824514819253,-0.00028126752580224894,0.02563064398978072,0.9996714315641222,0.0,0.0,0.0,0.0,0.0,0.0,0.0,0.0,0.0,-0.07205294817435252,-0.0254141934419628,0.14396832927797665,0.0,0.0,0.0,0.0,0.0,0.0,0.0,0.0,0.0,0.035326401491051734,-0.08521669886145637,9.801148973753486,0.0,0.0,0.0,0.0,0.0,0.0,0.0,0.0,0.0
57.553,1261,57,552000000,IMU,0.00014425789376618488,-0.00029148143242402325,0.026161582142407033,0.9996576743305884,0.0,0.0,0.0,0.0,0.0,0.0,0.0,0.0,0.0,-0.011621287872481418,-0.019221427637241714,0.1577514431791197,0.0,0.0,0.0,0.0,0.0,0.0,0.0,0.0,0.0,-0.03249568334623155,0.04759890734016019,9.87404633236125,0.0,0.0,0.0,0.0,0.0,0.0,0.0,0.0,0.0
57.562,1262,57,562000000,IMU,0.00014417973092650254,-0.000303033672574366,0.026595078309497224,0.9996462320203634,0.0,0.0,0.0,0.0,0.0,0.0,0.0,0.0,0.0,-0.0035857604443202884,0.022883216797546815,0.11726525207986199,0.0,0.0,0.0,0.0,0.0,0.0,0.0,0.0,0.0,-0.008076178645686063,0.0613153219958165,9.822651550583435,0.0,0.0,0.0,0.0,0.0,0.0,0.0,0.0,0.0
57.576,1263,57,572000000,IMU,0.0001422677392795036,-0.0003157526603642879,0.027075174081348283,0.9996333402846328,0.0,0.0,0.0,0.0,0.0,0.0,0.0,0.0,0.0,-0.015218174000493849,-0.005379597466961986,0.10956659121321671,0.0,0.0,0.0,0.0,0.0,0.0,0.0,0.0,0.0,0.03952640068979188,0.053658314278780324,9.928929276747326,0.0,0.0,0.0,0.0,0.0,0.0,0.0,0.0,0.0
57.583,1264,57,582000000,IMU,0.00014055106316047586,-0.0003252855003929758,0.0275556506967007,0.9996202081537884,0.0,0.0,0.0,0.0,0.0,0.0,0.0,0.0,0.0,0.01792450044794368,-0.005335225191323054,0.15343078853210254,0.0,0.0,0.0,0.0,0.0,0.0,0.0,0.0,0.0,0.010427360537288684,0.033141123132495474,10.048905642725572,0.0,0.0,0.0,0.0,0.0,0.0,0.0,0.0,0.0
57.593,1265,57,592000000,IMU,0.00014134486627412568,-0.00033154064323065766,0.0280907758655012,0.9996053113172743,0.0,0.0,0.0,0.0,0.0,0.0,0.0,0.0,0.0,-0.014030975868867597,0.03286905848297514,0.08941455684293417,0.0,0.0,0.0,0.0,0.0,0.0,0.0,0.0,0.0,0.03962741245156402,-0.17228511632483037,9.935363056884032,0.0,0.0,0.0,0.0,0.0,0.0,0.0,0.0,0.0
57.603,1266,57,602000000,IMU,0.00014479709617384886,-0.00033568235928918083,0.028537235879470338,0.9995926632981627,0.0,0.0,0.0,0.0,0.0,0.0,0.0,0.0,0.0,-0.06483726493363398,0.002711668015294437,0.061188849547076124,0.0,0.0,0.0,0.0,0.0,0.0,0.0,0.0,0.0,0.0007136002172395692,-0.09217415958668095,9.951973644734071,0.0,0.0,0.0,0.0,0.0,0.0,0.0,0.0,0.0
57.613,1267,57,612000000,IMU,0.00014949246236281217,-0.0003424434858877256,0.029040026102385433,0.9995781796680215,0.0,0.0,0.0,0.0,0.0,0.0,0.0,0.0,0.0,0.00011866299579404245,0.014548318569164278,0.09597070116902819,0.0,0.0,0.0,0.0,0.0,0.0,0.0,0.0,0.0,-0.07893947000392498,0.11368204933524946,9.956691050532088,0.0,0.0,0.0,0.0,0.0,0.0,0.0,0.0,0.0
57.623,1268,57,622000000,IMU,0.00015138682373517972,-0.00035224523767479684,0.029541825016736828,0.9995634715114408,0.0,0.0,0.0,0.0,0.0,0.0,0.0,0.0,0.0,-0.003924974789442812,0.03565756109979033,0.07462669840766772,0.0,0.0,0.0,0.0,0.0,0.0,0.0,0.0,0.0,-0.06830362392608597,0.024363650633557415,9.857805737397847,0.0,0.0,0.0,0.0,0.0,0.0,0.0,0.0,0.0
57.633,1269,57,632000000,IMU,0.00014942603785245,-0.00036432114730539637,0.030036755532189662,0.9995487173014931,0.0,0.0,0.0,0.0,0.0,0.0,0.0,0.0,0.0,0.009587442299453415,-0.04101023192764938,0.08810614854927086,0.0,0.0,0.0,0.0,0.0,0.0,0.0,0.0,0.0,0.044591415203098374,-0.009801506518223287,9.845874748993594,0.0,0.0,0.0,0.0,0.0,0.0,0.0,0.0,0.0
57.643,1270,57,642000000,IMU,0.00014503919337002596,-0.00037619559137662623,0.030524473119914918,0.9995339383839156,0.0,0.0,0.0,0.0,0.0,0.0,0.0,0.0,0.0,-0.03152689623438272,-0.11045511100636757,0.07920602097025915,0.0,0.0,0.0,0.0,0.0,0.0,0.0,0.0,0.0,0.0797612918515216,-0.02177876646865648,9.856927324146204,0.0,0.0,0.0,0.0,0.0,0.0,0.0,0.0,0.0
57.655,1271,57,652000000,IMU,0.0001415954277717203,-0.0003851982466746877,0.031012998305552528,0.9995188970245363,0.0,0.0,0.0,0.0,0.0,0.0,0.0,0.0,0.0,0.02564145523790506,0.01701722724550028,0.09895552291626952,0.0,0.0,0.0,0.0,0.0,0.0,0.0,0.0,0.0,0.006009008291346112,0.006409336222854155,9.951689739147396,0.0,0.0,0.0,0.0,0.0,0.0,0.0,0.0,0.0
57.662,1272,57,662000000,IMU,0.0001427355987598343,-0.00039133280342876166,0.03151330103931871,0.9995032457890226,0.0,0.0,0.0,0.0,0.0,0.0,0.0,0.0,0.0,0.015918632464371273,0.0005304319504343853,0.1259285094245336,0.0,0.0,0.0,0.0,0.0,0.0,0.0,0.0,0.0,-0.03652660715040711,-0.015626891905884076,9.942284395235799,0.0,0.0,0.0,0.0,0.0,0.0,0.0,0.0,0.0
57.673,1273,57,672000000,IMU,0.00014712122725797478,-0.00039623558047964096,0.03202737419833047,0.9994869026929114,0.0,0.0,0.0,0.0,0.0,0.0,0.0,0.0,0.0,-0.02662950600665094,-0.002856322604653485,0.1065224646636779,0.0,0.0,0.0,0.0,0.0,0.0,0.0,0.0,0.0,-0.07823931483693126,-0.006127645480790058,9.986279010152414,0.0,0.0,0.0,0.0,0.0,0.0,0.0,0.0,0.0
57.683,1274,57,682000000,IMU,0.0001507739126965539,-0.00040458406227450845,0.03254941654362406,0.9994700340988885,0.0,0.0,0.0,0.0,0.0,0.0,0.0,0.0,0.0,0.014874341323153479,0.03680093797656819,0.11619500813177919,0.0,0.0,0.0,0.0,0.0,0.0,0.0,0.0,0.0,-0.05266672011576086,-0.08458412246914927,9.940327615578203,0.0,0.0,0.0,0.0,0.0,0.0,0.0,0.0,0.0
57.693,1275,57,692000000,IMU,0.00015079135750041336,-0.00041721674067464725,0.03311991159297835,0.9994512867810172,0.0,0.0,0.0,0.0,0.0,0.0,0.0,0.0,0.0,-0.009209214138491434,-0.05051748596268915,0.16603704719504642,0.0,0.0,0.0,0.0,0.0,0.0,0.0,0.0,0.0,0.16335805910096732,-0.016067430078925065,9.815572365227284,0.0,0.0,0.0,0.0,0.0,0.0,0.0,0.0,0.0
57.703,1276,57,702000000,IMU,0.00014701680634712577,-0.0004276143346979762,0.033575588700506975,0.9994360786841018,0.0,0.0,0.0,0.0,0.0,0.0,0.0,0.0,0.0,-0.03162182520589016,-0.0422559571165069,0.08037104646057058,0.0,0.0,0.0,0.0,0.0,0.0,0.0,0.0,0.0,-0.07428432001651362,0.009688358526806336,9.96302886414941,0.0,0.0,0.0,0.0,0.0,0.0,0.0,0.0,0.0
57.713,1277,57,712000000,IMU,0.0001419001550720115,-0.0004373810654215782,0.034075178863084664,0.9994191666901323,0.0,0.0,0.0,0.0,0.0,0.0,0.0,0.0,0.0,0.05085218639899148,0.03741070009545043,0.07543730160549886,0.0,0.0,0.0,0.0,0.0,0.0,0.0,0.0,0.0,0.0006611111597296885,-0.03427148759090297,9.958083376989523,0.0,0.0,0.0,0.0,0.0,0.0,0.0,0.0,0.0
57.723,1278,57,722000000,IMU,0.00013983324700633538,-0.00044456931970283145,0.03457851718341281,0.9994018756006912,0.0,0.0,0.0,0.0,0.0,0.0,0.0,0.0,0.0,0.0505251942883595,0.001492416290919639,0.11894432099016929,0.0,0.0,0.0,0.0,0.0,0.0,0.0,0.0,0.0,0.022787287829911348,0.01883223915575537,9.96605534697964,0.0,0.0,0.0,0.0,0.0,0.0,0.0,0.0,0.0
57.733,1279,57,732000000,IMU,0.0001421566413910124,-0.00045114398990355646,0.035097000344910326,0.9993837985615831,0.0,0.0,0.0,0.0,0.0,0.0,0.0,0.0,0.0,0.04560511944395076,0.054803614957418104,0.11136247275657539,0.0,0.0,0.0,0.0,0.0,0.0,0.0,0.0,0.0,0.0667401483117514,0.06369556468832735,9.959067606673681,0.0,0.0,0.0,0.0,0.0,0.0,0.0,0.0,0.0
57.743,1280,57,742000000,IMU,0.0001465332493191759,-0.0004593026788988723,0.035632004392225435,0.999364862216022,0.0,0.0,0.0,0.0,0.0,0.0,0.0,0.0,0.0,0.00593094446867527,-0.012285757484474052,0.14555373228662233,0.0,0.0,0.0,0.0,0.0,0.0,0.0,0.0,0.0,0.01754873686173258,-0.04010980380063853,9.903463222317237,0.0,0.0,0.0,0.0,0.0,0.0,0.0,0.0,0.0
57.753,1281,57,752000000,IMU,0.000148965130819421,-0.0004694515933699142,0.03617340136326967,0.9993454069831927,0.0,0.0,0.0,0.0,0.0,0.0,0.0,0.0,0.0,0.01842309065940224,0.020603450056130013,0.1884000663992735,0.0,0.0,0.0,0.0,0.0,0.0,0.0,0.0,0.0,0.01051508997253026,0.027712028517878993,9.90329216653671,0.0,0.0,0.0,0.0,0.0,0.0,0.0,0.0,0.0
57.763,1282,57,762000000,IMU,0.00014710697184726996,-0.00048148401366006376,0.03675914021625978,0.9993240276022812,0.0,0.0,0.0,0.0,0.0,0.0,0.0,0.0,0.0,-0.018258989419040316,0.028240847613461743,0.14308375486517896,0.0,0.0,0.0,0.0,0.0,0.0,0.0,0.0,0.0,0.012286410107303107,-0.05441837236002313,9.843565851732208,0.0,0.0,0.0,0.0,0.0,0.0,0.0,0.0,0.0
57.773,1283,57,772000000,IMU,0.00014268217420749043,-0.0004900746332407627,0.037224529339916136,0.9993067966766126,0.0,0.0,0.0,0.0,0.0,0.0,0.0,0.0,0.0,0.03887412522225119,-0.013245165903532656,0.14027377441749747,0.0,0.0,0.0,0.0,0.0,0.0,0.0,0.0,0.0,0.0291223621656085,-0.03288028806533525,9.959092646509417,0.0,0.0,0.0,0.0,0.0,0.0,0.0,0.0,0.0
57.785,1284,57,784000000,IMU,0.0001370779047460796,-0.0004997486423449169,0.03788751174180304,0.9992818761065154,0.0,0.0,0.0,0.0,0.0,0.0,0.0,0.0,0.0,0.004574935812058732,0.027034765508661324,0.013475135056639748,0.0,0.0,0.0,0.0,0.0,0.0,0.0,0.0,0.0,-0.025623263624379174,0.0176944839937831,9.917949165057802,0.0,0.0,0.0,0.0,0.0,0.0,0.0,0.0,0.0
57.795,1285,57,794000000,IMU,0.00013744089055385295,-0.0005066062572348761,0.03840986909219063,0.9992619308351653,0.0,0.0,0.0,0.0,0.0,0.0,0.0,0.0,0.0,-0.0008892852412684332,-0.036153456970054516,0.10585680549978194,0.0,0.0,0.0,0.0,0.0,0.0,0.0,0.0,0.0,0.10985690819759297,-0.0548475490106749,9.993334171313132,0.0,0.0,0.0,0.0,0.0,0.0,0.0,0.0,0.0
57.805,1286,57,804000000,IMU,0.0001415892508019337,-0.0005143731687667133,0.03890016090536316,0.9992429598722546,0.0,0.0,0.0,0.0,0.0,0.0,0.0,0.0,0.0,0.03755924670377001,-0.0002610859969736164,0.09366020693492384,0.0,0.0,0.0,0.0,0.0,0.0,0.0,0.0,0.0,0.01976204897941689,0.0014554908546950403,9.848934274976953,0.0,0.0,0.0,0.0,0.0,0.0,0.0,0.0,0.0
57.815,1287,57,814000000,IMU,0.00014591447035251478,-0.0005262312676520967,0.03951688396987306,0.9992187536625461,0.0,0.0,0.0,0.0,0.0,0.0,0.0,0.0,0.0,-0.03613896649547513,-0.044738032014147736,0.11554470071901327,0.0,0.0,0.0,0.0,0.0,0.0,0.0,0.0,0.0,-0.0712913134927543,0.004599056423709723,9.929189034557055,0.0,0.0,0.0,0.0,0.0,0.0,0.0,0.0,0.0
57.825,1288,57,824000000,IMU,0.00014556403474189498,-0.000536743250172089,0.04002029764489523,0.9991987122160482,0.0,0.0,0.0,0.0,0.0,0.0,0.0,0.0,0.0,-0.05312334295610835,-0.04795886457446497,0.1165642894877518,0.0,0.0,0.0,0.0,0.0,0.0,0.0,0.0,0.0,-0.01928535648566896,-0.09012155903612118,9.94037033898113,0.0,0.0,0.0,0.0,0.0,0.0,0.0,0.0,0.0
57.835,1289,57,834000000,IMU,0.00014130957747409355,-0.00054648272758934,0.04056191325615542,0.9991768675170738,0.0,0.0,0.0,0.0,0.0,0.0,0.0,0.0,0.0,0.020972073650722248,0.027402369496941425,0.13649611131360767,0.0,0.0,0.0,0.0,0.0,0.0,0.0,0.0,0.0,-0.09336392132463797,-0.04575182553480434,9.978386693633365,0.0,0.0,0.0,0.0,0.0,0.0,0.0,0.0,0.0
57.847,1290,57,846000000,IMU,0.00013445226809848592,-0.0005551510364870116,0.041241024908089965,0.9991490637509723,0.0,0.0,0.0,0.0,0.0,0.0,0.0,0.0,0.0,-0.020547439475828818,0.08810083602386978,0.08438810465692873,0.0,0.0,0.0,0.0,0.0,0.0,0.0,0.0,0.0,0.03653629988339405,-0.01321632430621846,9.9863811933037,0.0,0.0,0.0,0.0,0.0,0.0,0.0,0.0,0.0
57.857,1291,57,856000000,IMU,0.0001321606112033341,-0.0005603536210075902,0.0417113802169116,0.9991295357949302,0.0,0.0,0.0,0.0,0.0,0.0,0.0,0.0,0.0,-0.030321432756027927,-0.015209194270374394,0.09943615146508923,0.0,0.0,0.0,0.0,0.0,0.0,0.0,0.0,0.0,0.043677608318000216,0.037999037060826336,9.998387475006197,0.0,0.0,0.0,0.0,0.0,0.0,0.0,0.0,0.0
57.867,1292,57,866000000,IMU,0.00013398344314818826,-0.0005684127000494634,0.04225433180464393,0.9991067162216369,0.0,0.0,0.0,0.0,0.0,0.0,0.0,0.0,0.0,0.008121689516894435,-0.0037653013261186212,0.0875703607869744,0.0,0.0,0.0,0.0,0.0,0.0,0.0,0.0,0.0,-0.018365999948912318,0.08015574039530445,10.040555570199256,0.0,0.0,0.0,0.0,0.0,0.0,0.0,0.0,0.0
57.877,1293,57,876000000,IMU,0.00013882264630044822,-0.0005804965000632099,0.04282633889570428,0.9990823531866013,0.0,0.0,0.0,0.0,0.0,0.0,0.0,0.0,0.0,-0.04110767391173018,0.0005556677819188631,0.14721651629761798,0.0,0.0,0.0,0.0,0.0,0.0,0.0,0.0,0.0,0.04040550429721845,-0.04291219629319413,9.929360821573411,0.0,0.0,0.0,0.0,0.0,0.0,0.0,0.0,0.0
57.888,1294,57,886000000,IMU,0.00014085804875656847,-0.000593550832457488,0.04340559280122885,0.9990573468875515,0.0,0.0,0.0,0.0,0.0,0.0,0.0,0.0,0.0,-0.02238677608437824,0.005829101320708034,0.08524921138625256,0.0,0.0,0.0,0.0,0.0,0.0,0.0,0.0,0.0,-0.020776085595219956,-0.025276101684026116,9.954322890173156,0.0,0.0,0.0,0.0,0.0,0.0,0.0,0.0,0.0
57.897,1295,57,896000000,IMU,0.00013713004791065348,-0.0006035337079931673,0.043972090351930664,0.9990325681440496,0.0,0.0,0.0,0.0,0.0,0.0,0.0,0.0,0.0,0.06652397102491268,0.062105275847752876,0.1562817686780913,0.0,0.0,0.0,0.0,0.0,0.0,0.0,0.0,0.0,0.019295804577002154,0.028552633037626812,10.004687564373022,0.0,0.0,0.0,0.0,0.0,0.0,0.0,0.0,0.0
57.907,1296,57,906000000,IMU,0.0001304215841139693,-0.0006096163867630783,0.044514104357292604,0.999008561460481,0.0,0.0,0.0,0.0,0.0,0.0,0.0,0.0,0.0,0.023259505877438004,0.026004178896385483,0.17371846885286926,0.0,0.0,0.0,0.0,0.0,0.0,0.0,0.0,0.0,0.07888740753204032,-0.02303681161591077,9.870507952289831,0.0,0.0,0.0,0.0,0.0,0.0,0.0,0.0,0.0
57.919,1297,57,916000000,IMU,0.00012543215667784556,-0.0006139332740073514,0.04504378309573337,0.9989848171804885,0.0,0.0,0.0,0.0,0.0,0.0,0.0,0.0,0.0,0.021858062656517293,-0.007857825303261883,0.12550962875092384,0.0,0.0,0.0,0.0,0.0,0.0,0.0,0.0,0.0,-0.0011208101942658706,-0.003591631240180429,9.933068011052171,0.0,0.0,0.0,0.0,0.0,0.0,0.0,0.0,0.0
57.927,1298,57,926000000,IMU,0.00012454548271377135,-0.0006192902690306021,0.0455788032810575,0.9989605465980388,0.0,0.0,0.0,0.0,0.0,0.0,0.0,0.0,0.0,0.05155717705429315,-0.011887539063570957,0.1437015975370916,0.0,0.0,0.0,0.0,0.0,0.0,0.0,0.0,0.0,-0.0262904647623049,0.0820843732397924,9.959118286375825,0.0,0.0,0.0,0.0,0.0,0.0,0.0,0.0,0.0
57.936,1299,57,936000000,IMU,0.00012712271081352782,-0.0006296724922841444,0.04614249737848271,0.9989346611706121,0.0,0.0,0.0,0.0,0.0,0.0,0.0,0.0,0.0,0.040552020524820105,-0.05466813292901199,0.18449134402060155,0.0,0.0,0.0,0.0,0.0,0.0,0.0,0.0,0.0,-0.018358187195091483,-0.0238658902269387,9.877480555911653,0.0,0.0,0.0,0.0,0.0,0.0,0.0,0.0,0.0
57.945,1300,57,946000000,IMU,0.0001290923053721923,-0.0006431763948353767,0.04672784099559348,0.9989074424265707,0.0,0.0,0.0,0.0,0.0,0.0,0.0,0.0,0.0,0.015158132650021854,0.020867207251815657,0.11450497602336011,0.0,0.0,0.0,0.0,0.0,0.0,0.0,0.0,0.0,-0.09027618918399732,0.025048029032326644,9.9938578013048,0.0,0.0,0.0,0.0,0.0,0.0,0.0,0.0,0.0
57.956,1301,57,956000000,IMU,0.00012742102506667986,-0.0006562766245835414,0.04737402969039257,0.9988769966195878,0.0,0.0,0.0,0.0,0.0,0.0,0.0,0.0,0.0,-0.012058765273553129,-0.07099671064789577,0.11808597904317275,0.0,0.0,0.0,0.0,0.0,0.0,0.0,0.0,0.0,-0.0340845862347478,0.05425845407245553,9.922139512165009,0.0,0.0,0.0,0.0,0.0,0.0,0.0,0.0,0.0
