Time,header.seq,header.stamp.secs,header.stamp.nsecs,header.frame_id,position_controller_output.thrust.num,position_controller_output.orientation_set_point.w,position_controller_output.orientation_set_point.x,position_controller_output.orientation_set_point.y,position_controller_output.orientation_set_point.z,position_controller_output.euler_set_point.phi,position_controller_output.euler_set_point.theta,position_controller_output.euler_set_point.psi
385.76,1,385,760000000,,10.065895912275383,0.9999999999955956,-1.5426205682719894e-06,-1.0724436935387116e-06,2.2975871728608598e-06,-3.0852460646081294e-06,-2.1448802984591604e-06,4.595177654475623e-06
385.76,2,385,760000000,,10.065972134290012,0.9999999999558442,-1.5211618430203137e-06,-1.3111568027706541e-06,9.180330137766224e-06,-3.042347759626068e-06,-2.6222856758927e-06,1.836066426477985e-05
385.77,3,385,770000000,,10.066152236680686,0.9999999997843313,-1.5767534637269423e-06,-1.767138176648927e-06,2.063319236273789e-05,-3.153579850202555e-06,-3.534211285627927e-06,4.126639030122831e-05
385.78,4,385,780000000,,10.06662444771823,0.9999999993245092,-1.6390677354940435e-06,-2.3920584244286917e-06,3.664113918785839e-05,-3.2783107643084734e-06,-4.783996731025935e-06,7.328228623413667e-05
385.79,5,385,790000000,,10.06738086439162,0.9999999983582312,-1.6922896066376859e-06,-3.1743903437117583e-06,5.718913586296621e-05,-3.3849422890746507e-06,-6.348587115882464e-06,0.00011437828253382054
385.8,6,385,800000000,,10.06839875897828,0.9999999966065203,-1.7319726972943461e-06,-4.110803481306059e-06,8.226214762075784e-05,-3.4646217100035207e-06,-8.221321983217474e-06,0.00016452430967059555
385.81,7,385,810000000,,10.06965757773776,0.9999999937302756,-1.755257602264047e-06,-5.199294765977309e-06,0.00011184513969373966,-3.5116782144140138e-06,-1.0398196832882258e-05,0.00022369029811477746
385.82,8,385,820000000,,10.071138744432982,0.9999999893309564,-1.7598466112604062e-06,-6.437830364302463e-06,0.0001459230773120316,-3.5215720413041585e-06,-1.2875146987123432e-05,0.00029184617833668175
385.83,9,385,830000000,,10.07282548150007,0.9999999829512666,-1.7445159146286364e-06,-7.823751611456705e-06,0.0001844809256915829,-3.4919184360875742e-06,-1.564685929696013e-05,0.000368961880806624
385.84,10,385,840000000,,10.074703008755511,0.9999999740758314,-1.709956842896941e-06,-9.354238549377614e-06,0.00022750365001007075,-3.424169844567443e-06,-1.8707698571998488e-05,0.0004550073359949203
385.85,11,385,850000000,,10.076758133631383,0.9999999621318609,-1.6583696900551349e-06,-1.1027579876980865e-05,0.0002749762153831141,-3.322803899684539e-06,-2.2054246896119546e-05,0.0005499524743718857
385.86,12,385,860000000,,10.076699258269377,0.9999999464916393,-1.3944424157650276e-06,-1.2723719723597347e-05,0.00032688358956095575,-2.7972030335623117e-06,-2.544652644760553e-05,0.0006537672264078361
385.87,13,385,870000000,,10.077048772343707,0.9999999264679159,-1.136835078062968e-06,-1.457404214395956e-05,0.0003832107352173081,-2.284839848720923e-06,-2.9147210853914617e-05,0.0007664215225730872
385.88,14,385,880000000,,10.07774785570294,0.9999999013198317,-8.591591352976507e-07,-1.6569267817279774e-05,0.0004439426176682787,-1.7330297102390631e-06,-3.3137769535797076e-05,0.0008878852933379549
385.89,15,385,890000000,,10.0787683730573,0.9999998702516796,-5.589197101615217e-07,-1.8706952523648725e-05,0.0005090642018765316,-1.1368853557931695e-06,-3.741333114960203e-05,0.001018128469172754
385.9,16,385,900000000,,10.080084858797655,0.9999998324137424,-2.3534136823445417e-07,-2.0981765245422905e-05,0.000578560452676849,-4.949610972214647e-07,-4.196325115223331e-05,0.001157120980547801
385.91,17,385,910000000,,10.081359125107737,0.9999997869024222,1.074911995645867e-07,-2.340993494351193e-05,0.0006524163346635656,1.844363056179813e-07,-4.682000018495763e-05,0.001304832757933411
385.92,18,385,920000000,,10.082219811132516,0.9999997327574537,4.775948062975938e-07,-2.6150833829296878e-05,0.0007306168126393852,9.169768808617773e-07,-5.230235158279897e-05,0.0014612337317998997
385.93,19,385,930000000,,10.083413062562169,0.9999996689683441,8.850041840925488e-07,-2.9233832018096292e-05,0.0008131468515288791,1.7224649882741084e-06,-5.846908399159077e-05,0.0016262938326175836
385.94,20,385,940000000,,10.084664099858477,0.999999594496947,1.034102667015994e-06,-3.194279578395198e-05,0.0008999914055869345,2.010708016121271e-06,-6.388742707258767e-05,0.0017999829908567774
385.95,21,385,950000000,,10.08590576795811,0.9999995082180505,1.4582833023867206e-06,-3.481436614759426e-05,0.0009911354551884778,2.847553672088155e-06,-6.963158882187301e-05,0.0019822711369877964
385.96,22,385,960000000,,10.08723589187258,0.9999994089642492,1.6447796106740017e-06,-3.804255126764257e-05,0.0010865639471511214,3.20688595705936e-06,-7.60886319561403e-05,0.002173128201480957
385.97,23,385,970000000,,10.088602547468303,0.999999295537079,2.2413412183061104e-06,-4.1268642970981225e-05,0.0011862618686511023,4.384768458625116e-06,-8.254254552647952e-05,0.002372524114806576
385.98,24,385,980000000,,10.090049928897056,0.9999991666782346,2.7656705573295673e-06,-4.452634983174619e-05,0.0012902141650702702,5.416439472235717e-06,-8.905976218632914e-05,0.002580428807434966
385.99,25,385,990000000,,10.09158569945234,0.9999990210715367,3.2855837392580866e-06,-4.802484723924833e-05,0.0013984058021037186,6.436844625506041e-06,-9.605878975917244e-05,0.0027968122098364447
386.0,26,386,0,,10.09318541849945,0.9999988573697153,3.7835046474012953e-06,-5.160055126004553e-05,0.0015108217406843137,7.411082218700901e-06,-0.00010321241718479071,0.0030216442524813284
386.01,27,386,10000000,,10.094863288922294,0.9999986741686643,4.291595085709249e-06,-5.53076745024537e-05,0.0016274469444187267,8.403158231333398e-06,-0.00011062917125989095,0.00325489486583993
386.02,28,386,20000000,,10.096618394987559,0.9999984700210204,4.805462400239613e-06,-5.913720706913859e-05,0.0017482663746418775,9.404134980681446e-06,-0.00011829103591343746,0.0034965339803825677
386.03,29,386,30000000,,10.098454767294333,0.999998243432875,5.340089506441931e-06,-6.309446947175667e-05,0.0018732649934707437,1.0443775013913851e-05,-0.00012620872442469606,0.003746531526579556
386.04,30,386,40000000,,10.100371621845525,0.9999979928655159,5.8928707914871096e-06,-6.718089781958576e-05,0.0020024277616171393,1.1516668241963688e-05,-0.0001343851264576001,0.004004857434901211
386.05,31,386,50000000,,10.102370745489944,0.9999977167367647,6.453368028148441e-06,-7.138492335844512e-05,0.002135739638639384,1.2601787494800339e-05,-0.0001427970866488451,0.004271481635817849
386.06,32,386,60000000,,10.104453844844645,0.9999974134190754,7.037023168616005e-06,-7.57161327238065e-05,0.0022731855854814316,1.372977644850075e-05,-0.0001514638672541968,0.0045463740597997855
386.07,33,386,70000000,,10.106621910356736,0.9999970812425956,7.617902231959573e-06,-8.01747653493905e-05,0.002414750559452765,1.484855606686414e-05,-0.00016038585403237144,0.004829504637317332
386.08,34,386,80000000,,10.108876230074316,0.9999967184960711,8.229538020981735e-06,-8.474218073031946e-05,0.0025604195217206983,1.60250711946891e-05,-0.00016952594824865057,0.005120843298840811
386.09,35,386,90000000,,10.111218151600687,0.9999963234238636,8.861789518130693e-06,-8.943446336545802e-05,0.002710177429800651,1.7238747622823828e-05,-0.00017891630410411748,0.005420359974840536
386.1,36,386,100000000,,10.113648955347308,0.99999589423013,9.50747497318678e-06,-9.425264160719327e-05,0.00286400924057184,1.8474991331827773e-05,-0.00018855896936478264,0.005728024595786816
386.11,37,386,110000000,,10.116169979818793,0.9999954290788508,1.015591653319838e-05,-9.919273187443335e-05,0.0030218999097163606,1.9712239597036073e-05,-0.00019844593857355725,0.006043807092149973
386.12,38,386,120000000,,10.118783115516068,0.9999949260946839,1.0819880490177717e-05,-0.00010424186876570039,0.003183834394345874,2.0975873945740915e-05,-0.0002085515786317334,0.006367677394400325
386.13,39,386,130000000,,10.12148850812695,0.9999943833607005,1.1484439084221268e-05,-0.00010941149821748017,0.0033497976482845145,2.223573693625363e-05,-0.0002188987102273399,0.006699605433008183
386.14,40,386,140000000,,10.124288221528936,0.9999937989222802,1.2168322548329077e-05,-0.00011469736707310352,0.0035197746279870983,2.3529077039887475e-05,-0.00022947897317165706,0.0070395611384438655
386.15,41,386,150000000,,10.127183602134643,0.9999931707872975,1.286434247197031e-05,-0.00012009203817553065,0.0036937502863390458,2.48413299561232e-05,-0.00024027747373229545,0.007387514441177684
386.16,42,386,160000000,,10.130175548719583,0.999992496924042,1.3560689005097816e-05,-0.00012560531779135927,0.003871709574842177,2.614856072208168e-05,-0.000251313759474601,0.007743435271679955
386.17,43,386,170000000,,10.133266150714817,0.9999917752651354,1.4279707263289833e-05,-0.00013123113857380666,0.004053637448161515,2.749525366890157e-05,-0.00026257589099445825,0.008107293560421
386.18,44,386,180000000,,10.136456571211022,0.9999910037062689,1.5008877504807149e-05,-0.00013697128595278974,0.0042395188558686115,2.8856101349791928e-05,-0.00027406737170711156,0.00847905923787113
386.19,45,386,190000000,,10.139748142020263,0.9999901801069414,1.574287237558874e-05,-0.00014282895345584478,0.004429338747352825,3.0220161167728525e-05,-0.0002857945667013549,0.008858702234500663
386.2,46,386,200000000,,10.143142584980364,0.9999893022923994,1.648705118755843e-05,-0.0001487988220180031,0.004623082072366902,3.159793270077707e-05,-0.0002977469068043409,0.00924619248077991
386.21,47,386,210000000,,10.146640366108777,0.9999883680543503,1.726642769438689e-05,-0.00015486660250736638,0.004820733782667715,3.303931397193407e-05,-0.0003098960808776857,0.009641499907179189
386.22,48,386,220000000,,10.150242969710702,0.9999873751467138,1.8014035291612654e-05,-0.00016105335024038938,0.005022278815270545,3.440990786985107e-05,-0.000322283582525677,0.010044594444168812
386.23,49,386,230000000,,10.15395281883073,0.9999863212931402,1.880645572045846e-05,-0.00016734213975124775,0.005227702127894519,3.586276924335074e-05,-0.00033487633681048083,0.010455446022219102
386.24,50,386,240000000,,10.157772316873281,0.9999852041803411,1.9589962657073367e-05,-0.000173755512088695,0.005436988657032133,3.728993438136752e-05,-0.0003477189102834884,0.010874024571800376
386.25,51,386,250000000,,10.161698491539509,0.9999840214751536,2.038901995306362e-05,-0.000180235413474229,0.005650123349386703,3.8740686226885156e-05,-0.0003606954759329629,0.011300300023382939
386.26,52,386,260000000,,10.16573694928457,0.9999827707806672,2.1190175854352394e-05,-0.0001869071083079402,0.005867091147150719,4.0186422269566405e-05,-0.0003740564341979606,0.011734242307437118
386.27,53,386,270000000,,10.169887339173163,0.9999814497023825,2.20397123632728e-05,-0.00019369826091927803,0.006087876999124931,4.172018781218236e-05,-0.00038765769534314273,0.012175821354433222
386.28,54,386,280000000,,10.174151391128326,0.9999800558114518,2.2938134045976236e-05,-0.0002005694863694005,0.006312465845373144,4.3343180568048024e-05,-0.00040142057550365503,0.012625007094841567
386.29,55,386,290000000,,10.178531334608323,0.9999785866481998,2.3891441509836336e-05,-0.00020748978592127575,0.006540842625883073,4.506754765704443e-05,-0.0004152832379936684,0.013081769459132466
386.3,56,386,300000000,,10.183027822127112,0.9999770397223088,2.497433130923366e-05,-0.00021442918209060646,0.0067729922941454235,4.7042865737454674e-05,-0.00042918683255723015,0.013546078377776242
386.31,57,386,310000000,,10.187642448469637,0.9999754125197388,2.6086194353025034e-05,-0.00022135845727872333,0.007008899765436881,4.906815227591288e-05,-0.00044307171480376865,0.014017903781243204
386.32,58,386,320000000,,10.192375994437214,0.9999737024834843,2.7378309016697977e-05,-0.0002282863677685888,0.007248550009106428,5.14456931578814e-05,-0.00045695765079517895,0.014497215600003673
386.33,59,386,330000000,,10.197228738268967,0.9999719070366159,2.8861360799345363e-05,-0.00023520195980939392,0.007491927963708837,5.419687375031962e-05,-0.00047082317644569723,0.014983983764527958
386.34,60,386,340000000,,10.202204047291096,0.9999700236124356,3.042997059171352e-05,-0.00024195593985334445,0.007739018534978199,5.711312054667902e-05,-0.0004843683889293241,0.015478178205286384
386.35,61,386,350000000,,10.20730532743714,0.9999680495523351,3.2182881424887814e-05,-0.000248652294582426,0.007989806680851466,6.039034632521785e-05,-0.0004978029906225494,0.01597976885274926
386.36,62,386,360000000,,10.212526506662568,0.9999659821441904,3.416334626060175e-05,-0.0002554960957249297,0.008244277349491078,6.411161527589566e-05,-0.0005115381351038273,0.01648872563738691
386.37,63,386,370000000,,10.217872385938104,0.9999638187544658,3.626864513508763e-05,-0.00026229422083168946,0.008502415439909719,6.807440635540696e-05,-0.0005251862277197898,0.017005018489669628
386.38,64,386,380000000,,10.223355837757024,0.9999615567468811,3.9006242882728265e-05,-0.00026870052812072014,0.008764206004707566,7.329960382390469e-05,-0.0005380641402555587,0.01752861734006776
386.39,65,386,390000000,,10.22896143669298,0.999959193154266,4.1388906124458646e-05,-0.00027573132294656937,0.009029633739252321,7.779494057295141e-05,-0.0005521876238297263,0.01805949211905159
386.4,66,386,400000000,,10.234704238606023,0.999956725580009,4.486930580549573e-05,-0.00028183591991049823,0.009298683915797214,8.4493335515898e-05,-0.000564481928211215,0.01859761275709146
386.41,67,386,410000000,,10.240563713711186,0.9999541509983054,4.773969358011112e-05,-0.0002881895869267418,0.009571341021062435,8.995830300528701e-05,-0.0005772666452798366,0.01914294918465767
386.42,68,386,420000000,,10.246556407098248,0.9999514666687451,5.174174361087768e-05,-0.00029426528853703865,0.009847590454386124,9.76828738599441e-05,-0.0005895211108721279,0.019695471332220542
386.43,69,386,430000000,,10.252722578681466,0.9999486700862372,5.572725387873769e-05,-0.00029919380110190953,0.0101274167638247,0.00010538868530592186,-0.0005994856691775673,0.020255149130250394
386.44,70,386,440000000,,10.258987933333367,0.9999457577835619,5.867893009213737e-05,-0.0003052767142390571,0.010410804655222346,0.00011099516295504158,-0.0006117421386192505,0.020821952509217544
386.45,71,386,450000000,,10.265398426771627,0.9999427270775708,6.287027426770863e-05,-0.0003114123539202292,0.010697739683926769,0.0001190705538864801,-0.0006241342170264647,0.021395851399592283
386.46,72,386,460000000,,10.271973943642882,0.9999395756153687,6.67217530584256e-05,-0.00031621322764907735,0.010988206202951979,0.00012648623632265395,-0.0006338545885245577,0.021976815731844956
386.47,73,386,470000000,,10.27864631596683,0.9999362995771413,7.002506189081164e-05,-0.00032263152508344085,0.011282189209692832,0.0001327612508680358,-0.0006468020637316628,0.022564815436445864
386.48,74,386,480000000,,10.285429597095085,0.999932896487347,7.476214390611481e-05,-0.00032875469344928503,0.011579674149037135,0.00014190054106403958,-0.0006591967559806045,0.023159820443865334
386.49,75,386,490000000,,10.29240614979548,0.9999293635974895,7.999557885458844e-05,-0.0003341799051499916,0.01188064560610796,0.0001520393451985554,-0.000670213448187344,0.023761800684573668
386.5,76,386,500000000,,10.29956330353586,0.9999256979340612,8.588319094134683e-05,-0.00033889905725239817,0.012185088534236877,0.00016349462776272156,-0.0006798407936435775,0.024370726089041197
386.51,77,386,510000000,,10.306865372698367,0.9999218966834391,9.183273618353213e-05,-0.0003425792382425704,0.012492987601369073,0.0001750914933944152,-0.0006873995479396299,0.024986566587738217
386.52,78,386,520000000,,10.314309653413298,0.999917956872831,9.662615874586572e-05,-0.00034552746879982946,0.012804327292632825,0.000184388014250397,-0.0006934727627971141,0.025609292111135065
386.53,79,386,530000000,,10.321908453819534,0.999913874908293,0.00010059644891885353,-0.0003493592918803846,0.013119092740058501,0.00019200906457801588,-0.000701297932329288,0.026238872589702047
386.54,80,386,540000000,,10.329611341982055,0.9999096476090216,0.00010584408623819566,-0.00035383918056626647,0.013437269561415794,0.00020215983343983105,-0.0007104589915046851,0.02687527795390947
386.55,81,386,550000000,,10.337485467243194,0.9999052724406908,0.00011151542450605512,-0.0003577284374868973,0.013758842247176772,0.00021316592019723912,-0.0007184578095671674,0.027518478134227663
386.56,82,386,560000000,,10.345533863145448,0.9999007462984902,0.00011737416534829273,-0.0003612147361210435,0.014083795615594318,0.00022455054303201607,-0.0007256639796412011,0.028168443061126924
386.57,83,386,570000000,,10.353738548061628,0.9998960661514739,0.00012307890086601665,-0.00036428596427912183,0.014412114422522883,0.00023563202092163194,-0.0007320439250606341,0.02882514266507758
386.58,84,386,580000000,,10.362073322027847,0.9998912287914911,0.00012876833104067688,-0.0003672178364097584,0.014743783626320249,0.00024668035856600793,-0.0007381529192182464,0.029488546876549948
386.59,85,386,590000000,,10.370559758988849,0.9998862313063835,0.00013410689167369394,-0.0003696128619874321,0.015078787935069915,0.0002570367149019515,-0.0007431860304037458,0.030158625626014356
386.6,86,386,600000000,,10.37920887266798,0.9998810705005328,0.00013930101089197925,-0.00037161523754889825,0.015417112312369965,0.0002671104978650246,-0.0007474373913239252,0.030835348843941093
386.61,87,386,610000000,,10.38803432055053,0.9998757431493144,0.00014450251576318161,-0.00037341712110909776,0.015758741710014502,0.00027720003453015344,-0.0007512958692695831,0.031518686460800506
386.62,88,386,620000000,,10.39703320846278,0.9998702460342948,0.0001497340167071421,-0.0003752018125397518,0.016103661032294703,0.0002873450165127461,-0.0007551288606982584,0.03220860840706287
386.63,89,386,630000000,,10.406166519713144,0.9998645758921084,0.00015586549639835562,-0.0003768735917857501,0.016451855467910097,0.00029928832780546093,-0.000758773734079039,0.032905084613198556
386.64,90,386,640000000,,10.415455746088753,0.9998587291490781,0.00016104642671449894,-0.000380263285685521,0.01680330944405157,0.00030926808340094454,-0.0007658314318807778,0.03360808500967781
386.65,91,386,650000000,,10.424889410891472,0.999852703370334,0.00016682368011567718,-0.00038274335043134313,0.017158008055197745,0.00032046408887816607,-0.0007710987477610599,0.034317579526971
386.66,92,386,660000000,,10.43447205530289,0.9998464950903254,0.00017284928617632934,-0.0003851745270786867,0.017515936152545895,0.00033215222726499746,-0.0007762861138843565,0.03503353809554843
386.67,93,386,670000000,,10.444216531109603,0.9998401010529218,0.00017899389539606742,-0.00038774883836878633,0.017877078578647593,0.00034406702794697816,-0.0007817735309745214,0.03575593064588041
386.68,94,386,680000000,,10.454125537929382,0.9998335180851619,0.00018508652974650355,-0.00039044620590253696,0.018241420125226948,0.0003558669636788938,-0.0007875149710384744,0.036484727108437275
386.69,95,386,690000000,,10.464196133697406,0.9998267430299812,0.0001909400692254196,-0.00039320338259414794,0.018608945565233636,0.00036717989818036,-0.0007933769846752958,0.037219897413689286
386.7,96,386,700000000,,10.474418429623311,0.9998197726790576,0.00019641334370871488,-0.00039605383057742514,0.01897963970045623,0.0003777221009811982,-0.0007994206958531765,0.037961411492106814
386.71,97,386,710000000,,10.484788370877979,0.999812603765019,0.0002015099800134625,-0.00039908884131636057,0.019353487397306413,0.00038749704939182385,-0.0008058280360693154,0.03870923927416015
386.72,98,386,720000000,,10.495302596007223,0.9998052329850162,0.0002063684381176925,-0.0004023933127234908,0.019730473574327435,0.0003967778089264742,-0.0008127734630744074,0.03946335069031962
386.73,99,386,730000000,,10.505957845292881,0.9997976570496858,0.00021115829803447468,-0.00040597482448704664,0.020110583148525988,0.00040590251005781183,-0.0008202784816951814,0.04022371567105555
386.74,100,386,740000000,,10.516750873866755,0.9997898727204496,0.00021596040398255882,-0.00040974149027584686,0.0204938009808361,0.00041503588275231294,-0.000828162578566602,0.04099030414683822
386.75,101,386,750000000,,10.527678741934329,0.9997818767986795,0.00022071190297586369,-0.0004135695369463619,0.020880111862826043,0.0004240569257464648,-0.0008361757315581032,0.041763086048137985
386.76,102,386,760000000,,10.538741388816979,0.9997736660796397,0.00022525626995477532,-0.0004173961257210031,0.02126950055277449,0.0004326551270505494,-0.0008441855866237304,0.04254203130542513
386.77,103,386,770000000,,10.549939911988336,0.9997652373113012,0.0002294628036568625,-0.00042125230405945437,0.021661951832550052,0.00044056774871491786,-0.0008522481470406751,0.04332710984916999
386.78,104,386,780000000,,10.561266984408029,0.9997565871814036,0.000233321764713262,-0.0004252338379573618,0.022057450544648277,0.0004477709744703555,-0.000860553733967142,0.04411829160984287
386.79,105,386,790000000,,10.572721066982442,0.9997477123410129,0.000236944128904519,-0.00042943866370792253,0.022455981582313624,0.0004544819555727205,-0.0008693023787416812,0.04491554651791409
386.8,106,386,800000000,,10.584300823733201,0.9997386094562574,0.00024047496224789504,-0.00043389392517407914,0.0228575298386152,0.0004609889162870706,-0.0008785544590800125,0.04571884450385398
386.81,107,386,810000000,,10.596007381624673,0.9997292752485515,0.00024398896016054585,-0.0004385285523796305,0.02326208015422941,0.0004674438413432462,-0.0008881711619605773,0.04652815549813282
386.82,108,386,820000000,,10.607842732299604,0.9997197064859774,0.000247441945343052,-0.00044322985390386993,0.023669617305137437,0.0004737632246143191,-0.0008979250718658016,0.04734344943122095
386.83,109,386,830000000,,10.619799897140481,0.999709899937177,0.00025071095176458817,-0.000447930450580676,0.02408012603641909,0.00047970421359840455,-0.0009076754391271816,0.0481646962335887
386.84,110,386,840000000,,10.631794968516703,0.9996998526029649,0.00025387866874016857,-0.0004519391627826282,0.024493591043882317,0.0004854659321322923,-0.0009160439575266952,0.04899186583570635
386.85,111,386,850000000,,10.644076974497686,0.9996895603297676,0.0002563707879053908,-0.00045746408851131214,0.024909997356542292,0.0004897917722325322,-0.000927416671264533,0.04982492816804423
386.86,112,386,860000000,,10.656396155741932,0.9996790205812189,0.0002588346298549191,-0.0004624663442524721,0.02532932962574781,0.0004940754109223839,-0.0009377481569026613,0.05066385316107267
386.87,113,386,870000000,,10.668835161006164,0.9996682297340954,0.0002611967862599909,-0.00046769180714942635,0.02575157278521474,0.0004981329033260179,-0.0009485258801653527,0.05150861074526197
386.88,114,386,880000000,,10.68139352970234,0.9996571844958028,0.0002635203344691031,-0.00047308563368979404,0.026176711652558957,0.000502092591073734,-0.0009596432441111327,0.05235917085108245
386.89,115,386,890000000,,10.694070923181892,0.9996458816211147,0.00026577650325522076,-0.00047854968564783835,0.026604730988926975,0.0005059016625427293,-0.0009709024220995459,0.053215503409004425
386.9,116,386,900000000,,10.706867181965542,0.9996343178720893,0.00026787059209153007,-0.00048401539336296207,0.027035615525588853,0.0005093742327486129,-0.0009821610457500982,0.05407757834949821
386.91,117,386,910000000,,10.719782262934505,0.9996224899772906,0.0002697143276208698,-0.0004894853782340911,0.0274693500077355,0.0005123336003807101,-0.0009934191031285304,0.05494536560303412
386.92,118,386,920000000,,10.73281614956833,0.9996103946124713,0.0002712930305700548,-0.0004950301371241746,0.027905919227902674,0.0005147464072332908,-0.0010048160733141962,0.05581883510008248
386.93,119,386,930000000,,10.745968773887277,0.999598028421174,0.00027267098899569586,-0.000500739753340304,0.028345308019729298,0.00051673581090204,-0.0010165350017960152,0.0566979567711136
386.94,120,386,940000000,,10.75923997290525,0.9995853880615557,0.00027394344299351396,-0.0005066579809673724,0.028787501220310943,0.0005184891886052509,-0.001028668304854127,0.05758270054659779
386.95,121,386,950000000,,10.772632345004496,0.9995724702478871,0.0002751714805656803,-0.000512741779459092,0.029232483627987367,0.0005201305471469774,-0.0010411332138783279,0.05847303635700539
386.96,122,386,960000000,,10.786149364575932,0.9995592717491246,0.00027634103540006595,-0.0005188933362020798,0.029680239987195017,0.000521637043962774,-0.0010537332219999703,0.05936893413280667
386.97,123,386,970000000,,10.799784111142126,0.9995457893485392,0.00027737558097667286,-0.0005250342093733871,0.030130755009988953,0.0005228601548697679,-0.0010663067399054437,0.06027036380447197
386.98,124,386,980000000,,10.813536545110265,0.9995320197983114,0.0002781936237209777,-0.0005311586441733906,0.030584013417315606,0.0005236372716831163,-0.001078836909203315,0.061177295302471624
386.99,125,386,990000000,,10.827406903201071,0.9995179598007641,0.0002787659065182845,-0.0005373333767760762,0.031039999969871796,0.0005239057403165954,-0.001091454725139503,0.0620896985572759
387.0,126,387,0,,10.841395286098745,0.9995036060199889,0.00027913801076676775,-0.0005436602772460825,0.03149869947335493,0.0005237500566345462,-0.0011043660082252905,0.06300754349935517
387.01,127,387,10000000,,10.85550162811884,0.9994889551335915,0.00027939881412094664,-0.0005501984148146118,0.031960096745294216,0.0005233436192298639,-0.0011176939364493464,0.06393080005917971
387.02,128,387,20000000,,10.869725827897762,0.9994740038833191,0.0002796195788521136,-0.0005569094137067669,0.03242417657001076,0.0005228307001801561,-0.0011313660735859366,0.0648594381672199
387.03,129,387,30000000,,10.884067945883274,0.9994587490770519,0.00027980555079602597,-0.0005636859346631082,0.03289092367744116,0.000522228275621548,-0.0011451680545903834,0.06579342775394596
387.04,130,387,40000000,,10.898528252202379,0.9994431875465969,0.0002798925426122265,-0.0005704317621242117,0.03336032275723533,0.0005214141882975753,-0.0011589031477603144,0.06673273874982825
387.05,131,387,50000000,,10.913107100397387,0.9994273160973094,0.00027979231800411957,-0.0005771250513137994,0.033832358496899986,0.0005202135486877949,-0.0011725214188539213,0.06767734108533706
387.06,132,387,60000000,,10.927804742827826,0.999411131475861,0.00027945639754379663,-0.0005838367524559356,0.03430701562228255,0.0005185246637720549,-0.001186160806881155,0.06862720469094279
387.07,133,387,70000000,,10.942621183878995,0.9993946303812831,0.00027891188165504385,-0.000590689340338658,0.03478427891051192,0.0005163930630185987,-0.001200067295330158,0.06958229949711567
387.08,134,387,80000000,,10.957556198210412,0.9993778095262168,0.000278244160316063,-0.0005977618010019295,0.03526413316100611,0.0005139833770381341,-0.001214404135344766,0.07054259543432603
387.09,135,387,90000000,,10.972609578726404,0.9993606656990704,0.0002775406139555462,-0.0006050188381835404,0.035746563148420105,0.0005114720658737021,-0.0012291066134103535,0.07150806243304422
387.1,136,387,100000000,,10.987781395254913,0.99934319576876,0.0002768312588487375,-0.0006123392451964723,0.036231553593309485,0.0005089272811733161,-0.0012439344903661946,0.07247867042374054
387.11,137,387,110000000,,11.003071994335762,0.9993253966381747,0.00027606524042015485,-0.0006196069805568863,0.03671908916527705,0.0005062556264601554,-0.0012586520438935373,0.07345438933688526
387.12,138,387,120000000,,11.018481772421284,0.9993072651868312,0.0002751475684888584,-0.0006267843832190969,0.03720915451832777,0.0005032701235889234,-0.0012731767364609005,0.07443518910294879
387.13,139,387,130000000,,11.03401411127344,0.9992887982261145,0.0002740062406758861,-0.0006339465786499839,0.03770173433840225,0.0004998213980922352,-0.001287652806255491,0.07542103965240136
387.14,140,387,140000000,,11.0496729061372,0.999269992508347,0.00027264425395974353,-0.0006412378906879548,0.03819681336769784,0.00049590439604661,-0.0013023682159876181,0.07641191091571331
387.15,141,387,150000000,,11.06544968929457,0.9992508448021148,0.00027114040670081095,-0.0006487537494146864,0.038694376383556266,0.0004916687639336694,-0.001317519063412308,0.07740777282335495
387.16,142,387,160000000,,11.08134394022796,0.9992313519636846,0.00026959767333549755,-0.0006564598420222587,0.039194408152150015,0.00048732223753509743,-0.0013330443482035732,0.07840859530579665
387.17,143,387,170000000,,11.09735918098985,0.9992115109388598,0.000268074372301162,-0.0006642276887378268,0.03969689339216939,0.0004829909037376237,-0.001348691753370603,0.07941434829350864
387.18,144,387,180000000,,11.113500096320596,0.9991913187193842,0.0002665401608748228,-0.0006719235427173753,0.04020181676135192,0.0004786245990270233,-0.0013641915619977544,0.08042500171696132
387.19,145,387,190000000,,11.12975882657584,0.999170772276977,0.00026489630630832265,-0.0006794959458454616,0.04070916288301307,0.0004740303403727398,-0.0013794328291723181,0.08144052550662495
387.2,146,387,200000000,,11.146135171910922,0.9991498685080298,0.0002630475239170432,-0.0006870205230674577,0.04121891639996975,0.0004690117881156998,-0.001394558450386719,0.08246088959296988
387.21,147,387,210000000,,11.16262888630785,0.9991286042430042,0.0002609699838989016,-0.0006946520451345976,0.04173106201176658,0.0004635084936457934,-0.0014098750328215882,0.08348606390646635
387.22,148,387,220000000,,11.17923961659795,0.9991069763282154,0.0002587311484747338,-0.0007024979849394427,0.04224558446825958,0.00045764579596706034,-0.001425602255279064,0.0845160183775848
387.23,149,387,230000000,,11.195967294220546,0.9990849817018888,0.00025644812365880227,-0.0007105331227202096,0.042762468529988794,0.0004516591220085501,-0.0014416991528857907,0.08555072293679541
387.24,150,387,240000000,,11.212812250625666,0.9990626174041409,0.00025420479296197387,-0.0007186267041304025,0.0432816989173274,0.00044572673079852214,-0.0014579114990212426,0.08659014751456863
387.25,151,387,250000000,,11.229312361164235,0.9990398810379832,0.00025171467547130996,-0.0007260508047497314,0.04380325998785615,0.0004393397051490821,-0.0014727597983621324,0.08763426204137467
387.26,152,387,260000000,,11.246382135797846,0.999016768683423,0.00024941577075993386,-0.0007339034137471785,0.04432713691278085,0.0004332778940558444,-0.001488475957526983,0.0886830364476839
387.27,153,387,270000000,,11.264054786866138,0.9989932772834741,0.0002472300925263616,-0.0007423030728527666,0.04485331432406737,0.0004273733918534013,-0.0015052903055470079,0.08973644066396662
387.28,154,387,280000000,,11.281371324665459,0.9989694048404306,0.0002445235556553557,-0.0007501897588809874,0.04538177625779248,0.00042045371290120676,-0.0015210276469676807,0.09079444462069314
387.29,155,387,290000000,,11.29880833498467,0.9989451477772631,0.00024164296226571123,-0.0007582704368954362,0.045912507739016686,0.0004131484345361174,-0.001537130621343911,0.09185701824833382
387.3,156,387,300000000,,11.316370317147069,0.9989205031380091,0.00023871632362629708,-0.0007665223781164811,0.046445493521627565,0.0004057147406537123,-0.0015535650590924434,0.09292413147735885
387.31,157,387,310000000,,11.334048619349181,0.9988954680684109,0.00023584973701135768,-0.0007748240822847099,0.04698071833138674,0.00039837538453527766,-0.001570097953917867,0.0939957542382387
387.32,158,387,320000000,,11.351843248150649,0.998870039779058,0.00023304568812397813,-0.000783035268450004,0.04751816681290068,0.000391148412719681,-0.0015864494127250381,0.09507185646144359
387.33,159,387,330000000,,11.36975424339732,0.9988442154683572,0.00023020069704897145,-0.0007910942391617511,0.04805782353525461,0.00038383323685699114,-0.0016024863841611553,0.09615240807744385
387.34,160,387,340000000,,11.387781250445167,0.998817992253179,0.00022718218439663444,-0.0007990736157045506,0.04859967305384162,0.0003761583751062404,-0.0016183408751847162,0.09723737901670985
387.35,161,387,350000000,,11.405923814976816,0.9987913671860766,0.00022392663957615088,-0.0008071206675386765,0.04914369997930658,0.0003679826968521011,-0.0016343002047343566,0.09832673920971186
387.36,162,387,360000000,,11.42418171428481,0.9987643373419742,0.00022049131106640464,-0.0008153329269210081,0.049689889008200434,0.00035941060840690933,-0.0016505640279424738,0.0994204585869202
387.37,163,387,370000000,,11.442555059487589,0.9987368998850282,0.0002170173320418221,-0.000823693613399835,0.05023822489252538,0.0003507251194334754,-0.0016671123150934345,0.10051850707880516
387.38,164,387,380000000,,11.461044103564966,0.9987090520849752,0.00021362453733444518,-0.0008320915926904576,0.050788692360296456,0.000342176322239119,-0.0016837350289365949,0.10162085461583713
387.39,165,387,390000000,,11.479648894604926,0.9986807912849746,0.00021031954795049654,-0.0008403916478025829,0.051341276045526185,0.00033379111460624274,-0.0017001629586404405,0.10272747112848633
387.4,166,387,400000000,,11.498369086701196,0.9986521148176254,0.0002069903135206416,-0.0008485342785489237,0.051895960487042446,0.0003253521108186657,-0.0017162658683625947,0.10383832654722315
387.41,167,387,410000000,,11.51720411328921,0.998623019933909,0.0002034903394987246,-0.0008565889120911043,0.052452730197737614,0.00031655990071309016,-0.00173216692641925,0.10495339080251785
387.42,168,387,420000000,,11.536153526302868,0.9985935038259657,0.00019975038792268714,-0.0008646899633913253,0.053011569752564075,0.00030726220923840946,-0.0017481266141405878,0.10607263382484078
387.43,169,387,430000000,,11.554544380425167,0.9985635643088931,0.0001954177962137778,-0.0008723577124390054,0.05357246343622366,0.0002968059446240769,-0.0017631481923696302,0.10719602554466229
387.44,170,387,440000000,,11.574395273746793,0.9985331968819986,0.00019189909402430463,-0.000881288945492984,0.054135397192115124,0.0002878178377886318,-0.0017807705447711179,0.10832353589245261
387.45,171,387,450000000,,11.593688007404118,0.9985024007588489,0.00018806752253813357,-0.0008896746234199542,0.05470035455540245,0.0002782411638077207,-0.0017972601826525742,0.10945513479868216
387.46,172,387,460000000,,11.61309470391759,0.9984711728319002,0.0001843423846604646,-0.000897954264786261,0.05526732054038041,0.00026886650704452484,-0.0018135401092457338,0.11059079219382113
387.47,173,387,470000000,,11.63261471210181,0.9984395105849014,0.00018059507971547462,-0.000906070307922007,0.05583627964860341,0.0002594437729113105,-0.001829481324888709,0.11173047800833993
387.48,174,387,480000000,,11.652248397852317,0.9984074114185748,0.0001766649796605093,-0.0009140884122708805,0.05640721634968533,0.00024964531197793855,-0.0018451966975367425,0.11287416217270889
387.49,175,387,490000000,,11.67199474232132,0.9983748726780098,0.00017249445634297188,-0.0009221294011690532,0.05698011519993273,0.00023934259947202893,-0.0018609202290255644,0.11402181461739821
387.5,176,387,500000000,,11.691853244672847,0.9983418917280906,0.0001681656000645574,-0.0009302792337455789,0.05755496087789096,0.00022868956154918618,-0.0018768320910275236,0.11517340527287835
387.51,177,387,510000000,,11.711823885760511,0.9983084660191185,0.00016384382622564188,-0.0009385365321741539,0.05813173813789591,0.0002180162301402327,-0.001892948114763681,0.11632890406961954
387.52,178,387,520000000,,11.731120457004723,0.9982745937582362,0.00015923672139227783,-0.0009462325611796906,0.0587104313085421,0.00020681688103744194,-0.0019078987218941414,0.1174882809380921
387.53,179,387,530000000,,11.752100165717291,0.9982402707164889,0.00015557776239563732,-0.0009549521504355616,0.05929102614916469,0.00019736815642213605,-0.0019249933055764303,0.11865150580876632
387.54,180,387,540000000,,11.771592902255072,0.9982054971041668,0.00015105123509830527,-0.0009623233720160996,0.059873505561934263,0.0001863253503510313,-0.0019392821093528467,0.1198185486121126
387.55,181,387,550000000,,11.792819219835316,0.9981702678519077,0.00014717508034125179,-0.0009707821736055481,0.060457855551767144,0.00017642910023499392,-0.001955808830892829,0.12098937927860119
387.56,182,387,560000000,,11.813343756317606,0.998134582469528,0.0001426375371854388,-0.0009786392985026708,0.06104405948196392,0.0001652630079242257,-0.0019710430800607896,0.12216396773870243
387.57,183,387,570000000,,11.833977843294123,0.9980984378097807,0.00013796353772625914,-0.0009865891307258912,0.06163210242742423,0.00015379156227178224,-0.0019864334124355693,0.12334228392288663
387.58,184,387,580000000,,11.854721208725895,0.9980618314900721,0.0001333301386732911,-0.0009946362681448157,0.06222196914636556,0.00014236727620557186,-0.0020020104558097704,0.12452429776162412
387.59,185,387,590000000,,11.875573148791505,0.9980247612746583,0.0001288481602274069,-0.0010026791768816686,0.06281364434007239,0.00013122370975508402,-0.0020175855061198137,0.1257099791853852
387.6,186,387,600000000,,11.896532701258437,0.9979872250201876,0.00012447699650999637,-0.0010105831596070062,0.06340711256365578,0.00012029683320014126,-0.0020328850202656857,0.12689929812464013
387.61,187,387,610000000,,11.916694881808024,0.9979492212591079,0.00011961334890130168,-0.0010176795199181897,0.06400235784235933,0.00010846854652519819,-0.0020464974700123524,0.12809222450985935
387.62,188,387,620000000,,11.938772331017843,0.9979107456194565,0.00011542077920177144,-0.0010258627286638133,0.0645993657935306,9.781931652391172e-05,-0.00206235256116628,0.12928872827151308
387.63,189,387,630000000,,11.960052464296512,0.9978717978837991,0.00011055572793227403,-0.0010334145515573882,0.06519811975778352,8.588769994764787e-05,-0.0020768480172332795,0.13048877934007166
387.64,190,387,640000000,,11.981438888308665,0.9978323750335478,0.00010558570539835542,-0.0010410520558617395,0.06579860482704171,7.371428601000431e-05,-0.0020914871998828667,0.1316923476460054
387.65,191,387,650000000,,12.0029309283391,0.9977924748748941,0.00010069104863965472,-0.0010487798217320083,0.06640080575740041,6.165802760188288e-05,-0.0021063027188130247,0.13289940311978463
387.66,192,387,660000000,,12.024527484697996,0.9977520953840934,9.596338124522398e-05,-0.0010564832625461625,0.06700470722864735,4.991673834511311e-05,-0.0021210783648628385,0.13410991569187963
387.67,193,387,670000000,,12.046227543046955,0.997711234627283,9.133028089702128e-05,-0.001064018628366663,0.06761029375502633,3.8365358066649765e-05,-0.0021355180361375915,0.13532385529276084
387.68,194,387,680000000,,12.067031092483866,0.9976698913668444,8.615985510094586e-05,-0.001070700815806427,0.06821754932795024,2.5837074739096544e-05,-0.0021481688136815815,0.1365411918528984
387.69,195,387,690000000,,12.08993679111648,0.9976280612890144,8.168034189480961e-05,-0.0010784809469388912,0.06882645956237586,1.4517185656500276e-05,-0.002163090936796967,0.1377618953027627
387.7,196,387,700000000,,12.111946248591762,0.9975857444583924,7.65318911004344e-05,-0.0010856073812547478,0.06943700780475932,1.93159528185293e-06,-0.0021766029049217163,0.13898593557282407
387.71,197,387,710000000,,12.13405793535137,0.9975429379953732,7.132024566864403e-05,-0.001092825783251047,0.07004917915856632,-1.0813109291491355e-05,-0.0021902748856509925,0.1402132825935529
387.72,198,387,720000000,,12.156270694629491,0.9974996399257848,6.621790092987109e-05,-0.0011001261512087245,0.07066295836978741,-2.3371728953641065e-05,-0.0022041109695941506,0.14144390629541934
387.73,199,387,730000000,,12.177514113303582,0.9974558492021756,6.083223338490155e-05,-0.0011067552869512708,0.07127832969803176,-3.642049193400055e-05,-0.00221655292421136,0.1426777766088938
387.74,200,387,740000000,,12.200995023983904,0.997411561906111,5.641227946152994e-05,-0.0011143979730017122,0.07189527877979704,-4.77075051060939e-05,-0.0022311402498875945,0.14391486346444665
387.75,201,387,750000000,,12.223506103134934,0.997366778454547,5.1429821818803986e-05,-0.0011211689445784706,0.07251378882922699,-6.0011775887681786e-05,-0.0022438939422157883,0.14515513679254813
387.76,202,387,760000000,,12.246115925045943,0.9973214961929655,4.62250784687815e-05,-0.0011277682943256122,0.07313384465034846,-7.275371888518363e-05,-0.0022562582750493628,0.1463985665236685
387.77,203,387,770000000,,12.268824081743588,0.9972757131243679,4.084000833885809e-05,-0.0011343591270459223,0.07375543080850451,-8.587301640650919e-05,-0.002268563905361873,0.14764512258827817
387.78,204,387,780000000,,12.291629507815605,0.9972294273174953,3.54387067776141e-05,-0.0011410574059972144,0.07437853201102035,-9.905956494561301e-05,-0.002281065783173918,0.1488947749168474
387.79,205,387,790000000,,12.314535248181464,0.9971826370597644,3.0173799829714277e-05,-0.001147814465357399,0.07500313298809053,-0.00011200207826926505,-0.0022936895810711368,0.15014749343984657
387.8,206,387,800000000,,12.337545906233913,0.9971353408316881,2.5060860367176734e-05,-0.001154455966304714,0.07562921834746489,-0.0001246433973615521,-0.002306090397418808,0.15140324808774597
387.81,207,387,810000000,,12.360649768198408,0.9970875371388389,1.997513275975593e-05,-0.001160829797253929,0.0762567725358237,-0.00013720872478215925,-0.002317946401145417,0.15266200879101588
387.82,208,387,820000000,,12.383846474794185,0.9970392243732168,1.4750352453941594e-05,-0.0011669146328987879,0.07688577992009106,-0.00015002533087699074,-0.002329189611718633,0.15392374548012666
387.83,209,387,830000000,,12.407135918174843,0.9969904007752753,9.309089963352118e-06,-0.0011728377349501926,0.07751622492707141,-0.0001632662084026434,-0.0023400612734988226,0.15518842808554856
387.84,210,387,840000000,,12.430517290512705,0.9969410645288087,3.7273910190195044e-06,-0.0011787864043411162,0.07814809213848396,-0.00017680832826132104,-0.002350945888176873,0.15645602653775204
387.85,211,387,850000000,,12.453989187613837,0.996891213956831,-1.8305094995906305e-06,-0.0011848469796085458,0.07878136626106372,-0.0001903378975212755,-0.002362040864028468,0.1577265107672072
387.86,212,387,860000000,,12.477550335233428,0.9968408476402295,-7.241715827560415e-06,-0.0011909171751820543,0.07941603200706968,-0.0002035940840085658,-0.002373161783650114,0.1589998507043846
387.87,213,387,870000000,,12.501200168863342,0.9967899643237245,-1.2521733060318987e-05,-0.001196796271945053,0.08005207396062895,-0.0002165757401498921,-0.0023839065029878244,0.16027601627975432
387.88,214,387,880000000,,12.52493866744845,0.996738562721198,-1.7805941841979065e-05,-0.0012023483214360002,0.08068947655018588,-0.00022953011088547214,-0.0023939826580561163,0.16155497742378683
387.89,215,387,890000000,,12.548765735598467,0.9966866413813614,-2.3242139769210005e-05,-0.0012076052096133506,0.08132822413776113,-0.00024275573828503853,-0.0024034297909544004,0.16283670406695233
387.9,216,387,900000000,,12.572680645003778,0.9966341987000374,-2.887344916434914e-05,-0.001212746130603114,0.08196830115770991,-0.00025636676278093754,-0.002412597461518057,0.16412116613972136
387.91,217,387,910000000,,12.596681966373492,0.9965812330840186,-3.4604242645703724e-05,-0.0012179581036407755,0.08260969219977322,-0.0002702029614408829,-0.002421873453445191,0.16540833357256396
387.92,218,387,920000000,,12.620768189589505,0.996527743168366,-4.0278425613383834e-05,-0.0012232614004743525,0.08325238197768015,-0.00028395683098895926,-0.0024313236910841656,0.16669817629595057
387.93,219,387,930000000,,12.644938435576886,0.9964737278482496,-4.580023200614898e-05,-0.0012284929492533388,0.0838963551986898,-0.00029741050768591844,-0.002440639375524127,0.16799066424035153
387.94,220,387,940000000,,12.6691924867421,0.9964191861146959,-5.120956325914788e-05,-0.0012334477829420722,0.08454159642846955,-0.00031060860880607877,-0.002449405844764888,0.16928576733623718
387.95,221,387,950000000,,12.693531389127001,0.9963641168640726,-5.665340334170856e-05,-0.0012380334135328544,0.0851880900674235,-0.0003238272236896005,-0.0024574142203321746,0.17058345551407772
387.96,222,387,960000000,,12.717953681163404,0.9963085187841944,-6.226059989805104e-05,-0.001242355431484078,0.08583582046351179,-0.00033733975881479244,-0.0024648527160087753,0.1718836987043435
387.97,223,387,970000000,,12.742457464109092,0.9962523904496827,-6.804083690216736e-05,-0.0012466336735428379,0.08648477205971826,-0.0003512024314372489,-0.0024721570801459814,0.17318646683750488
387.98,224,387,980000000,,12.76704112631314,0.9961957305609961,-7.388147346303297e-05,-0.001251007372923839,0.08713492947219158,-0.0003652148261666907,-0.002479623634662436,0.17449172984403227
387.99,225,387,990000000,,12.79170356029611,0.9961385381038494,-7.963021289346307e-05,-0.001255410544895386,0.08778627744538822,-0.00037906226602344177,-0.0024871473341077197,0.17579945765439575
388.0,226,388,0,,12.816444366339601,0.9960808122731544,-8.52144115480904e-05,-0.0012596399157567889,0.0884388006874807,-0.0003925641987328163,-0.0024943363667072876,0.17710962019906584
388.01,227,388,10000000,,12.841263376005022,0.9960225522750684,-9.070414019579997e-05,-0.0012635170318912438,0.08909248372858249,-0.0004058277598348983,-0.002500823410365509,0.17842218740851268
388.02,228,388,20000000,,12.866159984144433,0.9959637571495494,-9.625624282233132e-05,-0.0012670283803000845,0.08974731092557835,-0.00041916156752766796,-0.00250655383891168,0.17973712921320675
388.03,229,388,30000000,,12.891132860939868,0.9959044257342189,-0.0001019850483847415,-0.0012703501800702245,0.09040326660284802,-0.00043282371305445775,-0.0025118578114886685,0.18105441554361829
388.04,230,388,40000000,,12.914653233064467,0.9958445577777691,-0.00010836819471242774,-0.0012729492325336495,0.09106033494878595,-0.0004476675522660402,-0.002515585696050828,0.1823740163302176
388.05,231,388,50000000,,12.941301472028625,0.9957841495723496,-0.00011377481551084418,-0.0012771066266407257,0.09171850148376763,-0.000460860410505053,-0.002522577236433563,0.18369590150347512
388.06,232,388,60000000,,12.966496013020235,0.995723203218659,-0.00011953994702343809,-0.0012804518483813061,0.09237775016332747,-0.000474629454105853,-0.0025278682615821673,0.18502004099386093
388.07,233,388,70000000,,12.991767802931093,0.9956617172522854,-0.00012512619995097666,-0.0012835205898197551,0.0930380659545317,-0.00048800086524460073,-0.002532624337342923,0.18634640473184558
388.08,234,388,80000000,,13.017122347718937,0.9955996910571769,-0.0001306483021190123,-0.0012861936019196996,0.0936994333168207,-0.0005011796750690044,-0.0025365872818597255,0.18767496264789923
388.09,235,388,90000000,,13.042546134831191,0.9955371237996576,-0.00013627891948607619,-0.0012885532072241422,0.09436183654101449,-0.0005145236236143771,-0.0025398887801341267,0.18900568467249226
388.1,236,388,100000000,,13.06803714766323,0.9954740145150276,-0.000142107461426284,-0.0012908144360498132,0.0950252599517399,-0.0005282502574503901,-0.0025429396010406796,0.190338540736095
388.11,237,388,110000000,,13.093594204143185,0.9954103623659636,-0.00014806310230600306,-0.0012931212216759815,0.09568968810318543,-0.0005422456094775891,-0.002546039054248287,0.19167350076917775
388.12,238,388,120000000,,13.119216741969508,0.9953461667907466,-0.00015396314896179157,-0.0012954303611549028,0.09635510578321942,-0.0005561377548443682,-0.002549135778382663,0.1930105347022108
388.13,239,388,130000000,,13.144904523101827,0.9952814274400766,-0.00015966427618429997,-0.0012975605787877208,0.09702149780696513,-0.0005696062046112463,-0.0025518969253818637,0.1943496124656645
388.14,240,388,140000000,,13.170656987042229,0.9952161439937437,-0.00016519218992292023,-0.0012993341052691398,0.09768884878350999,-0.0005826667076619728,-0.0025539644627589385,0.19569070399000912
388.15,241,388,150000000,,13.194775510197221,0.9951503169852918,-0.00017116668521684365,-0.0012998984391130461,0.09835714295406842,-0.000596383735007028,-0.0025535205302339025,0.19703377920571502
388.16,242,388,160000000,,13.222351013573961,0.9950839426946008,-0.00017642022536076707,-0.001301892848142271,0.09902636488473444,-0.0006089513261772634,-0.0025560476126419433,0.19837880804325253
388.17,243,388,170000000,,13.248290465767406,0.995017023490252,-0.00018232649368465933,-0.0013030262303601315,0.09969649865613181,-0.0006226523110528579,-0.0025567147219104688,0.19972576043309193
388.18,244,388,180000000,,13.274289728719323,0.994949557899164,-0.00018828561159060453,-0.0013041822504774691,0.10036752907910174,-0.0006364665962268418,-0.002557398371557396,0.2010746063057036
388.19,245,388,190000000,,13.300348373232636,0.9948815457171789,-0.00019409040436446182,-0.0013052502275142934,0.10103944102258007,-0.0006499596018602784,-0.002557919945255943,0.20242531559155771
388.2,246,388,200000000,,13.326470679307803,0.9948129868729404,-0.00019965550634859367,-0.0013060401629608348,0.10171221925467204,-0.0006629224853424109,-0.0025579194110975376,0.20377785822112468
388.21,247,388,210000000,,13.352661557212999,0.9947438812253924,-0.00020509939583736382,-0.0013064366961239406,0.10238584825081587,-0.0006755662568863719,-0.002557144054971969,0.20513220412487485
388.22,248,388,220000000,,13.378906901483992,0.9946742284263727,-0.00021064348987281782,-0.001306511693400112,0.10306031224926193,-0.0006883446100221202,-0.002555691835554955,0.20648832323327845
388.23,249,388,230000000,,13.405205061235291,0.9946040280363261,-0.00021641965952721247,-0.0013064438458653203,0.10373559553462693,-0.0007015555364358141,-0.0025538905546989895,0.20784618547680586
388.24,250,388,240000000,,13.431555459546717,0.9945332797387618,-0.00022235001268836957,-0.0013063582053942974,0.10441168268336964,-0.0007150694810258132,-0.0025520043131931893,0.20920576078592734
388.25,251,388,250000000,,13.45795775198593,0.9944619834482706,-0.00022820754996146622,-0.0013062391121033416,0.10508855854386843,-0.0007284314691757579,-0.0025500490353324674,0.2105670190911133
388.26,252,388,260000000,,13.48441123091159,0.9943901392820471,-0.00023381359495265605,-0.0013059392664195191,0.10576620798944252,-0.0007412548283205874,-0.0025477698597457577,0.21192993032283397
388.27,253,388,270000000,,13.510919515797596,0.9943177473989308,-0.00023920093144519784,-0.001305293108920014,0.10644461564743665,-0.0007535688206717646,-0.0025448316518850577,0.21329446441155972
388.28,254,388,280000000,,13.537487333539714,0.9942448078050075,-0.0002445883825003655,-0.001304271168116233,0.10712376583198915,-0.0007658008844583202,-0.0025411299513373544,0.21466059128776083
388.29,255,388,290000000,,13.564100930748017,0.9941713203522708,-0.000250186004762173,-0.001302997007383974,0.10780364277140232,-0.0007783937325600358,-0.002536865306201431,0.21602828088190767
388.3,256,388,300000000,,13.590759295411578,0.9940972849133013,-0.0002560069397871205,-0.0013016262538110097,0.10848423091650046,-0.0007914060738546763,-0.0025323435243791888,0.21739750312447043
388.31,257,388,310000000,,13.61746211207133,0.9940227015332513,-0.0002618509869619319,-0.0013002297686844188,0.10916551503632488,-0.0008044548124479119,-0.0025277483106996416,0.21876822794591944
388.32,258,388,320000000,,13.644208619590792,0.9939475704830546,-0.00026747848220568714,-0.001298735552449436,0.1098474800441926,-0.000817047521801733,-0.0025229890963108788,0.22014042527672523
388.33,259,388,330000000,,13.670997352994068,0.9938718921751176,-0.0002728288260430788,-0.0012969720232336147,0.11053011070406973,-0.0008290254483361913,-0.002517739136962064,0.2215140650473579
388.34,260,388,340000000,,13.697826715233028,0.9937956669571616,-0.00027807868100372934,-0.0012948244345352563,0.11121339145580128,-0.0008407131608977341,-0.0025117323196124884,0.22288911718828794
388.35,261,388,350000000,,13.724695667258956,0.9937188950066317,-0.0002834797658007255,-0.0012923367989244525,0.11189730654318465,-0.0008526191915547427,-0.0025050003669253077,0.2242655516299854
388.36,262,388,360000000,,13.75160366460931,0.9936415764359295,-0.000289133279598605,-0.0012896544761883488,0.11258184032604686,-0.0008649758502807208,-0.002497808897446115,0.22564333830292085
388.37,263,388,370000000,,13.778550262634994,0.9935637114474629,-0.0002948961984227955,-0.0012869134952654278,0.1132669774675323,-0.0008775287605454388,-0.0024904596696774233,0.22702244713756442
388.38,264,388,380000000,,13.805534450391804,0.9934853004526789,-0.00030050645733108964,-0.0012841307165437925,0.1139527028579064,-0.000889760688359836,-0.002483045486955317,0.22840284806438663
388.39,265,388,390000000,,13.83255451356619,0.993406344075409,-0.0003058221843886736,-0.0012811682468145892,0.11463900135401303,-0.0009013579764898265,-0.002475325556623511,0.22978451101385763
388.4,266,388,400000000,,13.859608727714123,0.9933268429768575,-0.00031095420962826375,-0.0012778545430198462,0.11532585753800413,-0.0009125005719507039,-0.002466934818440034,0.23116740591644774
388.41,267,388,410000000,,13.886696030271478,0.9932467976788925,-0.0003161601671502335,-0.0012741419125443447,0.11601325573295673,-0.0009236877712931711,-0.0024577196824597724,0.2325515027026274
388.42,268,388,420000000,,13.91381589256654,0.9931662085734079,-0.0003216087906662001,-0.0012701342272305246,0.1167011802628938,-0.0009352772317821331,-0.002447846983332413,0.2339367713028669
388.43,269,388,430000000,,13.940967739987622,0.9930850760550379,-0.00032722859767668694,-0.001266004230361231,0.1173896156884975,-0.000947166129520699,-0.002437675750359172,0.2353231816476364
388.44,270,388,440000000,,13.968150350597016,0.993003400681368,-0.0003327705607950668,-0.0012618547183376886,0.11807854683075228,-0.0009588835120379096,-0.0024274683084737265,0.23671070366740635
388.45,271,388,450000000,,13.995361804986093,0.9929211832617623,-0.0003380375778241077,-0.0012576065316723588,0.11876795858508866,-0.0009700190502199468,-0.0024171146185669855,0.238099307292647
388.46,272,388,460000000,,14.020408276811631,0.9928384257305501,-0.0003434314124711969,-0.0012521495308092136,0.1194578359476698,-0.0009811049454229572,-0.002404315507685566,0.23948896245382884
388.47,273,388,470000000,,14.0498652400009,0.9927551259744853,-0.00034809069337127306,-0.001248089780621965,0.12014816251675473,-0.0009910520311728539,-0.002394452428441411,0.2408796390814218
388.48,274,388,480000000,,14.077156628069968,0.9926712876628556,-0.00035331694884961845,-0.001242734168125703,0.1208389234836579,-0.0010017995085552778,-0.002381866426465169,0.24227130710589667
388.49,275,388,490000000,,14.104472784707646,0.9925869104221726,-0.00035874468600245735,-0.001237179739043429,0.12153010304903666,-0.0010128827363654767,-0.0023688224876812452,0.24366393645772347
388.5,276,388,500000000,,14.129556113756324,0.9925019959254625,-0.0003645627900381854,-0.001230689681125182,0.12222168621342894,-0.0010244955468577197,-0.002353811145424116,0.24505749706737256
388.51,277,388,510000000,,14.159173403545003,0.9924165423093304,-0.00036935364027827723,-0.0012259851362701807,0.1229136570488704,-0.0010344889813073456,-0.002342580788934831,0.2464519588653142
388.52,278,388,520000000,,14.186554927002645,0.9923305536222794,-0.0003742819754766524,-0.001220135571043315,0.12360600118882507,-0.0010444580602286357,-0.002329030722396153,0.24784729178201895
388.53,279,388,530000000,,14.213954838158775,0.9922440300936683,-0.00037913008638518664,-0.0012138572558579633,0.12429870294743711,-0.0010541439136615368,-0.0023146365418431547,0.24924346574795692
388.54,280,388,540000000,,14.241372698404623,0.992156972734897,-0.00038412165621670865,-0.0012071254781827467,0.12499174673616625,-0.001063982416535726,-0.0022992938727161515,0.25064045069359847
388.55,281,388,550000000,,14.268807771258038,0.9920693824135474,-0.0003893171115044883,-0.001200114948087256,0.1256851169944188,-0.0010741353546725302,-0.0022833338414031197,0.2520382165494138
388.56,282,388,560000000,,14.293905974945394,0.9919812609535729,-0.00039494731434467983,-0.0011921297909187152,0.12637879869717059,-0.0010848835279606667,-0.0022653168296328818,0.2534367332458733
388.57,283,388,570000000,,14.323723000098015,0.9918926067742136,-0.00039963016536240107,-0.0011860045820462502,0.12707277566621983,-0.0010942011923539426,-0.00225121602587568,0.25483597071344766
388.58,284,388,580000000,,14.351200208461487,0.9918034240646054,-0.0004044419668327914,-0.0011787745107764674,0.1277670338196553,-0.0011034738803387242,-0.002234878351484568,0.2562358988826065
388.59,285,388,590000000,,14.378688180842058,0.9917137133892315,-0.0004091155901473192,-0.0011711250589415384,0.1284615575426029,-0.001112343145340352,-0.00221773212816639,0.25763648768382064
388.6,286,388,600000000,,14.406191497343508,0.9916234760652242,-0.00041386247408319867,-0.0011629739704473025,0.12915633134197693,-0.0011212053404076228,-0.0021995604382339692,0.25903770704756024
388.61,287,388,610000000,,14.433718105678663,0.9915327132231306,-0.0004187914491231167,-0.0011544757906412333,0.1298513396455654,-0.0011303142277691051,-0.00218064149291804,0.2604395269042957
388.62,288,388,620000000,,14.461251730670805,0.9914414259817578,-0.000423808506589958,-0.0011458955811925531,0.13054656700551592,-0.0011395509975064772,-0.0021615248900567546,0.2618419171844971
388.63,289,388,630000000,,14.488788716837902,0.9913496157054243,-0.0004287114647351533,-0.0011373441904881042,0.1312419982146726,-0.0011485434286197284,-0.0021424831928345024,0.2632448478186351
388.64,290,388,640000000,,14.516327655868738,0.9912572840621224,-0.00043337361389610043,-0.001128663374381563,0.13193761821437724,-0.001156998683839157,-0.0021232366126963,0.2646482887371796
388.65,291,388,650000000,,14.543868047091143,0.9911644328143506,-0.0004378526160755446,-0.0011195840121213043,0.13263341185588473,-0.0011649592146715162,-0.002103237482653524,0.2660522098706014
388.66,292,388,660000000,,14.571409613222132,0.9910710635803365,-0.0004423340706154519,-0.0011099705246372397,0.13332936375661936,-0.0011727551343430945,-0.0020821686008983898,0.2674565811493703
388.67,293,388,670000000,,14.598952659754266,0.9909771777611306,-0.00044696189236491244,-0.0010999512620282624,0.13402545836098745,-0.0011807037936046704,-0.0020602461071421952,0.2688613725039571
388.68,294,388,680000000,,14.626494442262882,0.9908827767051454,-0.00045170196151635275,-0.0010898113025223717,0.1347216801623397,-0.0011888125561702056,-0.002038043815557003,0.27026655386483184
388.69,295,388,690000000,,14.654032314524287,0.9907878619852305,-0.00045638570271996264,-0.0010797068692157666,0.13541801389734998,-0.0011967890664383554,-0.0020159165955954024,0.2716720951624649
388.7,296,388,700000000,,14.681569954352582,0.9906924354991699,-0.0004608585255490023,-0.001069505771705614,0.13611444453674623,-0.001204291162681604,-0.0019936448717358143,0.27307796632732667
388.71,297,388,710000000,,14.709113185237811,0.990596499274855,-0.00046511284641713555,-0.0010589278232811317,0.13681095704038979,-0.001211226820834349,-0.001970676597695787,0.2744841372898873
388.72,298,388,720000000,,14.736653944762741,0.9905000552135611,-0.0004692980145558805,-0.001047801537782999,0.1375075361325455,-0.0012178432427625368,-0.0019466321640871018,0.27589057798061695
388.73,299,388,730000000,,14.76419691050635,0.9904031049872003,-0.0004735811130677315,-0.0010362295302544689,0.13820416629393809,-0.0012244974532465227,-0.0019216693054060676,0.2772972583299866
388.74,300,388,740000000,,14.79172881137213,0.9903056501828901,-0.0004779900557835982,-0.0010245086951589668,0.13890083197477035,-0.0012313252513937627,-0.0018963682027304232,0.2787041482684658
388.75,301,388,750000000,,14.819246531477168,0.990207692607068,-0.00048239617757177115,-0.0010128171823418476,0.13959751787574612,-0.0012381208249719945,-0.0018711172040970106,0.28011121772652553
388.76,302,388,760000000,,14.846748678617494,0.9901092343939197,-0.0004866230275583198,-0.0010010440143275988,0.14029420899237754,-0.001244503703940611,-0.0018457461077913957,0.28151843663463544
388.77,303,388,770000000,,14.871550647575676,0.9900102785413983,-0.0004908891297242052,-0.000987967453463092,0.1409908909488704,-0.0012505617831652428,-0.0018177750771525539,0.28292577492326637
