Time,header.seq,header.stamp.secs,header.stamp.nsecs,header.frame_id,torques.x,torques.y,torques.z
94.972,85,94,971000000,,-0.00018982478220545666,0.0020219855102488644,0.017604605970254802
94.983,86,94,982000000,,0.0013567390160384475,-0.002214934823589124,0.018949409674022876
94.992,87,94,991000000,,0.00302824286011283,-0.0006409825399569993,0.016426848584789513
95.002,88,95,1000000,,0.0009036696792849457,-0.0020250944053237757,0.018845689751912233
95.012,89,95,11000000,,0.000636019021442266,-0.001925163896507037,0.017364851896732116
95.022,90,95,21000000,,-4.806984964647842e-05,-0.0030137844414758405,0.01530723076628937
95.032,91,95,32000000,,-0.0018661971346205948,-0.0022428413403671587,0.013993336587695838
95.042,92,95,41000000,,-0.003528621568711872,-0.001646139056574549,0.012600023574929675
95.052,93,95,51000000,,-0.0022862036683799917,-0.00014690776833930813,0.011796526062111429
95.062,94,95,61000000,,0.0017114684465441721,0.00029904302359203894,0.011915099975668005
95.072,95,95,71000000,,0.0049852519284092215,-0.0008561429589331406,0.01289786960889948
95.082,96,95,81000000,,0.004463059644112847,-0.00231363620956978,0.01349430168110892
95.093,97,95,92000000,,-0.00038880800623185394,-0.0021548571573570714,0.012470120811279206
95.102,98,95,101000000,,-0.004744710502816336,-0.0007673046308075886,0.010993194863934937
95.113,99,95,112000000,,-0.004843222907474456,0.0010469959989104214,0.009995339610839612
95.123,100,95,121000000,,-0.001830331878976105,0.0010142125242033815,0.010179928526904896
95.132,101,95,131000000,,0.0024703721298183407,-0.0004321710971755311,0.011401003064561138
95.143,102,95,142000000,,0.004414239659232567,-0.002126692542953269,0.012732429822204652
95.152,103,95,151000000,,0.0036632351570763826,-0.003262313185598249,0.013419431528941135
95.163,104,95,162000000,,-0.00055507257530126,-0.0022314966989408777,0.012820322226904544
95.172,105,95,171000000,,-0.004051896227930977,0.0001904159211857286,0.011558899789672592
95.182,106,95,181000000,,-0.0043978773703963435,0.002083773037500994,0.010619070733067644
95.192,107,95,191000000,,-0.0016299959570628452,0.0014498758847087826,0.010726562003819736
95.202,108,95,201000000,,0.002198025565411962,-0.0009294237677948228,0.01177400793694144
95.212,109,95,211000000,,0.004031811947407627,-0.003171560939108295,0.012910561548943017
95.222,110,95,221000000,,0.002947378947561556,-0.004211318544959936,0.013679370517627082
95.232,111,95,231000000,,-0.0005440640080014594,-0.002125018503187346,0.01322532148735479
95.242,112,95,241000000,,-0.0034623295048031746,0.0009126304230868373,0.012208050085317172
95.252,113,95,252000000,,-0.003800247392331298,0.0028933608335094,0.01137284271503863
95.263,114,95,262000000,,-0.0014590950446349894,0.0020839426280639707,0.011517617984940462
95.272,115,95,271000000,,0.0025013423699330587,-0.0016962161052080761,0.012108615585831385
95.282,116,95,281000000,,0.003930001617581116,-0.004601130758109236,0.013185997949164283
95.292,117,95,291000000,,0.0020698935955336404,-0.0048997527003110854,0.013725459780307333
95.302,118,95,301000000,,-0.0006805219666075329,-0.002412025740426511,0.013663381147218765
95.312,119,95,311000000,,-0.0034037678265899374,0.0021851101012189244,0.012807194146142524
95.322,120,95,321000000,,-0.002994179019333918,0.0037855066652325983,0.012336201072480683
95.332,121,95,331000000,,-0.00020878965169389337,0.001962732158065074,0.012004281831732048
95.342,122,95,341000000,,0.0022990147135930747,-0.0023989358411915128,0.012441945700856114
95.352,123,95,351000000,,0.002672478827017032,-0.0055740320945738536,0.013160509575206302
95.362,124,95,361000000,,0.001019167141952578,-0.005232973344598911,0.013768087020451576
95.372,125,95,371000000,,-0.0011758953621472344,-0.002050558514609252,0.014085194625649897
95.382,126,95,381000000,,-0.002698732849293714,0.0031708706984739593,0.013551866965797953
95.392,127,95,391000000,,-0.0016150889834301637,0.0044474561766082825,0.013129392036401899
95.402,128,95,401000000,,0.00020310180265063806,0.002058862030966385,0.012964759541155453
95.412,129,95,411000000,,0.001895014097662212,-0.0034663846893612385,0.012637772904033676
95.422,130,95,421000000,,0.001670189581702191,-0.006365728044219675,0.013165150702411407
95.432,131,95,431000000,,-0.00016281570355154031,-0.005635415978706133,0.013734347408091492
95.442,132,95,441000000,,-0.0015630230006117914,-0.0009401806878135122,0.014300187447186637
95.452,133,95,451000000,,-0.0015757903586738162,0.003228814057755449,0.014476841878034734
95.462,134,95,462000000,,-0.00034055868584949,0.005069194352212968,0.014271479435825447
95.472,135,95,471000000,,0.0011945016179276096,0.001123105622281512,0.013315085654533548
95.482,136,95,481000000,,0.0012874515561337833,-0.003750161725037872,0.012930174020174398
95.492,137,95,491000000,,0.00020736500775921053,-0.007478127352528179,0.012972982653302817
95.501,138,95,501000000,,-0.0014008880779948908,-0.005549249856213349,0.013787449993566785
95.512,139,95,511000000,,-0.0015167706009973365,7.781053095487858e-05,0.014714084899111239
95.522,140,95,521000000,,-0.0004211063813426751,0.004058805117376153,0.01530524305163288
95.532,141,95,532000000,,0.001167474208624666,0.004614228281556553,0.015104463445562806
95.542,142,95,541000000,,0.0017419587491521156,0.000556901523940098,0.014154386365149546
95.552,143,95,551000000,,0.00022789941657464093,-0.005626288596594743,0.012664453361021627
95.562,144,95,561000000,,-0.0016153541953190498,-0.007258427858629169,0.012683907682522668
95.572,145,95,571000000,,-0.002201103788639692,-0.004042543140910779,0.013847066618579625
95.582,146,95,581000000,,-0.0011641745665786512,0.000906678592958647,0.015430343129430217
95.592,147,95,591000000,,0.001369616502993946,0.004997686555070759,0.01631178385464256
95.602,148,95,601000000,,0.002674001898218344,0.004004082438881397,0.016022626841706807
95.612,149,95,612000000,,0.0016410611557252466,-0.000988545454949482,0.014447890329709955
95.622,150,95,621000000,,-0.0013941441474545598,-0.006445995640027828,0.01254016334223746
95.632,151,95,632000000,,-0.0033445169664043923,-0.007240460086629925,0.012453649138880389
95.642,152,95,641000000,,-0.0027101433387301944,-0.0025640938976387835,0.014137454209875177
95.652,153,95,651000000,,0.00023763110925231838,0.0027192739574197827,0.01627291929221657
95.662,154,95,661000000,,0.0030058896964275774,0.004311962996227474,0.017334213412358062
95.672,155,95,671000000,,0.003529737832081669,0.0023060226786635087,0.016620278198771186
95.682,156,95,681000000,,0.0009622749982505124,-0.0027161510497559415,0.014571075618556669
95.692,157,95,691000000,,-0.0030793626359798204,-0.006693817231790371,0.012308708560471537
95.702,158,95,701000000,,-0.004830637568106125,-0.00543241342946685,0.012372752889955053
95.712,159,95,711000000,,-0.002343273438486771,-0.0009217935007971198,0.01466147190448525
95.722,160,95,721000000,,0.0019191056602288308,0.0028519293610549702,0.01720857861135143
95.732,161,95,731000000,,0.004490625522553068,0.0030960738723746707,0.01792774873688911
95.742,162,95,741000000,,0.0032072870272527674,-0.0001171060661915097,0.016633445084682924
95.752,163,95,752000000,,-0.0011042028174684622,-0.0038895806890398765,0.01401117993210816
95.762,164,95,762000000,,-0.00486451474564578,-0.005415252353573664,0.01223799995959144
95.772,165,95,772000000,,-0.0051827683247161905,-0.003499551117025699,0.01283518873249634
95.782,166,95,781000000,,-0.0009227032323408413,0.000781801404374143,0.01572533495432667
95.792,167,95,791000000,,0.0041601028405071445,0.0027260586809015595,0.018265246849370052
95.802,168,95,801000000,,0.005967619132257668,0.0015702771417907217,0.018817664351477796
95.812,169,95,811000000,,0.0029527480617525265,-0.0016257433925236718,0.01719057776822123
95.823,170,95,821000000,,-0.0034755346129313235,-0.004491978079391017,0.013496949290505093
95.832,171,95,831000000,,-0.006767924336270583,-0.004169828408655948,0.012305160455697456
95.842,172,95,841000000,,-0.004520991480167566,-0.0008954995164986997,0.013501443555980345
95.852,173,95,851000000,,0.0011638915680762523,0.00130321643777844,0.016651082606245076
95.862,174,95,861000000,,0.005531262933053119,0.001062085245493399,0.01887109204438
95.873,175,95,872000000,,0.005032372781879671,-0.0011192413174677036,0.018615931017373154
95.882,176,95,881000000,,0.0005734138287785547,-0.003828409085514484,0.016533474211483153
95.892,177,95,891000000,,-0.00532840128732753,-0.003930389463713358,0.013399680225713917
95.902,178,95,901000000,,-0.007105919504535727,-0.0010899007971738798,0.01231141498692196
95.911,179,95,911000000,,-0.002761444380574204,0.0009401315575206354,0.014594009192213818
95.922,180,95,921000000,,0.0031513010681210587,0.0009025826173069329,0.017597518839186043
95.932,181,95,931000000,,0.006951392259598863,-0.0011406953767488968,0.019568143401426184
95.942,182,95,941000000,,0.00456778670408627,-0.003231415430414519,0.01873605661533459
95.952,183,95,951000000,,-0.0028697419799373638,-0.003033442483019016,0.015467044538563407
95.962,184,95,961000000,,-0.006790944342161465,-0.0010313312975473116,0.013450162768600166
95.972,185,95,971000000,,-0.005643090766585217,0.001225520005117811,0.013466708896156554
95.982,186,95,982000000,,-0.0005465676188884242,0.0010238239294942408,0.015839153588364505
95.992,187,95,991000000,,0.005658181879605582,-0.0015136121232999004,0.01869886190316236
96.002,188,96,1000000,,0.005645679887651456,-0.0037759621367365317,0.019310873586520866
96.012,189,96,11000000,,0.0006761502482803563,-0.00374047018732306,0.017670305564800894
96.022,190,96,22000000,,-0.004317061180782336,-0.0014298759810022522,0.015583963895946212
96.032,191,96,32000000,,-0.006671914637535267,0.0017671337987808715,0.013760042288818525
96.042,192,96,42000000,,-0.0035072442762837815,0.0024797372493886045,0.014570385755507701
96.053,193,96,52000000,,0.0033163726618620545,-0.0005827497778386141,0.017260900966849364
96.062,194,96,62000000,,0.006771202828890061,-0.004797424916836479,0.019178883083028096
96.072,195,96,71000000,,0.0037935864731952064,-0.005469619153823236,0.019160952107656608
96.082,196,96,81000000,,-0.0020578357539991106,-0.00280939806342745,0.01726956372286273
96.092,197,96,91000000,,-0.006250916300100064,0.002355043794990503,0.015066574064213684
96.102,198,96,102000000,,-0.004705425570212679,0.00409836924802698,0.014716503752852455
96.112,199,96,111000000,,-0.00023908369229321965,0.0018957855471354243,0.015859178946066074
96.122,200,96,121000000,,0.004377739393262927,-0.003730469886371758,0.017803157829462644
96.132,201,96,131000000,,0.004271423501255137,-0.007083033548821343,0.018725167067455046
96.142,202,96,142000000,,0.0005034278275048669,-0.0053681094099422046,0.018505688006538932
96.152,203,96,151000000,,-0.004385729209291932,0.001044366919845469,0.016776051980822715
96.162,204,96,161000000,,-0.0047812940951762195,0.004817686556143293,0.016029353752043306
96.172,205,96,171000000,,-0.001195582269127387,0.0037620701091931373,0.01595473727464224
96.182,206,96,182000000,,0.0028801080394454297,-0.002430351421193773,0.01682935253844155
96.192,207,96,191000000,,0.0038465901660008532,-0.007233966332732968,0.017729565385207455
96.202,208,96,201000000,,0.0008288353901798796,-0.007102051109599321,0.018261588169923293
96.212,209,96,211000000,,-0.002313244134414069,-0.0021202192377773607,0.018081863245624493
96.222,210,96,221000000,,-0.004019567722873364,0.004735414490676628,0.017608274064052465
96.233,211,96,232000000,,-0.002047449203812168,0.00637040695468748,0.017044869898743303
96.243,212,96,242000000,,0.0016143730419829862,0.0006640555831953438,0.016557656606097912
96.252,213,96,251000000,,0.0028732605900178253,-0.0070095316038225434,0.016736268879892064
96.262,214,96,261000000,,0.0006838028487737217,-0.008650107282493068,0.0173197508804962
96.272,215,96,271000000,,-0.001980034256215747,-0.0038890614785655497,0.018076299107413995
96.282,216,96,281000000,,-0.002851067179843741,0.0035442705867044975,0.01855951793226472
96.292,217,96,291000000,,-0.0010870856096325424,0.007116307833367572,0.01841172337421506
96.302,218,96,301000000,,0.0010105892271386632,0.0037674626100028634,0.017737826955120082
96.312,219,96,311000000,,0.001717426730448995,-0.004868078913748304,0.01647508248773734
96.322,220,96,321000000,,-2.73273163355356e-05,-0.00968683730678327,0.01621277017224569
96.332,221,96,331000000,,-0.0022477809575289836,-0.00640711644707553,0.017290302178484714
96.342,222,96,341000000,,-0.0023137015595507625,0.0011605857482586204,0.0188504629149242
96.352,223,96,351000000,,-0.00012834184007871828,0.0064382755707951345,0.019666671153640874
96.362,224,96,361000000,,0.0019188324255762573,0.004852528331430045,0.019005987860031232
96.372,225,96,372000000,,0.0016212385341898713,-0.001133404678187721,0.017540130269343077
96.382,226,96,381000000,,-0.0006729246896995032,-0.008277738679963597,0.015586931037743635
96.392,227,96,391000000,,-0.003503955552906272,-0.008011220599587315,0.01594182271379126
96.402,228,96,401000000,,-0.003130848732322316,-0.002361591344135498,0.018134295059807473
96.412,229,96,411000000,,0.0003617913277235038,0.005772054346958839,0.02042749871170455
96.422,230,96,421000000,,0.003162680454773412,0.006705974329981821,0.02062935807251095
96.432,231,96,431000000,,0.0025445969882398585,-0.00017622197905875785,0.018613883010984437
96.442,232,96,441000000,,-0.0013528575177701844,-0.006748268278871378,0.015669399468343528
96.452,233,96,451000000,,-0.004652024139296924,-0.007768020639427133,0.01499286062107039
96.462,234,96,462000000,,-0.00435686801485406,-0.003298606171545555,0.017254361889947268
96.472,235,96,471000000,,0.00012558091204412759,0.003959798727837728,0.020334490926186898
96.482,236,96,481000000,,0.004072190758952292,0.005840497259497181,0.02166005371710411
96.492,237,96,491000000,,0.004261302500997361,0.0018161279752570846,0.020504466516189822
96.502,238,96,502000000,,-0.0009922404677116163,-0.00532203052532792,0.016318869506591675
96.512,239,96,511000000,,-0.005530783031357855,-0.007940108752701725,0.01432274924868623
96.522,240,96,521000000,,-0.0059657446514925026,-0.004277557452634242,0.015463718982012521
96.532,241,96,532000000,,-0.0011679691798280318,0.0022807313948954118,0.019446221074999426
96.542,242,96,541000000,,0.005122413976673107,0.005256050129901591,0.02239038219774279
96.552,243,96,551000000,,0.005302695127066718,0.001664723392721187,0.021471641491058447
96.562,244,96,561000000,,0.0007263707790151241,-0.003454893359483834,0.018295265186747872
96.571,245,96,571000000,,-0.005717247362756896,-0.006285248478653582,0.014770491717629976
96.582,246,96,582000000,,-0.007632841642487511,-0.0037238251747938127,0.01446380412333799
96.592,247,96,591000000,,-0.0017772986948108912,0.0013696256263510025,0.018598364666899854
96.602,248,96,601000000,,0.005260986621238254,0.0038523809059968967,0.02215069224506755
96.612,249,96,611000000,,0.006950255153990352,0.0017817993811797004,0.02280079838299795
96.622,250,96,621000000,,0.0011058769510519145,-0.003330504600407287,0.019069813450593782
96.632,251,96,632000000,,-0.005312978978280162,-0.00476713153304389,0.015648860830491985
96.642,252,96,641000000,,-0.008242790835539476,-0.002631290910390167,0.014379652750405553
96.652,253,96,652000000,,-0.0034069177210649974,0.0016831659075044782,0.01735922243710296
96.662,254,96,662000000,,0.0038052311855263365,0.0025084110869101226,0.021200256111549774
96.672,255,96,671000000,,0.00743136687965627,-6.479077317754641e-05,0.022894445208651446
96.682,256,96,682000000,,0.003362720055267684,-0.00293791576011953,0.02092621925834044
96.692,257,96,691000000,,-0.005912779875485836,-0.0038292389234358703,0.01590625941392087
96.702,258,96,701000000,,-0.009150071300968282,-0.0009738024057277843,0.014255729727282073
96.712,259,96,711000000,,-0.003949918928599354,0.0019193129691471404,0.016704451586454786
96.722,260,96,721000000,,0.004454032797398165,0.0015819482884714417,0.020847180109144846
96.732,261,96,731000000,,0.007841563785781536,-0.0014724349660716982,0.02289445986101968
96.743,262,96,741000000,,0.002794698014706127,-0.003555184931844501,0.021066001885322427
96.752,263,96,752000000,,-0.004310554878442544,-0.0031285015539854483,0.017740180887328122
96.762,264,96,762000000,,-0.008586662211694629,0.0007295566509325289,0.015138356383070244
96.772,265,96,772000000,,-0.0042528037743280196,0.003005778081714482,0.016482789093008376
96.782,266,96,781000000,,0.003769538216351739,0.0010438593024723786,0.020049659423297433
96.792,267,96,791000000,,0.007602971311890068,-0.0030237294989410124,0.02234197349180106
96.802,268,96,801000000,,0.003808334047935126,-0.004808251585837481,0.02173125230356129
96.812,269,96,811000000,,-0.0041121939289295905,-0.0024612059821995905,0.018670932860094556
96.822,270,96,822000000,,-0.008756488617180579,0.0029605822261429887,0.015688557934379357
96.833,271,96,832000000,,-0.004204921521357759,0.0043217362511746415,0.01663480619190361
96.842,272,96,841000000,,0.003594306251560783,2.7617441210703135e-05,0.019344616524616522
96.852,273,96,851000000,,0.006838495101861295,-0.004691492208244231,0.0214959572058408
96.862,274,96,861000000,,0.0029449778367648385,-0.006101906004690592,0.021282491443092903
96.872,275,96,872000000,,-0.004050242638877018,-0.0009484425107620214,0.019145809868223517
96.882,276,96,881000000,,-0.0066201472990317185,0.004236317977828385,0.017332425544887977
96.895,277,96,895000000,,-0.0013813118925483365,0.004673981437874133,0.017193875497841363
96.902,278,96,901000000,,0.0032695143867925557,-0.00016732499615013032,0.019079871210201705
96.912,279,96,911000000,,0.005321620218784032,-0.005626143502834325,0.020461075260728878
96.922,280,96,921000000,,0.0016945617477327748,-0.0065972202866627,0.020696422713263378
96.932,281,96,931000000,,-0.003719828801350341,-0.0005428341406439459,0.019669942057677837
96.942,282,96,941000000,,-0.005357080966546143,0.005887431862097347,0.01850634363555044
96.952,283,96,951000000,,-0.0026483129930062414,0.00671080461828424,0.018135527209266127
96.962,284,96,961000000,,0.003110462808902529,-0.0011801593135653118,0.01859656376429402
96.972,285,96,971000000,,0.004153224284455346,-0.0069981902613377705,0.019437215619309965
96.982,286,96,982000000,,0.00040801843454081306,-0.007033100967363329,0.019985338953571474
96.992,287,96,991000000,,-0.003243090447315775,-0.0006234126473283847,0.02009187374371684
97.002,288,97,1000000,,-0.004161664846966719,0.006923791153576619,0.01974690863606749
97.012,289,97,12000000,,-0.0010105497850165582,0.007162221689532771,0.0191106456286102
97.022,290,97,21000000,,0.0029473266788751272,-0.0016281835882559102,0.018337939364283316
97.032,291,97,31000000,,0.002420883277764707,-0.00843849840301134,0.018315140123030635
97.043,292,97,41000000,,-0.0005581686727856927,-0.007747856496766663,0.019269887416352743
97.052,293,97,52000000,,-0.0035513254167412137,0.0005245442178224481,0.02051009142500298
97.063,294,97,62000000,,-0.0029108901459591265,0.008552166233792893,0.021038468990073337
97.072,295,97,71000000,,0.0009761657917946268,0.007585886307685339,0.019905462068394487
97.082,296,97,82000000,,0.0025477447585747705,-0.0020019430692318116,0.018175125431184387
97.092,297,97,91000000,,0.001135247230737815,-0.009284945815588249,0.017438682720225435
97.102,298,97,102000000,,-0.00257710071256806,-0.006461282642158872,0.018514067092528303
97.112,299,97,111000000,,-0.003139097001176105,0.0028102842872881027,0.020861389500424314
97.122,300,97,121000000,,-0.0005842641034658973,0.008753702417059018,0.0219309333932036
97.132,301,97,131000000,,0.0027151007547360027,0.005393269723069145,0.0206273614965393
97.142,302,97,141000000,,0.0020430210088369215,-0.003831142353515842,0.017788358523306746
97.152,303,97,151000000,,-0.0012627969306995925,-0.008643153626434894,0.01647213526160983
97.162,304,97,161000000,,-0.0038022635146536224,-0.005507741602381925,0.01784933001287401
97.172,305,97,171000000,,-0.0019447224662407587,0.004415406545972566,0.021479940822629925
97.183,306,97,181000000,,0.0021567661334735964,0.008438419807591543,0.02279042782499833
97.192,307,97,191000000,,0.003733924197738404,0.0038316975877877918,0.021149784686505933
97.202,308,97,202000000,,0.0005333682344924719,-0.004770721073041045,0.017294884513645015
97.212,309,97,211000000,,-0.0038287491392815817,-0.007935271711737742,0.01581722437613637
97.222,310,97,222000000,,-0.004558019348809813,-0.0026159330560800026,0.017915440401779458
97.233,311,97,232000000,,-0.0002497456849136659,0.0052702164436673245,0.021960935021046707
97.242,312,97,241000000,,0.003999837763463471,0.008058591913914207,0.023669736734159876
97.252,313,97,252000000,,0.004090779764156772,0.0017135135331462765,0.02095989120766007
97.262,314,97,261000000,,-0.0011527799335245956,-0.005551331129925613,0.016730268142883
97.272,315,97,271000000,,-0.005698048956298099,-0.006163774178358001,0.015228477881786408
97.282,316,97,281000000,,-0.004102662274562857,-0.00029067941764817143,0.018293632868562348
97.292,317,97,291000000,,0.0019732149158629133,0.005680046911469596,0.022548227606114912
97.302,318,97,301000000,,0.005804529592852705,0.005786450142474447,0.023681657443138913
97.312,319,97,311000000,,0.0038243952625685706,9.116722466897284e-05,0.021022317878086533
97.322,320,97,322000000,,-0.0035705411275271026,-0.005730426816920459,0.01580741593798899
97.332,321,97,331000000,,-0.007001139979977413,-0.004072278094694746,0.015025130993751376
97.342,322,97,341000000,,-0.003649368163162584,0.001339434050552164,0.018384626698367403
97.352,323,97,352000000,,0.00440537192355907,0.006225636759012855,0.023262815145966384
97.362,324,97,361000000,,0.007268545731456082,0.00357526749021014,0.023849143831566368
97.372,325,97,372000000,,0.0018815973002141886,-0.0021011063983772233,0.019944093113889567
97.383,326,97,381000000,,-0.0057505000692181524,-0.004738769396378544,0.015436115871081305
97.392,327,97,391000000,,-0.007734783969114039,-0.0019511483573263224,0.015023963799808956
97.402,328,97,402000000,,-0.0010716127947317114,0.00415523044328804,0.01957827319041279
97.412,329,97,411000000,,0.006401190682387037,0.004414651204711225,0.023358075641210452
97.423,330,97,423000000,,0.006489282911236489,0.0006865772884660678,0.02301263567844014
97.432,331,97,431000000,,0.0003645336721666424,-0.0028452291301533004,0.01945118385758042
97.442,332,97,441000000,,-0.007538698303001077,-0.0023966129051460785,0.015068035328039004
97.451,333,97,451000000,,-0.007150432064886873,0.0011501959160510173,0.015600728598320835
97.462,334,97,461000000,,0.000973899017086206,0.00424041124640945,0.019822726264511994
97.472,335,97,471000000,,0.008209884709147339,0.002537595292457365,0.02356802273898114
97.482,336,97,481000000,,0.005223396164600199,-0.0015067163322711242,0.0222173241355219
97.492,337,97,492000000,,-0.0023659911285335124,-0.002791732363488773,0.018613501164793617
97.502,338,97,501000000,,-0.008022850115739152,0.00019827965478883848,0.015665066209338163
97.512,339,97,511000000,,-0.003976526206909173,0.004061532102987426,0.01691525762937398
97.522,340,97,521000000,,0.004765175985315934,0.0035347822271206567,0.02084737249511919
97.532,341,97,532000000,,0.008291367396371681,-0.00035473062006709146,0.023076287742887683
97.542,342,97,541000000,,0.0024734932768631294,-0.002772356551999142,0.02107558119119126
97.552,343,97,551000000,,-0.00571523212193607,-0.0006361612389636259,0.017585362661900486
97.562,344,97,561000000,,-0.0069702903226834,0.003795991275960517,0.016333257511481666
97.572,345,97,572000000,,-0.0003769249899535516,0.004716586790496802,0.01799716581278448
97.582,346,97,581000000,,0.007354364826826344,0.0009434726721824389,0.021096398219145048
97.592,347,97,592000000,,0.006409155043353909,-0.0032737637549132615,0.021990262168858198
97.602,348,97,602000000,,0.0004071883032515341,-0.0026487373601952165,0.020785766973486428
97.612,349,97,611000000,,-0.006369789348961963,0.002164775499855852,0.017856035154770678
97.622,350,97,621000000,,-0.004927667461053886,0.00619224844319177,0.01689687785455746
97.632,351,97,632000000,,0.0018645688066900412,0.004049622362714919,0.018446422757515096
97.642,352,97,641000000,,0.007324448511825974,-0.0015790984553383741,0.02051962600034824
97.652,353,97,651000000,,0.004675054747287348,-0.004319608913669007,0.021222729464265896
97.662,354,97,661000000,,-0.0027964763849537277,-0.0007138440007574427,0.019994997807367968
97.672,355,97,671000000,,-0.0068013751393125425,0.005590630408624873,0.018192939038876425
97.682,356,97,682000000,,-0.0018113567315585664,0.007225165557346504,0.017412956446608348
97.692,357,97,691000000,,0.005386604604698863,0.0010149870401121167,0.018428764469226182
97.702,358,97,701000000,,0.0059764624524777325,-0.0045007930603317495,0.019791925378232662
97.712,359,97,711000000,,0.0012228571858382549,-0.0037871150473108993,0.02053214960147462
97.722,360,97,722000000,,-0.005132727438276798,0.003720263776336632,0.019795009555986624
97.732,361,97,731000000,,-0.004063166461482464,0.008495621954040621,0.018644033017449425
97.742,362,97,741000000,,0.0014361526462516217,0.005804777370352261,0.017998083294910806
97.752,363,97,751000000,,0.0064120101541989966,-0.0027872196632460306,0.01790050610420578
97.762,364,97,762000000,,0.0033999313706543403,-0.005780446281884758,0.019206566109960344
97.772,365,97,772000000,,-0.0022632629395188775,-5.8312489687097587e-05,0.020488780342661016
97.782,366,97,781000000,,-0.004136278626206325,0.007578881821282591,0.020232672895213407
97.792,367,97,791000000,,-0.000272319024823948,0.008548414663688523,0.018851322600980196
97.802,368,97,801000000,,0.004490071813323134,0.0013594583554215193,0.017239415617394876
97.813,369,97,812000000,,0.0042208316614430275,-0.00544732443826975,0.01728514141808725
97.822,370,97,821000000,,1.0858329834389493e-05,-0.004092440955679393,0.019188436894719326
97.832,371,97,831000000,,-0.003208254539738319,0.004198259580904353,0.021012111376631094
97.842,372,97,842000000,,-0.0011707020510276366,0.009443789122553527,0.020651422344154662
97.852,373,97,851000000,,0.002579032830628326,0.0063533309954281894,0.018631889743170434
97.862,374,97,861000000,,0.004453949597245028,-0.0030310717436225912,0.016104204009997423
97.872,375,97,871000000,,0.0013903546013418764,-0.006150001667190114,0.016912558734866898
97.882,376,97,881000000,,-0.002197932672609519,-5.2272980465038365e-05,0.019898470014526846
97.892,377,97,891000000,,-0.0015696844513992396,0.008113271048779973,0.021679076127742464
97.902,378,97,901000000,,0.0016145533136287895,0.00958729800368725,0.020660954739302406
97.912,379,97,912000000,,0.004407646596346409,0.0014378919297259904,0.016879513583396635
97.923,380,97,921000000,,0.003218462064818771,-0.005780806415033384,0.015034111679741172
97.933,381,97,931000000,,-0.0014187018253490084,-0.0040108862918777025,0.01723618730275943
97.942,382,97,942000000,,-0.0026737031522981874,0.0037586258085551406,0.020777811442212683
97.952,383,97,951000000,,0.0005153081166477058,0.01036972079023413,0.02250807809212952
97.962,384,97,962000000,,0.0044865770633715826,0.006252509380325723,0.019159362692375743
97.972,385,97,971000000,,0.0032975272772209695,-0.002517882645916575,0.015311997519486184
97.983,386,97,982000000,,-0.0002355380341335936,-0.005789077165290919,0.014741954444720977
97.992,387,97,991000000,,-0.0026047574586848866,0.0006940807991569217,0.018942850050558804
98.002,388,98,2000000,,-0.0002918075563839211,0.009244421182668673,0.0227785321446683
98.012,389,98,12000000,,0.004298181823193361,0.008785040273045903,0.021509489373061828
98.022,390,98,21000000,,0.004443890902121691,0.001200252515413014,0.017085673435416913
98.032,391,98,32000000,,0.0003648440504997227,-0.004992961593729877,0.013857684758782393
98.042,392,98,42000000,,-0.0027155998329340594,-0.003069579799774557,0.015451436415582087
98.052,393,98,51000000,,-0.0009061153047703346,0.005966302289710852,0.020869493232280167
98.062,394,98,61000000,,0.003975992865539726,0.009438911294732316,0.02248506190135098
98.072,395,98,71000000,,0.0058030408356918445,0.004871078028387206,0.019489075623620532
98.082,396,98,81000000,,0.0021100636032352904,-0.0025612544996736876,0.014691837461272506
98.092,397,98,91000000,,-0.002661550377022383,-0.003361748314750699,0.014101871071084402
98.102,398,98,101000000,,-0.0022276554222479747,0.0029248411814160012,0.01800798262395472
98.112,399,98,112000000,,0.002342408617320441,0.008121093103249004,0.02171643791154919
98.123,400,98,121000000,,0.006724158753650166,0.00740270118453467,0.021612398495446817
98.132,401,98,132000000,,0.00445091322139483,0.000598380679651345,0.016977108552813223
98.142,402,98,141000000,,-0.0014682173888776846,-0.0031074273158443657,0.013599090713202991
98.152,403,98,151000000,,-0.003470514734555116,0.0006428404025564919,0.015448794874588724
98.162,404,98,161000000,,0.0009979554582255816,0.006828211206300138,0.020114010983841572
98.172,405,98,171000000,,0.006466004129196262,0.008234931170960925,0.022205373728532672
98.182,406,98,181000000,,0.006445364622836202,0.0031195987901182134,0.019321701773947167
98.191,407,98,191000000,,0.000658742025076361,-0.002102067969999445,0.014637440260963957
98.202,408,98,201000000,,-0.0038474012283378576,-0.0006311738518593223,0.01380536591589149
98.212,409,98,211000000,,-0.0012022802915947258,0.005140975753654079,0.017524293672548943
98.222,410,98,221000000,,0.00459462355044712,0.008166481619190738,0.02107959749046588
98.232,411,98,231000000,,0.00807357850945398,0.005133501189765094,0.02093927774086663
98.242,412,98,241000000,,0.0033695687013576632,-0.00022917740515686021,0.016800828600355866
98.252,413,98,251000000,,-0.002907788982651541,-0.0008290090045397196,0.013838880730852928
98.262,414,98,261000000,,-0.003266996340814574,0.0035461999315303592,0.015231058210676409
98.272,415,98,272000000,,0.0030937041450841913,0.007397808269831035,0.019290874472250072
98.282,416,98,281000000,,0.00794530750646003,0.006533106325706535,0.02080206688253071
98.292,417,98,291000000,,0.0058854742159720145,0.0011170144963553454,0.018531129028100675
98.302,418,98,301000000,,-0.00018945363583902533,-0.0009751663444599228,0.015322909247396911
98.312,419,98,312000000,,-0.004130254229461813,0.0026140346056149084,0.014000005664951248
98.322,420,98,322000000,,0.0006150425056911246,0.00685043816008249,0.016897558725536388
98.332,421,98,331000000,,0.007301668517739225,0.006742283993637988,0.01976662603078949
98.342,422,98,342000000,,0.008274210050379675,0.0032152447602747485,0.019765183384239313
98.352,423,98,351000000,,0.0016467001894839804,-0.00045044389864569456,0.016507347459343187
98.362,424,98,362000000,,-0.0034320602505097833,0.001289708734538751,0.014549756014703963
98.372,425,98,371000000,,-0.002340475770372506,0.006008010604898264,0.01485570689618771
98.382,426,98,381000000,,0.004718564269785288,0.007543838380959386,0.017639762575357792
98.392,427,98,391000000,,0.009208986326860754,0.0039202767487082416,0.01930378676061137
98.402,428,98,402000000,,0.004823942639424953,0.00018782170176366987,0.01798767577157454
98.412,429,98,411000000,,-0.0018987785994186877,0.0015381765311934408,0.01567107038017405
98.422,430,98,421000000,,-0.0024541522025856434,0.005936089913349943,0.01486397020001515
98.432,431,98,431000000,,0.0033768576386477103,0.007538516199093296,0.016076549058596686
98.442,432,98,442000000,,0.008410013773355757,0.004571647296802168,0.017789436180171498
98.452,433,98,451000000,,0.006553542498275014,0.0005680256806000772,0.01822593139097009
98.462,434,98,461000000,,3.192779303958594e-05,0.001130298270747183,0.016896957958122336
98.472,435,98,471000000,,-0.0027097004418272256,0.005363318783334127,0.015330615244109929
98.482,436,98,481000000,,0.0007879536803156928,0.008290903908882267,0.014977417893015543
98.492,437,98,492000000,,0.007813530140658036,0.005833670971729326,0.015976851855662295
98.502,438,98,501000000,,0.00825333415097671,0.001651141654496087,0.017326984572029767
98.512,439,98,511000000,,0.0021567845058977114,0.00035569851287321525,0.017679188337606667
98.522,440,98,522000000,,-0.002381452735131592,0.004383433482463252,0.016451174934128676
98.532,441,98,532000000,,-0.00025616831695334365,0.008214458214963735,0.014833725141020083
98.542,442,98,541000000,,0.006069428316635555,0.007350929584497026,0.014541920591667493
98.552,443,98,551000000,,0.008388708705232305,0.0024436968485627027,0.015537378133893347
98.562,444,98,561000000,,0.004512700539182533,7.843561417687946e-05,0.017674412914618364
98.572,445,98,571000000,,-0.00034782410167362335,0.0029176951179110126,0.017750818782158978
98.582,446,98,581000000,,-0.0010779148073036533,0.008261763321440818,0.015615721502153295
98.592,447,98,591000000,,0.0036022903904383546,0.008677469587348673,0.013859555931226217
98.602,448,98,601000000,,0.008663468155444862,0.003387127719037552,0.013778325289096276
98.612,449,98,611000000,,0.006129158177425617,0.0004239110954952386,0.01634572351889349
98.622,450,98,621000000,,0.0012166610730082214,0.002004110645144206,0.01801737076091073
98.632,451,98,632000000,,-0.0012067674663169996,0.007066686756225502,0.01729569108750586
98.642,452,98,641000000,,0.003113436094007773,0.009326953488594851,0.013791733170798983
98.652,453,98,651000000,,0.007853313227794824,0.005270233932503862,0.01226439224711572
98.663,454,98,662000000,,0.006944553752816486,0.00031379062313950786,0.014512391349081704
98.672,455,98,671000000,,0.0022569481941651917,0.0015654089206358199,0.017856791930462766
98.683,456,98,682000000,,-0.0002165194698113365,0.005941441705264557,0.018302178538036343
98.692,457,98,691000000,,0.0022133753307275504,0.009865707488856363,0.014859517608578541
98.702,458,98,701000000,,0.006488096135492074,0.007308373100566628,0.011889995677914891
98.712,459,98,711000000,,0.00792589009992859,0.0018073494023036936,0.012162374939813904
98.723,460,98,722000000,,0.004427542832308533,5.943788086882002e-05,0.01612477380221314
98.732,461,98,732000000,,0.00026759832595020874,0.00422144010927753,0.019109335390929433
98.742,462,98,741000000,,0.0008427786298734072,0.00939655212953512,0.017227828633083538
98.752,463,98,751000000,,0.005976935341074812,0.008895328658843115,0.011701689085612144
98.762,464,98,762000000,,0.0082214408589,0.0038446892796681177,0.0101904967762672
98.772,465,98,772000000,,0.005522196261842808,0.0003194161855912419,0.013753885133490277
98.782,466,98,781000000,,0.0009617836119277366,0.0033283246035746175,0.01882517527270035
98.792,467,98,791000000,,0.0012677641930535564,0.00929272858431499,0.018134966519904684
98.802,468,98,801000000,,0.0050127054696519815,0.009618007036440538,0.013744794479217741
98.812,469,98,811000000,,0.008120251771728029,0.00412508374329258,0.00924604769612857
98.822,470,98,821000000,,0.006089930208285226,0.0006257275117071306,0.01174696090498882
98.832,471,98,831000000,,0.002418401249092844,0.002746011970622275,0.016712919452901293
98.842,472,98,841000000,,0.001001777507035195,0.0074331804283062665,0.019171732979506244
98.852,473,98,851000000,,0.004775798940395593,0.010190851577453357,0.014627171901669851
98.862,474,98,862000000,,0.0077648551886249795,0.007002668723014664,0.009863556177380068
98.872,475,98,872000000,,0.007043746995505974,0.0013453626059713366,0.009416238923580091
98.882,476,98,882000000,,0.0034989002764365075,0.0012870034845828375,0.014550133136310142
98.892,477,98,891000000,,0.0012678017477672527,0.0066618906806077995,0.019219971192112786
98.902,478,98,902000000,,0.004201739992470492,0.010084223409005338,0.016195148817371323
98.912,479,98,912000000,,0.007828009987266139,0.007847278253063581,0.010125910681754304
98.923,480,98,922000000,,0.007369708256465217,0.002416424707169771,0.008167097369982976
98.932,481,98,932000000,,0.003926127274038136,0.002029271397478525,0.012849093423780203
98.942,482,98,941000000,,0.0017479465654544604,0.005051762782256566,0.017693889740112503
98.952,483,98,951000000,,0.003218125039541124,0.009493229089249851,0.018182349618941083
98.962,484,98,962000000,,0.007173057777222172,0.009813600078461548,0.0124010806550976
98.972,485,98,971000000,,0.008649492309748083,0.004595927962848236,0.006721065080265676
98.982,486,98,981000000,,0.005615350377951445,0.0018611981143281159,0.009505324226955892
98.992,487,98,991000000,,0.0018319786192484311,0.004219370827522451,0.01696116921047493
99.002,488,99,1000000,,0.002523113418357168,0.008382672656544136,0.018688850113988516
99.012,489,99,11000000,,0.00694854887568115,0.010150120409971215,0.01341137879150444
99.022,490,99,22000000,,0.008848296276798428,0.0066760162823487415,0.008091187485948932
99.032,491,99,32000000,,0.006425718288011312,0.002164256685458549,0.007865865364217456
99.042,492,99,42000000,,0.002670868129588837,0.0034197327322847593,0.014203250550203012
99.052,493,99,51000000,,0.0023525136151382004,0.007023124620916478,0.017747189835504277
99.062,494,99,62000000,,0.006452051164145863,0.01083831205186523,0.014824229475105
99.072,495,99,71000000,,0.009154691125789946,0.008085462053476027,0.008929392916848796
99.082,496,99,81000000,,0.008137174491233308,0.0034461336676883596,0.00594309491897415
99.092,497,99,91000000,,0.0035426952868423986,0.0030522894543243617,0.011660002728003714
99.102,498,99,102000000,,0.0021364586477414806,0.006078225428003522,0.016637998843941734
99.112,499,99,111000000,,0.005415093112252012,0.01087440734179905,0.016313340186876347
99.122,500,99,121000000,,0.00918021632047213,0.008777382586648702,0.009952003881684771
99.132,501,99,132000000,,0.008976120988531379,0.004877455782052841,0.006305950866292468
99.142,502,99,141000000,,0.004775080728203993,0.003004525850322867,0.009317338492841998
99.152,503,99,152000000,,0.002243488023726663,0.005713776920315102,0.015374851502030645
99.162,504,99,161000000,,0.0047109452412353574,0.010379134264096632,0.016420841000069672
99.172,505,99,172000000,,0.008820977517134026,0.009115502320965158,0.011337830180584922
99.182,506,99,182000000,,0.009636749865351022,0.005453936767777265,0.006307900161197371
99.191,507,99,191000000,,0.006053656792844579,0.003587814307797664,0.007463987009146385
99.202,508,99,201000000,,0.0028017187495603855,0.005887537574533669,0.013354438770076476
99.212,509,99,212000000,,0.0038615319567332964,0.009258735255507898,0.016295560966684254
99.222,510,99,221000000,,0.008052064498831741,0.009708210348654607,0.0127807531728804
99.233,511,99,232000000,,0.010264636884047147,0.006678306630929864,0.007209057149662627
99.241,512,99,241000000,,0.007823174375246914,0.003983449871642427,0.006054922070970928
99.252,513,99,252000000,,0.004041309605441961,0.004860905739844884,0.010097725040853496
99.262,514,99,262000000,,0.0028702320719803712,0.008635066522888818,0.015906804342402943
99.272,515,99,271000000,,0.0062299732513968606,0.010120650343317304,0.014368653126913149
99.282,516,99,282000000,,0.01046850697596992,0.0074542090012850925,0.008240339238261965
99.292,517,99,291000000,,0.009572794086507224,0.005703881188832457,0.005684133570494809
99.302,518,99,301000000,,0.0051750255440014825,0.004890079852256208,0.008908139821307618
99.312,519,99,311000000,,0.003038766498420057,0.007499215394658319,0.01351274765272998
99.322,520,99,321000000,,0.0050177930177607915,0.010174206913990413,0.014773280615432795
99.332,521,99,331000000,,0.009817049044446323,0.008491366517738847,0.009987769307278745
99.342,522,99,341000000,,0.011039251686990223,0.006681557217294324,0.005907364528491362
99.352,523,99,351000000,,0.007556437186365271,0.004634395610517996,0.006685426486505747
99.362,524,99,362000000,,0.003219136662936417,0.0065069285453900234,0.012075390405160128
99.372,525,99,371000000,,0.004675159213612496,0.01108839750062181,0.013923479027219202
99.382,526,99,381000000,,0.00910654985194661,0.009555147373048339,0.01087341361772048
99.392,527,99,392000000,,0.011597068924172152,0.006290598120750128,0.006625638014015866
99.402,528,99,402000000,,0.009281102692455443,0.004609142937965795,0.005997996181844907
99.412,529,99,412000000,,0.0046834282854986056,0.0064187233793763865,0.009506156796990574
99.423,530,99,423000000,,0.0032341221450095385,0.009738221224936453,0.01314151181499014
99.432,531,99,431000000,,0.006894881058489964,0.0108271887113385,0.0122187799938529
99.443,532,99,442000000,,0.01152340558941844,0.008310589569113477,0.008146638739489336
99.452,533,99,452000000,,0.011405821731111524,0.005158944395123741,0.005817054590862458
99.462,534,99,461000000,,0.0061510333970907155,0.005853364044699052,0.00823239242367612
99.472,535,99,471000000,,0.0036741463396326975,0.009450261320978504,0.011534347680471763
99.482,536,99,482000000,,0.005765891947576617,0.011090862242180945,0.011857877066235915
99.492,537,99,491000000,,0.01064673903093494,0.00912121947061729,0.008938345594998825
99.502,538,99,501000000,,0.01221550888211575,0.0056534517498839166,0.00632237943323783
99.512,539,99,511000000,,0.008010973784198712,0.005315112142385933,0.007170651001816606
99.521,540,99,521000000,,0.004290041185882872,0.008342636709422873,0.009753778161419228
99.532,541,99,531000000,,0.004682590801034269,0.011360834400741256,0.011168880398459705
99.542,542,99,541000000,,0.009354588603676304,0.010419171378166833,0.009622756327740439
99.552,543,99,551000000,,0.01276842534992895,0.006631680120764078,0.00702526591238676
99.562,544,99,561000000,,0.01091921922225139,0.0047040130608016605,0.006403720389822103
99.572,545,99,571000000,,0.0058204816602293805,0.007301234850053623,0.008376686600967409
99.582,546,99,581000000,,0.003763848303117698,0.01137321771580968,0.010349194928743245
99.592,547,99,592000000,,0.0075312775956174315,0.011495787934507274,0.009562277214841128
99.602,548,99,602000000,,0.012973998682437165,0.007648431480411675,0.007489907103948131
99.613,549,99,613000000,,0.012435677112857868,0.004919519878655243,0.006740368557341287
99.622,550,99,622000000,,0.00780718578604089,0.005844033919878055,0.007448227397637132
99.631,551,99,631000000,,0.0036982318938416896,0.010698922724890968,0.009025271454944537
99.642,552,99,642000000,,0.006003960507550251,0.012374509433069766,0.009055458699971054
99.652,553,99,652000000,,0.012001497519804113,0.009156188685256729,0.007892318370451186
99.662,554,99,662000000,,0.013500627420163856,0.005413952396033109,0.007132468656343635
99.672,555,99,672000000,,0.009937778349332928,0.005173499239929744,0.007193386729330566
99.682,556,99,682000000,,0.004773276698532408,0.008437171448052765,0.0077959502117814624
99.692,557,99,692000000,,0.005352413465592566,0.014394385633778102,0.008180389026673413
99.702,558,99,701000000,,0.010477602450493792,0.010807969738810867,0.007916876483400842
99.712,559,99,711000000,,0.013843601130492824,0.006276866898386649,0.007527777787588933
99.722,560,99,722000000,,0.012422856608473325,0.004171185009282036,0.0072818001726752575
99.732,561,99,732000000,,0.006308589395046308,0.008067524760943426,0.007145129600849754
99.742,562,99,742000000,,0.004108578045689098,0.012520964061732042,0.006977777634877074
99.752,563,99,751000000,,0.0076968396264721324,0.013210456558282851,0.007220333665764684
99.762,564,99,761000000,,0.013401824392891292,0.00856878064209852,0.00758930113590954
99.772,565,99,771000000,,0.014357523361812383,0.004314197993985556,0.007725981016340802
99.782,566,99,781000000,,0.00876332421759274,0.006225403623380823,0.0069780790858783555
99.792,567,99,791000000,,0.0047282482121686386,0.011913611598572373,0.006157218763484465
99.802,568,99,801000000,,0.00644466643261145,0.014050743080514317,0.006122239986921517
99.812,569,99,811000000,,0.012698886130020274,0.009984460206838162,0.0072909233468790085
99.822,570,99,822000000,,0.014980588369483301,0.005079843478573502,0.008019915827571339
99.832,571,99,831000000,,0.01199895096336756,0.00410160980529164,0.007521293481819138
99.842,572,99,841000000,,0.0054940650352666735,0.009959309347640725,0.005665370356614097
99.852,573,99,851000000,,0.005263064060021227,0.01465069977303625,0.005014493375620366
99.862,574,99,862000000,,0.010541981584798747,0.012737340356753517,0.006228371094369013
99.872,575,99,872000000,,0.01487711443299845,0.007023470366619308,0.00784588280448335
99.882,576,99,881000000,,0.014263557908100414,0.0033663688118070415,0.008191398639701643
99.892,577,99,891000000,,0.007863741522299017,0.007394134802172505,0.0059608188609111806
99.902,578,99,902000000,,0.004804266743529555,0.014003490074829466,0.0040610048806487865
99.912,579,99,912000000,,0.008535928904305722,0.01476659994277413,0.004797500094681047
99.922,580,99,922000000,,0.014546872769936187,0.008994126776057447,0.007413589954947538
99.932,581,99,932000000,,0.015182995406142728,0.0022053294081921006,0.008730943431458246
99.942,582,99,941000000,,0.011688545366748317,0.005892275990983872,0.007226403467066488
99.952,583,99,951000000,,0.004911579767060435,0.01214380486230149,0.003533845753297968
99.963,584,99,961000000,,0.005486208512361875,0.01607343971535802,0.0028182104294138914
99.972,585,99,971000000,,0.012472344898817583,0.012778112375227937,0.005785458137276605
99.982,586,99,982000000,,0.017003744680510517,0.005204403754777361,0.008846588697990657
99.992,587,99,992000000,,0.013750511899810927,0.0028897361201003268,0.008167968553600592
100.002,588,100,2000000,,0.007072854234610229,0.008832844746974662,0.004336146037760366
100.012,589,100,12000000,,0.004690326908443105,0.01559966901188309,0.0018512882248781556
100.022,590,100,22000000,,0.009767476462762957,0.015898677645177425,0.0036073410792157746
100.032,591,100,31000000,,0.016064469857109784,0.008142722874857207,0.007765929067258136
100.042,592,100,42000000,,0.016937359521052922,0.002411899363333119,0.009326840471918106
100.052,593,100,51000000,,0.010052791794447085,0.0051417739398138635,0.005971681490861659
100.063,594,100,62000000,,0.004642415316504046,0.012615721606161867,0.0016163353686508997
100.072,595,100,72000000,,0.007012320628878548,0.01956519585132147,0.0011726766772947716
100.082,596,100,81000000,,0.013754302182951506,0.013328156972315607,0.00531692759177642
100.092,597,100,92000000,,0.018290606069112158,0.0040263098290306,0.009472475519726537
100.102,598,100,101000000,,0.013921383131527895,0.0017250150931442543,0.008219690651971487
100.112,599,100,112000000,,0.006612483485761806,0.009875755945507018,0.0027474306534084197
100.122,600,100,122000000,,0.005597783596416447,0.017833241694927875,-6.251610821556182e-05
100.132,601,100,131000000,,0.01148013667660813,0.016365440490200767,0.0029997282702114237
100.142,602,100,142000000,,0.017102069809203445,0.008109319401452188,0.007856734396380235
100.152,603,100,151000000,,0.017407456658207986,0.0005724483877093661,0.010124077727573571
100.162,604,100,161000000,,0.010750363565948664,0.004260228666402636,0.005761341994811249
100.172,605,100,172000000,,0.004457227261609291,0.01558574772159503,-0.000676019577946347
100.182,606,100,182000000,,0.006989673687385544,0.01966856178562361,-0.0006810019928871792
100.192,607,100,192000000,,0.015638548909931972,0.010936342389925264,0.005934584409540784
100.202,608,100,201000000,,0.01996355379036192,0.004376232904532196,0.010482442073544027
100.213,609,100,212000000,,0.014687022934453835,0.0008027882902317211,0.008414086287905043
100.222,610,100,222000000,,0.005300421909768876,0.008568372042749189,0.0007658689518483079
100.232,611,100,232000000,,0.004986732689419883,0.02082734588767434,-0.0024478637589458157
100.242,612,100,241000000,,0.011767528247424271,0.018358407765042217,0.0012241100809512236
100.252,613,100,251000000,,0.018694508005240702,0.0062501301374303445,0.008322589749142687
100.262,614,100,262000000,,0.018487475319192426,0.0012870860196827188,0.010563421260263465
100.272,615,100,272000000,,0.010708125614448168,0.0034376386159227735,0.005217990387045029
100.282,616,100,281000000,,0.004336870089995517,0.01628537043539689,-0.002554322245911565
100.292,617,100,291000000,,0.007362867500384479,0.021321755933608896,-0.002451341938128392
100.302,618,100,301000000,,0.017318356541846082,0.013248230197015487,0.005500678819719487
100.312,619,100,312000000,,0.019698232444788938,0.00022860728489629452,0.010695564674218757
100.322,620,100,321000000,,0.01485602480302369,0.0016530371853215008,0.008150367511563936
100.332,621,100,332000000,,0.0062513850900406545,0.010203135326286092,9.865431914788704e-05
100.342,622,100,341000000,,0.005703390901834434,0.01988901733344762,-0.0037803410870794352
100.352,623,100,351000000,,0.013568089784619042,0.019126415407584425,0.0008452175624862682
100.362,624,100,361000000,,0.020236429366519496,0.007227384913782227,0.008749903489813748
100.372,625,100,371000000,,0.019048462320229657,-0.0018746588171369098,0.011044390806715494
100.382,626,100,382000000,,0.009845868858106559,0.0031368500267359963,0.004363083855578684
100.392,627,100,392000000,,0.0047123048960929365,0.015394215204376196,-0.002762174215286602
100.402,628,100,401000000,,0.008757550268006026,0.02325988538795884,-0.0038894336835515967
100.412,629,100,411000000,,0.01736097339991215,0.013374273006900946,0.004192718076858257
100.422,630,100,422000000,,0.022543154250056326,0.0037998591153395036,0.011254370185226091
100.432,631,100,432000000,,0.015540854501498922,-0.002423021317775916,0.008882592319513662
100.442,632,100,441000000,,0.006199802762167636,0.00835229953791592,-5.6282104830499696e-05
100.452,633,100,451000000,,0.0051759696028452025,0.021718039662682567,-0.005642065079456858
100.462,634,100,461000000,,0.0134638129138254,0.021741149070664424,-0.0013485319115815308
100.472,635,100,471000000,,0.02077952567402276,0.010602097053417168,0.006768579571796823
100.482,636,100,482000000,,0.02091036520922622,-0.002879739527552402,0.011988206751431588
100.492,637,100,491000000,,0.011216579709924079,-3.268515897509455e-05,0.005503566179581433
100.502,638,100,502000000,,0.003914144969717135,0.013264273688797065,-0.003240346418558417
100.512,639,100,511000000,,0.007210487988805911,0.025319586660738875,-0.006478992439559279
100.522,640,100,521000000,,0.017597018364127297,0.01947777584070081,0.0015509972638664575
100.532,641,100,531000000,,0.02401759709990295,0.0037072720538337987,0.010702089977597267
100.543,642,100,543000000,,0.017750480640071682,-0.005024851424184943,0.01015824775727485
100.552,643,100,551000000,,0.007530786983367095,0.0034933076548921286,0.001543225211194061
100.562,644,100,561000000,,0.003774107599715781,0.02050656582627494,-0.0065941634032463115
100.572,645,100,571000000,,0.010552547080087557,0.025408467035437275,-0.005071529358191881
100.582,646,100,581000000,,0.02224378082193621,0.013540751900580836,0.005911479149069799
100.592,647,100,591000000,,0.023731741031457212,-0.0004370981177101059,0.011614752820783959
100.602,648,100,602000000,,0.01625059856847059,-0.006054549014348079,0.00914825880474146
100.612,649,100,612000000,,0.0027200888242149106,0.007332260401972717,-0.0031039953603472685
100.622,650,100,622000000,,0.0033773250410860257,0.026647475269320507,-0.008477843924230774
100.632,651,100,631000000,,0.014382411186168474,0.0253834742381688,-0.0033441349684985473
100.642,652,100,642000000,,0.026265443122165645,0.008334014611272169,0.00923227131910775
100.653,653,100,652000000,,0.02250848151528037,-0.005604149733796105,0.012049073092765906
100.662,654,100,661000000,,0.010008557439939081,-0.00229170418104605,0.004329420031187335
100.672,655,100,671000000,,0.0016358176309767942,0.014444461050123484,-0.006239623551487279
100.682,656,100,681000000,,0.007903487157201272,0.031099064854896087,-0.008343293112982255
100.692,657,100,691000000,,0.020653546518676694,0.020293375844442445,0.0010331683143989835
100.702,658,100,702000000,,0.026331334194808306,0.0018717369261342324,0.010807614207634821
100.712,659,100,711000000,,0.018589160808193825,-0.007406493751501547,0.010473359533514652
100.722,660,100,721000000,,0.00576710316973085,0.0031280387136029004,0.0003244887968975197
100.732,661,100,732000000,,0.0016230488420084584,0.022586497810381606,-0.009250989295420845
100.742,662,100,741000000,,0.01075317711075716,0.029017286494738184,-0.007680537756163379
100.752,663,100,751000000,,0.025032035814066864,0.01610838873971528,0.004569780090401309
100.762,664,100,761000000,,0.02657023584698591,-0.0026583345877262913,0.012238570790307216
100.772,665,100,771000000,,0.016675922528004664,-0.00797873071329565,0.009235742783444335
100.782,666,100,782000000,,0.0022308099127261653,0.007766945853202931,-0.003538276523575642
100.792,667,100,791000000,,0.0006616480806228018,0.02351162983402632,-0.01047115966601236
100.802,668,100,802000000,,0.016315885611433347,0.03208709554572537,-0.00537614278555301
100.812,669,100,811000000,,0.026760565544177165,0.01416062444085468,0.0052957370503516205
100.822,670,100,822000000,,0.02598328364803977,-0.009727250194260581,0.01300607006781373
100.832,671,100,832000000,,0.013307851276297657,-0.005561124474248913,0.006300503254738107
100.842,672,100,842000000,,0.00016592328523265878,0.009657285690261693,-0.005855902925097583
100.852,673,100,851000000,,0.0036065398979344436,0.03134801108371792,-0.010966330428609502
100.862,674,100,862000000,,0.019232387866253135,0.02826862853399091,-0.0031350010628045993
100.872,675,100,871000000,,0.03050351897723223,0.007783841207132305,0.009189387049340204
100.881,676,100,881000000,,0.026947407488799625,-0.008956107137237606,0.012696777269706819
100.892,677,100,891000000,,0.010417802560284992,-0.007519198287616531,0.004745114170688107
100.902,678,100,901000000,,-0.0027220366187302126,0.016223920574824965,-0.009303212919033917
100.912,679,100,911000000,,0.004733810729161598,0.03161849235201074,-0.011194942200059165
100.922,680,100,921000000,,0.021595615361733576,0.028329186363460462,-0.0022731955763201535
100.932,681,100,931000000,,0.03247594160671655,0.00364585436449796,0.011160210987308255
100.942,682,100,941000000,,0.022422561481995944,-0.014151610796160901,0.011455281777105242
100.952,683,100,951000000,,0.007895265878340926,-0.0019228167728423933,0.002344008973056303
100.962,684,100,962000000,,-0.002011220964513472,0.021193952603047427,-0.010802376151527812
100.972,685,100,971000000,,0.009470027078968286,0.033588951073896284,-0.010339063419927215
100.982,686,100,982000000,,0.024631220502544543,0.024548055074719383,-0.0006279680809103943
100.993,687,100,992000000,,0.032924531633782714,-0.0031110031396369194,0.012545508988291255
101.002,688,101,1000000,,0.026358831961294713,-0.012212268131437493,0.012368345615217977
101.012,689,101,12000000,,0.002823837372942834,-0.003295603006194253,-0.0008039007740403611
101.022,690,101,21000000,,-0.002687736215259854,0.022940913091372257,-0.011051783233071311
101.032,691,101,32000000,,0.009956975540445941,0.03602952931049626,-0.0098378926049833
101.042,692,101,41000000,,0.028564101158225073,0.022948934665655084,0.0023256909270404852
101.052,693,101,51000000,,0.03316813948539936,-0.0025128642205529024,0.01187510837984282
101.062,694,101,62000000,,0.01931574261712269,-0.01428690594857208,0.00923830285716028
101.072,695,101,71000000,,0.0008059781062255585,-0.0003009005028953432,-0.002989421125554655
101.082,696,101,81000000,,-0.003314927270407472,0.02656932479122576,-0.012833705870794711
101.092,697,101,92000000,,0.010828197241632028,0.036247677774744254,-0.01038968575463812
101.102,698,101,102000000,,0.030346700525137327,0.02401798428640494,0.0019921769810621313
101.112,699,101,111000000,,0.037457192010833286,-0.002540290110398519,0.01285148656081876
101.122,700,101,122000000,,0.01936705501158997,-0.02025613468984161,0.009500692982373212
101.132,701,101,132000000,,-0.00038894958458798,0.001412723076002896,-0.0035406159245449462
101.142,702,101,141000000,,-0.004028295643153128,0.02457351624200071,-0.011905603502769833
101.152,703,101,151000000,,0.011105649413030093,0.037774518659211775,-0.010161617729691031
101.162,704,101,161000000,,0.03138724381343198,0.025187103467638687,0.0023995977094057376
101.172,705,101,172000000,,0.03760143335425832,-0.0030694841612516604,0.012401574905807167
101.181,706,101,181000000,,0.02137537448360057,-0.020072255273227826,0.009198654851017351
101.192,707,101,191000000,,-0.0015656997202457322,-0.0031495038927818342,-0.0040588668993695376
101.202,708,101,202000000,,-0.006669404851406611,0.027856717127526114,-0.013450868865484637
101.212,709,101,212000000,,0.010451317226951397,0.03789809421076168,-0.009758645742624764
101.222,710,101,221000000,,0.03437760666593668,0.027299754844131052,0.0033453576578853107
101.232,711,101,231000000,,0.03968902389208902,-0.0024827466927396184,0.011817649015094769
101.242,712,101,241000000,,0.023764590104504723,-0.020423615242638603,0.009443866732671242
101.253,713,101,252000000,,-0.0005480002043367757,-0.006893113313797239,-0.003079962401518613
101.262,714,101,262000000,,-0.010268871552095611,0.024809095131557227,-0.013951885401977155
101.272,715,101,272000000,,0.0072882148332732676,0.042265098650144745,-0.011680194408406437
101.282,716,101,281000000,,0.03509923244434871,0.02785786150850378,0.0028719213678286785
101.292,717,101,291000000,,0.040645508317623064,-0.003884219232873092,0.011716846967310911
101.302,718,101,301000000,,0.02380952823445652,-0.021921615295332278,0.008724260493918959
101.312,719,101,311000000,,0.0003730806515662788,-0.011743663978208212,-0.002538028651089883
101.322,720,101,321000000,,-0.011765613205236211,0.02559437623091336,-0.014615859612243277
101.332,721,101,332000000,,0.00783725599029417,0.04281895461242397,-0.011221003769403316
101.342,722,101,342000000,,0.03337379575840206,0.028443558128765062,0.0012588475903367847
101.352,723,101,351000000,,0.041333042806077115,0.0011041133001011144,0.010253399266798482
101.362,724,101,361000000,,0.028268586936143373,-0.02122675064496636,0.009987817542782782
101.372,725,101,371000000,,0.0022742658047278305,-0.01512528241238467,-0.0016182842784651869
101.381,726,101,381000000,,-0.013831472155879185,0.021382418427989,-0.014421362763040103
101.392,727,101,392000000,,0.0029830280298186124,0.040688211640238996,-0.012382193366997953
101.402,728,101,401000000,,0.029271890372194628,0.039180054379725125,-0.0021265814254016746
101.412,729,101,411000000,,0.0453048119319293,0.0019493609860599895,0.011052540997047751
101.422,730,101,422000000,,0.03332236746218014,-0.02381398511546627,0.010541035848609999
101.432,731,101,431000000,,0.0032610960422682182,-0.016617705185535417,-0.0009330171668093267
101.442,732,101,441000000,,-0.01392593156457042,0.015793665410954737,-0.012661302288668953
101.452,733,101,451000000,,-0.0019823837750916375,0.04356118446023685,-0.013610705352007778
101.462,734,101,462000000,,0.026961079125107684,0.04051737503024608,-0.002842052707598975
101.472,735,101,471000000,,0.0439287463574318,0.01352114606813156,0.007678456003294223
101.482,736,101,481000000,,0.03951391364981933,-0.021365750184680267,0.01155934554912308
101.492,737,101,491000000,,0.013300449703411654,-0.0239904223921314,0.0026300997127049765
101.502,738,101,501000000,,-0.01535602845728247,0.0061242375763740226,-0.011919601535148669
101.512,739,101,512000000,,-0.007667961390719272,0.03934523168845227,-0.01436416135942126
101.522,740,101,521000000,,0.020236420250883486,0.04569928549481849,-0.0055307474569901635
101.532,741,101,531000000,,0.04342607480059475,0.023737904161303683,0.0058747418683594115
101.543,742,101,542000000,,0.04604302901645093,-0.011917406103088949,0.011853884969378697
101.552,743,101,551000000,,0.019697243079473938,-0.030175026448409435,0.0039810539014551
101.563,744,101,562000000,,-0.01077426234209727,-0.007152800252026406,-0.009047363036417714
101.572,745,101,571000000,,-0.016903236697764206,0.029095817383470425,-0.015097195813471376
101.582,746,101,582000000,,0.01131513850935614,0.05215279836435478,-0.008490311685393305
