Time,header.seq,header.stamp.secs,header.stamp.nsecs,header.frame_id,position_controller_output.thrust.num,position_controller_output.orientation_set_point.w,position_controller_output.orientation_set_point.x,position_controller_output.orientation_set_point.y,position_controller_output.orientation_set_point.z,position_controller_output.euler_set_point.phi,position_controller_output.euler_set_point.theta,position_controller_output.euler_set_point.psi
55.821,1,55,821000000,,18.756499650407964,0.8764552041095751,0.2803215926941211,-0.3914665761956157,2.013733779084722e-06,0.74166881872987,-0.7562616748429195,-0.3064911604833914
55.821,2,55,821000000,,18.756502623647197,0.8764552606544146,0.2803188387197333,-0.3914684161603531,8.046150450989173e-06,0.7416589777671095,-0.7562708190881211,-0.30647702191214354
55.831,3,55,831000000,,18.756510779729687,0.8764554158079001,0.2803141764574243,-0.3914714179680947,1.808407564996984e-05,0.7416423251722848,-0.7562859564603722,-0.30645333025980087
55.841,4,55,841000000,,18.756526832606358,0.8764557212555348,0.2803075819584573,-0.3914754581256279,3.211434040695846e-05,0.7416186531199753,-0.7563068347830229,-0.30641991956548165
55.851,5,55,851000000,,9.974530565535037,0.9999999983646902,2.309743492079095e-08,-1.4589728846830028e-07,5.7189139624824124e-05,4.6178182285238765e-08,-2.917972181659678e-07,0.00011437827930525972
55.861,6,55,861000000,,10.060169435827255,0.9999999966164373,3.558158240539321e-08,-2.484569283424252e-07,8.226215140893795e-05,7.112228736709443e-08,-4.969197089366162e-07,0.00016452430298576767
55.869,7,55,871000000,,10.060271252251358,0.9999999937452518,5.647128626563445e-08,-3.9464667090440725e-07,0.00011184514733030503,1.1285429319477551e-07,-7.89305968806886e-07,0.00022369029508245906
55.881,8,55,881000000,,10.060408152812986,0.999999989353049,8.424184808488304e-08,-5.892341259893693e-07,0.0001459230843465517,1.6831172865391285e-07,-1.1784928251046267e-06,0.0002918461696297179
55.891,9,55,891000000,,10.060585734803215,0.999999982983032,1.1986095159232622e-07,-8.39143595538487e-07,0.00018448094488114942,2.3941228709886016e-07,-1.678331386534282e-06,0.00036896189165435203
55.901,10,55,901000000,,10.06080973399204,0.9999999741203645,1.642906259528348e-07,-1.1512961499622726e-06,0.0002275036677018132,3.280573952095274e-07,-2.302666993747593e-06,0.00045500733895126967
55.911,11,55,911000000,,10.061086021902842,0.9999999621928365,2.1848661962488584e-07,-1.5326072533367677e-06,0.00027497622068007124,4.36130361630497e-07,-3.0653345479692007e-06,0.0005499524476228506
55.921,12,55,921000000,,10.061420603105597,0.9999999465715321,2.833978481675002e-07,-1.989984160515785e-06,0.0003268836007912559,5.654946796806701e-07,-3.980153384652851e-06,0.0006537672121012729
55.931,13,55,931000000,,10.066606060404235,0.999999926559233,1.7465751599451792e-07,5.569340245170981e-06,0.00038321074679830325,3.53583468426065e-07,1.1138545811473222e-05,0.0007664215143359337
55.941,14,55,941000000,,10.061033752625509,0.9999999014510721,-3.5757006001348184e-06,-6.145765134146526e-09,0.0004439426411380551,-7.151405952302083e-06,-9.116717158974552e-09,0.0008878853114792131
55.951,15,55,950000000,,10.068516071299841,0.9999998703982914,-7.207852305581378e-06,-2.252715309691056e-06,0.0005090642371069772,-1.4417996297109294e-05,-4.498091515703351e-06,0.0010181285506437909
55.961,16,55,961000000,,10.059335929451063,0.9999998326329149,-3.0737900885542455e-08,1.391987152217191e-06,0.0005785604589613134,-5.986509403098114e-08,2.784009405898402e-06,0.001157120982394699
55.971000000000004,17,55,971000000,,10.068904565534227,0.9999997871411695,7.212568884421375e-06,-4.303867050608941e-06,0.0006524163181663406,1.4419518873169776e-05,-8.61714346434006e-06,0.0013048326668175401
55.981,18,55,981000000,,10.069507897517001,0.9999997330555913,-6.49555039893271e-06,-6.756056305830102e-06,0.0007306167971953251,-1.3000969507954794e-05,-1.3502617488558855e-05,0.001461233812229714
55.991,19,55,991000000,,10.0696989607362,0.9999996693347262,9.430021492237992e-06,-5.80958945516951e-06,0.0008131468202419997,1.8850588652122175e-05,-1.1634511052349694e-05,0.0016262937101447674
56.001,20,56,1000000,,10.07317554642506,0.9999995949588756,-6.873347034907507e-06,-7.0970837740405915e-06,0.0008999913697623052,-1.375946313195066e-05,-1.4181789893319419e-05,0.001799983080172459
56.011,21,56,11000000,,10.072815294551882,0.9999995086866319,3.6794877440864864e-06,-1.623462825954793e-05,0.000991135369848973,7.326790447970593e-06,-3.247653431315278e-05,0.001982270945545336
56.021,22,56,21000000,,10.070136973174403,0.9999994096299383,8.705138742798902e-06,-6.550974095018786e-06,0.0010865639196063952,1.7396031105286187e-05,-1.3120857834669764e-05,0.0021731281528234205
56.031,23,56,31000000,,10.075345125653493,0.999999296274601,-5.55930484876097e-06,-1.4226327909293166e-05,0.001186261768314449,-1.1152354175619697e-05,-2.843944621799821e-05,0.0023725242519319263
56.041,24,56,41000000,,10.077055528951766,0.9999991675620138,7.187975878695367e-06,-1.30892784722333e-05,0.0012902140150270755,1.4342163854652581e-05,-2.6197083209833494e-05,0.0025804285584000706
56.051,25,56,51000000,,10.078519705717229,0.9999990220560439,-4.892220404820998e-06,-1.8018420880703437e-05,0.00139840564200495,-9.834825370386133e-06,-3.6023123909822985e-05,0.002796812373184005
56.061,26,56,61000000,,10.080176893417638,0.9999988583329427,2.863932691883471e-06,-2.725528399292572e-05,0.0015108215151269074,5.6455031139570745e-06,-5.451915956200537e-05,0.003021644027019987
56.071,27,56,71000000,,10.083444037638792,0.999998675562904,5.712653858781818e-06,-1.6031087894685345e-05,0.0016274467341107705,1.1373113108282998e-05,-3.208072741012202e-05,0.0032548947230750286
56.081,28,56,81000000,,10.081107232891389,0.99999847153906,1.1765282018338795e-05,-1.8621715727220167e-05,0.0017482660473739763,2.3465416662893556e-05,-3.728451222384521e-05,0.003496533439303384
56.091,29,56,91000000,,10.078113913036722,0.9999982449730915,1.0105164967187182e-05,-2.877690611477121e-05,0.0018732646704320533,2.0102480976294998e-05,-5.759157054985309e-05,0.0037465309549139275
56.101,30,56,101000000,,10.08706678944529,0.9999979946421333,1.4145939605077834e-06,-3.153261423893339e-05,0.0020024273534574783,2.7028987143044382e-06,-6.307076729461514e-05,0.004004857300065545
56.111,31,56,111000000,,10.083997593593297,0.9999977185463557,8.569471285898147e-06,-3.8036155106214324e-05,0.0021357391944685313,1.697643290554262e-05,-7.610874104169163e-05,0.0042714809934703765
56.121,32,56,121000000,,10.095782275216093,0.9999974159975614,1.2289106440455327e-06,-2.502640075010431e-05,0.0022731851779239165,2.3440356535300444e-06,-5.005825926751584e-05,0.004546374214079656
56.131,33,56,131000000,,10.093820870115858,0.9999970836274534,5.641447803102586e-06,-4.107730817869098e-05,0.0024147499331936715,1.1084479884375909e-05,-8.218162222783931e-05,0.004829504108563172
56.141,34,56,141000000,,10.09346847810904,0.9999967210303882,1.226683520497525e-05,-4.509228550426612e-05,0.002560418794861186,2.430267979553334e-05,-9.024709188931723e-05,0.00512084209385691
56.151,35,56,151000000,,10.096337686388583,0.9999963264475165,3.3879677509265453e-06,-4.497141462690536e-05,0.0027101766290521584,6.5321496827825484e-06,-8.996086294743577e-05,0.005420359605286647
56.161,36,56,161000000,,10.107690918009357,0.9999958970004278,7.438577670559053e-06,-5.816347988127865e-05,0.002864008298807987,1.454393302100904e-05,-0.0001163690910319648,0.005728023591976463
56.171,37,56,171000000,,10.113195916131362,0.9999954324915923,2.152472573964253e-05,-5.156959853515074e-05,0.0030218989075475986,4.273757886449779e-05,-0.00010326881725486459,0.006043804816371749
56.181,38,56,181000000,,10.113039515826522,0.9999949297604074,1.1699607339836747e-05,-5.9346747632399224e-05,0.003183833317594403,2.3021195899641403e-05,-0.00011876739293881222,0.006367676037758504
56.191,39,56,191000000,,10.112960360110344,0.99999438713077,3.0369029770631478e-06,-6.75389983191587e-05,0.003349796395543912,5.6212881277190925e-06,-0.00013509758488750023,0.0066996049562567635
56.201,40,56,201000000,,10.117591773058189,0.9999938029967053,3.206976486519735e-06,-7.179047320584764e-05,0.0035197732413573936,5.908540913559615e-06,-0.0001436026327934492,0.0070395606119901975
56.211,41,56,211000000,,10.127638379067067,0.9999931749584052,1.0655709925685428e-05,-7.83759898019962e-05,0.0036937487196114496,2.0732272232530976e-05,-0.00015682962943786016,0.007387512635613614
56.221,42,56,221000000,,10.13188281370489,0.999992500922918,1.3897864134566912e-05,-8.82176118785089e-05,0.003871707928760044,2.711241459791909e-05,-0.00017654151851398403,0.007743432841087397
56.231,43,56,231000000,,10.134860877583156,0.9999917796795252,1.7686626066733232e-05,-9.109602666024557e-05,0.004053635505269657,3.463442176052626e-05,-0.00018233394692446225,0.008107290091150243
56.241,44,56,241000000,,10.143670197970978,0.9999910086026331,2.3303107410269678e-05,-9.309840331287544e-05,0.004239516778883127,4.581641209158956e-05,-0.000186392721365225,0.008479054726747415
56.251,45,56,251000000,,10.147213531553607,0.9999901849349011,2.0005714212521317e-05,-0.00010300890152908365,0.0044293366128726796,3.909851435338795e-05,-0.00020619300652602313,0.008858698210271992
56.261,46,56,261000000,,10.156851489476576,0.9999893075498583,1.8916087662052787e-05,-0.00010752586271998433,0.004623079644903088,3.68375704124918e-05,-0.00021522432883136489,0.009246188317206975
56.271,47,56,271000000,,10.16040986927476,0.9999883731342808,2.1616157657359794e-05,-0.00011695826619056639,0.004820731434400482,4.210416504409147e-05,-0.00023412222618524048,0.009641495352355206
56.281,48,56,281000000,,10.169179850362058,0.9999873797563623,1.6841637833601494e-05,-0.00012956651066695443,0.005022276150035573,3.23814140775818e-05,-0.0002592989206298135,0.010044590414113999
56.291,49,56,290000000,,10.18397604555572,0.9999863238015179,2.876515842386921e-05,-0.00015014728303349662,0.0052276993490803555,5.59596829014726e-05,-0.0003005912149054435,0.010455438032765395
56.301,50,56,301000000,,10.184295267556518,0.9999852085969654,1.8998267604873658e-05,-0.0001463409848118781,0.005436985228615763,3.6404667211613276e-05,-0.00029288423123485785,0.010874018819048958
56.311,51,56,310000000,,10.194792109167443,0.9999840260245089,2.1419418985307677e-05,-0.00015291286863417108,0.005650119788647304,4.11102035511186e-05,-0.00030606290135981595,0.011300293546238079
56.321,52,56,321000000,,10.201253976209161,0.9999827756088754,2.646751504530244e-05,-0.0001583359630707468,0.005867087206640606,5.107617909850864e-05,-0.0003169770514062087,0.011734233790874946
56.331,53,56,331000000,,10.209734031862396,0.9999814536138332,2.2428104344623663e-05,-0.00017241789445341052,0.006087873039015664,4.275606282556443e-05,-0.00034510247920249704,0.012175814095709607
56.341,54,56,341000000,,10.22561830314422,0.9999800636825866,8.464409658094684e-06,-0.00015809794754286627,0.006312461490789276,1.4932508154104463e-05,-0.000316296459097698,0.0126250046243386
56.351,55,56,351000000,,10.237915803553856,0.9999785880515811,1.3348518463491836e-06,-0.00020217670237818232,0.006540838029660477,2.4836403917964923e-08,-0.0004043622198808272,0.013081769601415001
56.361,56,56,361000000,,10.242294587313886,0.9999770436837724,2.2581945570412615e-05,-0.0001955477299517517,0.006772987413313822,4.2513972986049624e-05,-0.00039139238625129913,0.013546070337967174
56.375,57,56,372000000,,10.259287668372131,0.9999754206492498,1.1211576533365387e-05,-0.0001826776624552683,0.007008894229266556,1.9861866419796597e-05,-0.0003655035143599328,0.014017899835749815
56.382,58,56,381000000,,10.265716279515063,0.999973698563223,4.743192156731798e-05,-0.00024195119342756416,0.007248543913879503,9.13537712308036e-05,-0.00048457730322426507,0.01449719308693152
56.391,59,56,391000000,,10.277176567103522,0.9999719095521313,4.034472998335147e-05,-0.00022268735621062784,0.007491921814152784,7.73504886092832e-05,-0.000445966735554304,0.014983966938815573
56.401,60,56,401000000,,10.288932951887618,0.9999700238815222,3.1429887490569445e-05,-0.00024093501113926777,0.0077390114354975005,5.912869998895422e-05,-0.00048234206890618303,0.015478163574305745
56.411,61,56,411000000,,10.305409490596256,0.9999680491573772,3.66482031955028e-05,-0.00024986127293353784,0.007989799349050131,6.930139036566019e-05,-0.0005002922237606899,0.015979751891747412
56.421,62,56,421000000,,10.31852958734104,0.9999659804389531,3.8032252192267894e-05,-0.0002618104670110815,0.008244269238981859,7.174505466418153e-05,-0.0005242302409327326,0.016488707037368346
56.431,63,56,431000000,,10.332094605455106,0.9999638155469132,3.9384207808414785e-05,-0.0002740983078178454,0.008502406673482246,7.410458609080776e-05,-0.0005488465280985011,0.017004998551896973
56.441,64,56,441000000,,10.346157564955215,0.9999615517565561,4.077411438866576e-05,-0.0002867277626429267,0.008764195819707834,7.651922956048805e-05,-0.0005741482131180753,0.017528594811490664
56.451,65,56,451000000,,10.360722565616864,0.9999591863219396,4.219285891747633e-05,-0.00029969941176922994,0.009029622707466583,7.896994281871117e-05,-0.0006001363670862236,0.018059467962024688
56.461,66,56,461000000,,10.375513530550837,0.9999567230292945,2.3843855920257303e-05,-0.00029359773175090085,0.00929867156486698,4.222551760388796e-05,-0.0005876135176470232,0.018597599544933535
56.471,67,56,471000000,,10.390906732420893,0.9999541340573862,2.032157884439713e-05,-0.00034503808059274205,0.009571328187477662,3.4036356258106766e-05,-0.000690433574047411,0.01914293805811393
56.481,68,56,481000000,,10.407041686716735,0.9999514447951143,5.9237202869532997e-05,-0.00036026818956063115,0.009847576073601424,0.00011137314561491171,-0.0007216681416943871,0.019695431608770842
56.491,69,56,491000000,,10.423738164720822,0.9999486576637032,6.709835363977018e-05,-0.0003365806660231334,0.010127400382952791,0.00012737247229237597,-0.0006744858852962832,0.020255105255647846
56.501,70,56,501000000,,10.441132817862085,0.9999457452095393,2.845830251909033e-05,-0.00034832469782741,0.01041078783322987,4.9660860077717815e-05,-0.0006972042022714842,0.020821935767318316
56.511,71,56,511000000,,10.458688370775475,0.999942695315849,2.51265818925103e-05,-0.000405245098818863,0.010697720621888887,4.157990002757554e-05,-0.0008109814359553713,0.021395834254927602
56.521,72,56,521000000,,10.477030426119475,0.9999395368198258,6.827466236420408e-05,-0.00042168405809279264,0.010988186042302898,0.0001272740285216102,-0.0008448176533446539,0.02197676259098001
56.531,73,56,531000000,,10.496014438448027,0.9999362732330146,7.599539504968592e-05,-0.00039546851253514,0.011282167413943752,0.00014305766571057036,-0.0007926014897374767,0.02256475868340695
56.541,74,56,541000000,,10.515714876772538,0.9999328696680424,3.334806181621936e-05,-0.0004083390233955022,0.011579650413706958,5.7234819168688266e-05,-0.0008173956317401032,0.023159796975924147
56.551,75,56,551000000,,10.535585288953701,0.9999293115839762,3.0417806148649622e-05,-0.0004709458168769075,0.011880619059728653,4.964107829892371e-05,-0.0009425479572204853,0.023761776386068068
56.561,76,56,561000000,,10.553325038440335,0.9999256503861594,5.749520616994482e-05,-0.0004633604204312994,0.012185060022240745,0.00010368975861626933,-0.0009280532378217465,0.024370677688291518
56.571,77,56,571000000,,10.577751537136848,0.9999218501730125,8.423771336299158e-05,-0.0004609531157449583,0.012492957084714821,0.00015694499304779653,-0.0009239390724087304,0.024986494396490557
56.581,78,56,581000000,,10.598177429581266,0.9999178886722916,4.654945249809532e-05,-0.0005136048489705673,0.012804294164986657,7.993860773008527e-05,-0.0010283175993850424,0.025609250440496487
56.591,79,56,591000000,,10.621992719161694,0.9999137864439932,9.216671341496961e-05,-0.0005490938025882916,0.013119057581391154,0.00016991045207120147,-0.0011005114295015161,0.026238778432898766
56.601,80,56,601000000,,10.645531063982958,0.999909561086344,4.167870784019775e-05,-0.0005556023855128248,0.013437232710915332,6.841840220017113e-05,-0.0011122245971777467,0.026875240349788408
56.611,81,56,611000000,,10.667724082455145,0.9999051810629971,5.0096212768764795e-05,-0.0005672054743909899,0.013758802418594264,8.457484393449886e-05,-0.0011356821570571718,0.02751842954916897
56.621,82,56,621000000,,10.693148611515715,0.9999006422845816,4.5524031215227356e-05,-0.0005927700487239118,0.01408375364497054,7.434221384965943e-05,-0.0011867048819065307,0.028168399421183387
56.631,83,56,631000000,,10.718981376823395,0.9998959490206637,4.164059977636317e-05,-0.0006177764968646298,0.01441206972451261,6.54657082715871e-05,-0.0012366250028679193,0.028825102422857202
56.642,84,56,641000000,,10.743405263656621,0.9998911037834254,4.812245728411074e-05,-0.0006328508586468143,0.01474373583823078,7.757332443133542e-05,-0.0012669832357314892,0.029488496898422707
56.651,85,56,651000000,,10.769267886869219,0.9998860965082752,8.860992808702598e-05,-0.0006463851887712392,0.015078737916511875,0.00015770645745738856,-0.0012952957404530618,0.03015852304001898
56.661,86,56,661000000,,10.795800846837208,0.9998809489761012,0.00010634203657935809,-0.000625148737458612,0.015417060509013902,0.00019338299419250263,-0.001253427917154104,0.030835227624978104
56.671,87,56,671000000,,10.826794491288762,0.9998755420393891,0.00013233204089141136,-0.0007394054522544076,0.015758686909804833,0.00024132729183238058,-0.001482798156489551,0.031518508422639015
56.681,88,56,681000000,,10.855675543292156,0.999870067891192,3.096029035101806e-05,-0.0007213305999348306,0.016103604336524305,3.868053038325265e-05,-0.0014434713976614333,0.03220858134229183
56.691,89,56,691000000,,10.883911278714871,0.9998644575307364,1.564438286901417e-05,-0.0006361651401869512,0.016451796910981187,1.0352413789124129e-05,-0.0012726729255627678,0.032905078368331286
56.701,90,56,701000000,,10.913472728935815,0.9998585320368596,0.00018183567792419522,-0.0007305765720188182,0.016803246817308486,0.00033906816246335086,-0.001467057823479001,0.03360783610528098
56.711,91,56,711000000,,10.9466943818737,0.9998523886867469,0.0002042655853763906,-0.0008741728050072584,0.01715794073077301,0.00037847344853095006,-0.0017550979890956775,0.03431724712207034
56.721000000000004,92,56,721000000,,10.976872070088639,0.9998462452050859,0.00025616747776444694,-0.0007840408640659539,0.017515867578075293,0.0004847904913391107,-0.0015768152727020368,0.03503315643186476
56.731,93,56,731000000,,11.013355043758509,0.9998399358106269,5.2209813265315823e-05,-0.0007159638085490471,0.017877007884944996,7.880441244365673e-05,-0.0014335656182742351,0.035755873194116224
56.741,94,56,741000000,,11.04255905070655,0.9998333585364053,0.00021497746071965038,-0.0006798507451730162,0.018241346833286647,0.00040508087638638733,-0.001367318290591335,0.03648444955729233
56.751,95,56,751000000,,11.078013579784452,0.9998266057235412,0.000536023043972052,-0.00042557920320624,0.018608869351480494,0.001056021702516282,-0.0008709604961201212,0.0372194359010517
56.761,96,56,761000000,,11.114289034398258,0.9998197882577564,0.00010677325882290431,-0.0003946382447634386,0.018979564585644093,0.00019852797370257136,-0.0007931873557309732,0.037961332942806646
56.771,97,56,771000000,,11.148313913602692,0.9998123435576997,9.976014329632166e-05,-0.000844665805303977,0.019353405091481965,0.0001667887660990775,-0.0016928768021617913,0.03870909971789323
56.781,98,56,781000000,,11.183637978128173,0.9998048732969551,0.0007725977726650748,-0.0005747164882369767,0.019730385559054285,0.0015222169277051012,-0.0011796962689074597,0.03946245225532002
56.791,99,56,791000000,,11.220506080006349,0.9997975973462218,0.0005536869560381906,-0.00016004320489613778,0.020110499498903967,0.0011007129658207142,-0.0003422914726411985,0.04022352890247348
56.801,100,56,801000000,,11.25670529948193,0.9997898944619122,3.652118085119826e-05,0.00041620176267926604,0.020493716075487584,9.008608781336391e-05,0.0008307318188960355,0.04099034275895898
56.811,101,56,811000000,,11.281974945787551,0.9997814017219124,-0.0010074873254173528,-0.0003984794623556408,0.020880012625507365,-0.0020311766683879153,-0.0007547120863593548,0.04176385122500587
56.821,102,56,821000000,,11.327618889865494,0.9997719357070777,-0.0015478376801278775,-0.0011377910409466224,0.0212693716025853,-0.003143382395579183,-0.002209221830353103,0.0425455019093237
56.831,103,56,831000000,,11.324430748212198,0.9997622652041959,0.0001632290391565986,-0.0024805504884110887,0.02166179393552739,0.00021891682303140005,-0.004967013641808293,0.04332656694668297
56.841,104,56,841000000,,11.38012875929433,0.9997519670931393,0.0009378884667837152,-0.0029329646406693276,0.022057251739620115,0.0017459567362752167,-0.005905883154150526,0.04411313485033619
56.851,105,56,851000000,,11.333101851440023,0.9997463445379371,0.001726016990317782,-4.643802479936786e-05,0.022455852532563585,0.003449079631001888,-0.000170370857912161,0.04491525364439869
56.861,106,56,861000000,,11.396444148256707,0.9997370229651523,0.0018460528383789972,-0.00012891604103484834,0.022857392184316882,0.003685249926053115,-0.00034215619226873883,0.04571821382885072
56.871,107,56,871000000,,11.461923507767578,0.9997270437149217,0.001994825463401337,0.0008611672576742072,0.023261924313054565,0.004028642984743311,0.0016290581559632589,0.04653143675676797
56.881,108,56,881000000,,11.524305239028065,0.9997171800747213,0.0019459310131885986,0.0012370529792247135,0.023669451880209174,0.003949343526124287,0.0023812902415638604,0.04734815325050129
56.891,109,56,891000000,,11.581813538386353,0.9997077020275819,0.0017598365468441326,0.00125251977436712,0.024079965130159312,0.0035789836820735426,0.002419556086168839,0.04816902785840695
56.901,110,56,901000000,,11.63528065151109,0.9996982200606838,0.0015259519629774786,0.0011007647702202257,0.024493440470410174,0.0031049179618168076,0.002126115137660145,0.0489951678184177
56.911,111,56,911000000,,11.686123882627747,0.9996883738485954,0.0013578350376112498,0.0009003553479901274,0.02490985440297972,0.0027596868872574475,0.0017325034679605,0.04982731916655091
56.921,112,56,921000000,,11.732972190438547,0.9996781412578661,0.0012887986769191248,0.0006204418983328613,0.025329191403547984,0.0026082030730121383,0.001175196221139041,0.050665385585699385
56.931,113,56,931000000,,11.777091251059744,0.9996675399747552,0.0012674086540642043,0.00025825588128290336,0.025751436939583202,0.0025472785166409913,0.0004510648702842346,0.05150918540915546
56.941,114,56,941000000,,11.818980680154299,0.9996566101267171,0.0011984010768638044,-0.00011192801596861376,0.026176575236819793,0.002390121705650698,-0.00028651923786782163,0.05235882668752891
56.951,115,56,951000000,,11.859145996042955,0.9996454124900499,0.0010298847548276438,-0.00042908555895577685,0.02660459486818098,0.0020362101013063796,-0.0009126662811802522,0.05321457262374294
56.961,116,56,961000000,,11.898017134577488,0.9996339334645101,0.0008098183067179737,-0.0006527488779668438,0.0270354806416414,0.0015837510620870304,-0.001348807920179107,0.05407651152272774
56.971000000000004,117,56,971000000,,11.935887136542144,0.9996221172488285,0.0006333929681978871,-0.0008147920908993747,0.02746921246210972,0.0012215458402112858,-0.0016637667696599578,0.05494434938959631
56.981,118,56,981000000,,11.97285091401305,0.9996099175347783,0.0005647466268323702,-0.000980541867736183,0.027905775995244377,0.0010743294325434305,-0.0019918394538975814,0.05581776403744167
56.991,119,56,991000000,,12.008835070804238,0.9995973292136621,0.0005957861769508804,-0.0011732657970619698,0.028345156135341373,0.0011245831584949934,-0.002379364263897621,0.05669661750326572
57.001,120,57,1000000,,12.043773058513455,0.9995844440290573,0.0006594580888627473,-0.0013391747352057542,0.028787340560719344,0.0012412704301741188,-0.002715207891720306,0.05758101523454467
57.011,121,57,11000000,,12.075511987719892,0.9995714374176536,0.0006799327843723462,-0.0013967016810174234,0.029232317701946325,0.00127763059758366,-0.0028319620216057384,0.058471226690358376
57.021,122,57,21000000,,12.11055672819408,0.999558383218008,0.0006289378464515172,-0.0013175951330486658,0.02968007701814963,0.001179112024229276,-0.002671363546518757,0.059367360998417995
57.031,123,57,31000000,,12.144559927041158,0.9995451643847392,0.0005301048729643274,-0.0011534664547976495,0.030130596768129462,0.0009902211273324054,-0.0023378305162393698,0.06026920640512587
57.041,124,57,41000000,,12.177771750900977,0.9995316030387967,0.0004397358877682421,-0.0010043430782441913,0.03058385873441326,0.0008176282434758945,-0.002034644338369418,0.06117646223916922
57.051,125,57,51000000,,12.210946182594768,0.9995176272814421,0.0003965042971260931,-0.0009399254363872337,0.03103984581098313,0.0007342771836259227,-0.001903560098095225,0.06208899806671749
57.061,126,57,61000000,,12.24397126982912,0.9995032576101712,0.0004041247205572458,-0.0009573124887634744,0.0314985455390735,0.0007475415224011247,-0.001939133799235604,0.06300682215328601
57.071,127,57,71000000,,12.276797935524105,0.9994885647502266,0.0004311574893174388,-0.0009926745423692934,0.031959939657152055,0.0007984240241394598,-0.002011894599180275,0.06393000029979337
57.081,128,57,81000000,,12.309496970545611,0.9994736268485666,0.00043414226626431365,-0.0009817923750510644,0.03242401773076418,0.0008041618641914134,-0.0019907057597179367,0.06485864044270834
57.091,129,57,91000000,,12.342216299266747,0.999458458300849,0.00039313966615246054,-0.0009127877838084446,0.0328907655164359,0.000725810257704226,-0.0018504493275108835,0.065792758216891
57.101,130,57,101000000,,12.37507394234035,0.9994430005330476,0.00032625229228279456,-0.0008255978798863955,0.03336016636890541,0.0005970578446859988,-0.001672044485210522,0.0667322416098287
57.111,131,57,111000000,,12.408087489418138,0.9994271931223808,0.0002702460884225654,-0.000771193162426236,0.0338322034765992,0.00048800086423522537,-0.001559789509141929,0.06767696394247077
57.121,132,57,121000000,,12.439330874089189,0.9994110166905628,0.0002512025544886184,-0.0007720885784775051,0.03430685760284053,0.0004491338968755802,-0.0015605042362649701,0.06862685380192847
57.131,133,57,131000000,,12.474386153937814,0.9993944847473588,0.0002667925045761921,-0.0008110216816351993,0.0347841180744098,0.00047684122645195813,-0.0016396222098837843,0.06958190708082268
57.141,134,57,141000000,,12.507746536704145,0.9993776281697088,0.00029092058340292825,-0.0008509143896916751,0.03526397113661084,0.0005214666004410926,-0.0017212884891852909,0.07054214767476155
57.151,135,57,151000000,,12.541229726999871,0.9993604747177114,0.0002933360210042786,-0.0008663028686904402,0.03574639926295423,0.0005243632631802876,-0.0017524700022741868,0.07150760338771311
57.161,136,57,161000000,,12.574842327751414,0.9993430215553117,0.0002666766492079105,-0.0008605871907944388,0.03623138760274742,0.0004706430899613963,-0.0017393686142530562,0.07247825850280451
57.171,137,57,171000000,,12.608478298747784,0.9993252414012035,0.00022841991367163742,-0.0008545987854344485,0.03671892413313078,0.0003937722707211493,-0.0017248197972961066,0.07345404990249972
57.181,138,57,181000000,,12.642222647152296,0.9993071136401656,0.00019878809743283847,-0.0008627169408263844,0.03720898958158127,0.0003330995782624807,-0.0017390326370843034,0.07443490148153885
57.191,139,57,191000000,,12.676208823838893,0.9992886328523397,0.00018695219120808506,-0.0008860814397045621,0.037701568939370836,0.0003068255717739972,-0.0017849999507084657,0.0754207695260627
57.201,140,57,201000000,,12.710334701363815,0.9992698053127698,0.0001888404185899073,-0.0009148050863516375,0.03819664391439924,0.0003075206153175198,-0.0018427013843567153,0.07641162614336533
57.211,141,57,211000000,,12.74457505237847,0.9992506413859457,0.00019072048535112416,-0.0009368583174320025,0.03869420756690462,0.00030865370869962377,-0.0018870732252502798,0.07740748385701135
57.221,142,57,221000000,,12.774161023194656,0.9992311458827268,0.00018187251248951352,-0.0009464481359194399,0.03919423786464242,0.00028927526070037386,-0.0019056987732612996,0.0784083203240695
57.231,143,57,231000000,,12.813175443309214,0.9992113022265028,0.0001668992219287517,-0.0009570268121879407,0.03969672311716636,0.0002575540014510189,-0.0019257959093099686,0.07941410229320665
57.241,144,57,241000000,,12.847666033416855,0.999191107125151,0.0001468688919255167,-0.0009683079933839459,0.04020164469040971,0.00021564544399635158,-0.0019468594437641595,0.08042479141697191
57.251,145,57,251000000,,12.88229201511372,0.9991705501705168,0.0001287189343665472,-0.0009865182343836215,0.040708991110068524,0.0001769043612196718,-0.0019818812673371156,0.08144035197955028
57.261,146,57,261000000,,12.91716936607868,0.9991496304707789,0.00011516873560519543,-0.001008909268147721,0.04121874382836165,0.00014696995594515812,-0.002025598251304217,0.08246074255346211
57.271,147,57,271000000,,12.952084706518642,0.9991283511772968,0.00010676395451976112,-0.0010293046151446364,0.04173088819550314,0.0001274344683023513,-0.0020657270244304193,0.0834859328219952
57.281,148,57,281000000,,12.987224953572136,0.9991067150966851,9.925022997752265e-05,-0.0010427451709677327,0.04224540955931159,0.00011022099027937776,-0.002092014664084152,0.08451590185769382
57.291,149,57,291000000,,13.022524562392988,0.9990847193564637,8.833462885842941e-05,-0.0010497267039030205,0.042762293036098145,8.673030620155996e-05,-0.002105088156054924,0.08555062898811672
57.301,150,57,301000000,,13.057954115944433,0.9990623558220533,7.145220327076889e-05,-0.00105530554291118,0.043281523514034595,5.1420064726407135e-05,-0.002114818780464045,0.08659009021209495
57.311,151,57,311000000,,13.093401158873816,0.9990396142818945,5.179401153015304e-05,-0.0010658502581485144,0.04380308577899364,1.0113501064443163e-05,-0.002134192356753717,0.08763425005179303
57.321,152,57,321000000,,13.129192881195761,0.9990164888456764,3.661141882615157e-05,-0.0010835201033010647,0.04432696479280986,-2.290754661298253e-05,-0.0021681563432482953,0.08868306466348845
57.331,153,57,331000000,,13.165011698705026,0.9989929777943054,3.1585978345984375e-05,-0.0011068705369540002,0.04485313824714559,-3.618498202394382e-05,-0.00221434705760859,0.0897364774409847
57.341,154,57,341000000,,13.200887763736954,0.9989690852059447,3.4503369031609976e-05,-0.0011295309111655082,0.04538160272530772,-3.3584333920689774e-05,-0.0022598664819710734,0.09079448464175949
57.351,155,57,351000000,,13.237013869804603,0.9989448179919029,3.347326512420011e-05,-0.0011432872389483166,0.04591233260325078,-3.810617816167183e-05,-0.0022872373912734556,0.0918570597303059
57.361,156,57,361000000,,13.273328237929514,0.9989201780023194,1.772634324584299e-05,-0.0011444887535370818,0.046445320668372786,-7.0898076075911e-05,-0.002288154426864919,0.09292421261108834
57.371,157,57,371000000,,13.309808694860287,0.9988951557093925,-1.0721751183034423e-05,-0.001138411105688864,0.04698054800669424,-0.00012838649793599292,-0.002273301207895484,0.09399590199744544
57.381,158,57,381000000,,13.34634332095125,0.9988697315632472,-3.636323103246891e-05,-0.0011393071009852544,0.04751799521259043,-0.000180919908560989,-0.0022725848967630746,0.09507205877199337
57.391,159,57,391000000,,13.38302750954059,0.9988438896828977,-4.495857004715081e-05,-0.0011592766416569356,0.04805765419602264,-0.00020123795687890264,-0.0023115536316631324,0.09615264123591558
57.401,160,57,401000000,,13.419879589069124,0.9988176264364282,-3.4816098112526716e-05,-0.0011984269227166514,0.048599502532545344,-0.00018603630217390357,-0.0023906380558558205,0.09723760067987806
57.411,161,57,411000000,,13.450167515435442,0.9987909612288353,-2.117347910372442e-05,-0.0012364586624676857,0.04914353010420087,-0.0001638241456961462,-0.0024678488979763546,0.09832694262024495
57.421,162,57,421000000,,13.494083876131922,0.9987639189995494,-2.389152328558647e-05,-0.0012511153582644922,0.04968971966537478,-0.00017205966284250838,-0.002496766024565167,0.09942067330548637
57.431,163,57,431000000,,13.524847729444026,0.9987365194061816,-4.9610920569503135e-05,-0.0012246351859957413,0.05023806121552699,-0.00022214373490097688,-0.00244119347816274,0.10051878188268826
57.441,164,57,441000000,,13.569403880443634,0.9987087062499114,-7.569213004382795e-05,-0.0011997897576616887,0.050788529769683774,-0.0002730606766689273,-0.0023887946411704775,0.10162117918532206
57.451,165,57,451000000,,13.616529367691658,0.9986804544382564,-9.248808827606838e-05,-0.0011962893760566543,0.05134111672429959,-0.0003075706329406997,-0.0023799269986395366,0.10272783724267355
57.461,166,57,461000000,,13.645082265910004,0.9986517385927888,-9.658005904718027e-05,-0.0012334913378252328,0.051895802234304324,-0.0003209267043624776,-0.002453634800773541,0.10383872244290325
57.471,167,57,471000000,,13.683152301212427,0.9986225638308215,-9.013319871855916e-05,-0.0013018804170403168,0.052452568004422405,-0.0003165931019472261,-0.0025907217823450956,0.10495379896925539
57.481,168,57,481000000,,13.72156292589915,0.9985929891041994,-8.75999472940073e-05,-0.0013509495404239865,0.053011409789016604,-0.00031818602137634485,-0.0026888131258862025,0.10607306527869287
57.491,169,57,491000000,,13.760176028482261,0.9985630649749098,-9.433649786149689e-05,-0.0013432936989605788,0.053572304403211896,-0.0003323297557918624,-0.002672622480947906,0.10719646717496692
57.501,170,57,501000000,,13.798855740450133,0.9985327707042273,-0.00010427001082943663,-0.0012923325382641264,0.05413524726786039,-0.0003481566850849421,-0.00256958624230208,0.10832398622203303
57.511,171,57,510000000,,13.837706148280882,0.9985020346175979,-0.00011274811190463854,-0.0012495022158793578,0.0547002086204537,-0.00036185562533740155,-0.0024829288703260843,0.10945558268075026
57.521,172,57,521000000,,13.876749911240383,0.9984707962805938,-0.0001233408077668728,-0.0012620778996722188,0.055267177789317126,-0.00038580857807954605,-0.0025066650792542333,0.11059127609887398
57.531,173,57,531000000,,13.916100151199911,0.9984390497515861,-0.0001399825858695786,-0.0013305490918872013,0.05583613584076799,-0.00042811510616879675,-0.0026413152397521955,0.11173104503135457
57.541,174,57,541000000,,13.955534748206855,0.9984068530586485,-0.0001577000002416404,-0.0014047815350355583,0.05640707117072152,-0.0004733786025165162,-0.002787299842091029,0.11287482533658252
57.551,175,57,551000000,,13.995123468538017,0.9983742831929086,-0.00016594786437182265,-0.0014304321976342823,0.056979969669453914,-0.0004943701368011754,-0.0028373058382422656,0.11402251524129665
57.561,176,57,561000000,,14.034884506875862,0.9983413609789257,-0.00015715072142345748,-0.0013945016966682266,0.057554821622127196,-0.00047430255556749095,-0.0027662914081116874,0.11517405893776117
57.571,177,57,571000000,,14.074928492843751,0.9983080243248651,-0.00013932053126231066,-0.0013361082290330136,0.058131608813996725,-0.00043351138789986656,-0.0026515003864482356,0.11632947828341485
57.581,178,57,581000000,,14.115041593808282,0.9982741828185502,-0.0001362371614666649,-0.0013179734475358914,0.05871030750052086,-0.0004267628073838403,-0.002615403663051241,0.11748883736231695
57.591,179,57,591000000,,14.155322064736557,0.9982398082211371,-0.00016072715293215118,-0.0013594882599187305,0.05929090487421586,-0.0004821008324347117,-0.002695134545845912,0.11865215817794159
57.601,180,57,601000000,,14.195823719637332,0.998204933174413,-0.0002010168652274846,-0.00143150175567871,0.05987338054091629,-0.0005727320827131954,-0.0028337969029534893,0.11981935870991828
57.611,181,57,611000000,,14.236541715114337,0.9981696344550866,-0.0002287729850329389,-0.0014803059000933593,0.06045773176078733,-0.0006357031346991231,-0.002927534788547348,0.12099031180461552
57.621,182,57,621000000,,14.277436305315206,0.9981339658505641,-0.00022290619368627588,-0.0014744134959400474,0.06104393967152403,-0.000624991201289922,-0.002916114368502587,0.12216487798268312
57.631,183,57,631000000,,14.318464206962123,0.9980978982898328,-0.00019045707019462588,-0.0014306098415031072,0.06163199160192523,-0.000556534531399365,-0.002832304641818384,0.12334307006821389
57.641,184,57,641000000,,14.359629325691857,0.9980613510364207,-0.00016558340520358682,-0.0013968955109404787,0.062221867870581773,-0.0005043616432644526,-0.0027677725580737,0.12452499588312456
57.651,185,57,651000000,,14.400976122010093,0.9980242695846078,-0.00017828232903836628,-0.0014084883704571223,0.06281354653414281,-0.0005328065794952536,-0.002789017679328376,0.12571072110244302
57.661,186,57,661000000,,14.44254431786242,0.9979866590001102,-0.00022423816289408055,-0.0014589656196810582,0.06340701675820827,-0.0006325933772944604,-0.002883623899216481,0.12690021305758725
57.671,187,57,671000000,,14.484343393975802,0.9979485747573896,-0.0002693441632438062,-0.0015100363081579286,0.0640022597805821,-0.0007308780288174458,-0.002979404300855748,0.1280933113091639
57.681,188,57,681000000,,14.526342141501049,0.9979100794084222,-0.0002794732426811855,-0.0015262209963617455,0.06459927233470879,-0.0007549673548309513,-0.0030099596400849915,0.12928986490184535
57.691,189,57,690000000,,14.56848525983019,0.997871179770395,-0.00024973428426047675,-0.0015041575094147564,0.06519803276569923,-0.0006945446286488628,-0.0029693508523456202,0.1304898066551629
57.701,190,57,701000000,,14.610748332542018,0.9978318185340777,-0.00021207805828029393,-0.0014732477536280007,0.06579853011191572,-0.0006171141985047076,-0.0029122022376582013,0.1316932474514231
57.711,191,57,711000000,,14.653162048376153,0.9977919350074762,-0.0002072786162458033,-0.0014675002511701013,0.06640073815072822,-0.0006085306611939568,-0.0029009969932602964,0.1329002875239514
57.721000000000004,192,57,721000000,,14.695772901548068,0.9977515124593657,-0.0002452175335547999,-0.0014957486174744846,0.06700464091823839,-0.0006897795880028921,-0.0029519137521827332,0.13411093249951975
57.731,193,57,731000000,,14.7386059557979,0.9977105819580047,-0.0002972232004947519,-0.0015372840259431822,0.06761022565172152,-0.0008009614604100382,-0.0030273430491747355,0.1353250609496003
57.741,194,57,741000000,,14.781649804104443,0.9976691978477701,-0.00032299497032435207,-0.0015625847855569803,0.06821748870915774,-0.0008576796428297752,-0.003073822448109498,0.13654251146110077
57.751,195,57,751000000,,14.824859209009448,0.9976273874219679,-0.00030482257332719166,-0.001558491428948641,0.06882640236672109,-0.0008227333751849519,-0.003067632594255798,0.1377631515128003
57.761,196,57,761000000,,14.868191820121652,0.9975851207721529,-0.00026434250339279163,-0.0015378748585975867,0.06943696479183657,-0.0007409824940431999,-0.0030316165146675456,0.1389870616868545
57.771,197,57,771000000,,14.91177805448783,0.9975423454673052,-0.00024418555664347286,-0.001525408067324057,0.0700491426978604,-0.0007008811511031525,-0.0030091128458724636,0.14021433552232618
57.781,198,57,781000000,,14.955908411833345,0.997499028891453,-0.00027023169040130634,-0.0015378370242245427,0.07066292642705478,-0.0007564513706249151,-0.0030297957878153703,0.14144504908406175
57.791,199,57,791000000,,14.9999089418395,0.9974551834698974,-0.0003227914650694815,-0.0015672867518876474,0.07127830201144232,-0.000867371341340677,-0.00308058540670042,0.14267911191712435
57.801,200,57,801000000,,15.044005225982191,0.997410850838311,-0.00036053621142723895,-0.0015928171821405607,0.07189525762165518,-0.0009482422359213896,-0.003125549683077322,0.14391635224246557
57.811,201,57,811000000,,15.088145071260406,0.9973660660818234,-0.0003541858378671573,-0.0015993206940142775,0.07251377360754034,-0.0009384561897867861,-0.003138854828871551,0.14515661531240973
57.821,202,57,821000000,,15.123080553746224,0.9973208208331479,-0.0003161168975879741,-0.0015882048137944972,0.0731338346734132,-0.0008628472553229101,-0.0031216668452407337,0.14639991005893602
57.831,203,57,831000000,,15.176762480896206,0.9972750666919578,-0.0002848771271065097,-0.0015800235317158047,0.07375542999528426,-0.0008012763011396899,-0.003109418686481069,0.14764636463089045
57.841,204,57,841000000,,15.22128733663231,0.9972287793862973,-0.00029709563518327554,-0.0015830464589181613,0.07437854297922933,-0.0008280381205505128,-0.0031131289234527237,0.14889606915058062
57.85,205,57,851000000,,15.266004810330497,0.9971819547801386,-0.00034554607973412345,-0.0015992927899234532,0.0750031435856502,-0.0009290533111389913,-0.003137742885311434,0.1501489459832842
57.861,206,57,861000000,,15.310931988868465,0.9971346182431845,-0.0003915770452758919,-0.001618174858527688,0.07562923380647275,-0.001025678030858903,-0.00316785229417893,0.151404869054219
57.871,207,57,871000000,,15.356045818458417,0.9970868006348121,-0.0003983811058513173,-0.0016292217249170347,0.07625679376765411,-0.0010429250242096854,-0.0031881978239107767,0.1526636669133978
57.881,208,57,881000000,,15.401292196540282,0.9970385056155813,-0.00036353338051260946,-0.0016303555339685714,0.07688580902844844,-0.000975621100205978,-0.0031951588108622975,0.15392529789143108
57.891,209,57,891000000,,15.446637848065496,0.9969897063652994,-0.0003247798814948547,-0.0016273630786063883,0.07751627024011058,-0.0008999033431036927,-0.0031945824592936045,0.15518987256175906
57.901,210,57,901000000,,15.492106109912015,0.996940376600336,-0.00032485262146424485,-0.0016272082293398212,0.07814814567777681,-0.0009020487236975876,-0.003193691339052007,0.15645747348889597
57.911,211,57,911000000,,15.537875109213413,0.9968905092149625,-0.0003693400932081594,-0.0016320433906674124,0.07878141996769768,-0.0009935378955716907,-0.0031957482991695763,0.15772809156219378
57.921,212,57,921000000,,15.58386306268885,0.9968401144224395,-0.000422775381200954,-0.0016405582356696852,0.07941609400008515,-0.001103458259220188,-0.003203603659696519,0.15900161668065482
57.931,213,57,931000000,,15.630017856518855,0.996789213666624,-0.0004403996116863136,-0.0016504365653658517,0.08005213979214006,-0.0011422192915726639,-0.003219770433018576,0.16027784831329278
57.941,214,57,941000000,,15.676153474611446,0.9967378141210271,-0.0004093192830396338,-0.0016608044065080626,0.08068955061384553,-0.0010839930558929714,-0.0032447232231671563,0.16155672967970688
57.951,215,57,951000000,,15.722337015795159,0.9966859024126515,-0.00036408285068140287,-0.001668933164946946,0.08132831062774497,-0.000997221007890824,-0.003267589643544122,0.1628383342168752
57.961,216,57,961000000,,15.768621300655147,0.9966334658765432,-0.0003531674519813082,-0.0016709335641847574,0.0819683965706076,-0.0009778898862768015,-0.0032727253213364893,0.1641227674038336
57.971000000000004,217,57,971000000,,15.815071973510827,0.9965804995922478,-0.0003915749179676841,-0.0016661870219263956,0.08260979323983861,-0.001055764378994323,-0.0032562888980574023,0.1654100478262406
57.981,218,57,981000000,,15.861732257909797,0.9965270013986245,-0.00044777375078947817,-0.0016605291519429745,0.08325249310186347,-0.0011689300325478794,-0.0032349733532017755,0.16670006681365218
57.991,219,57,991000000,,15.908583936963595,0.9964729737186595,-0.0004743672703486527,-0.0016641229121120813,0.08389647410285961,-0.001224623140301747,-0.0032369171834425448,0.16799264682414283
58.001,220,58,1000000,,15.955553463828844,0.996418418612987,-0.00045066372803664515,-0.0016820104922446015,0.08454172161558936,-0.0011825060241661542,-0.0032757785532464556,0.1692877029823602
58.011,221,58,11000000,,16.003332393806087,0.9963633373410039,-0.0004037395800268921,-0.001704008224900633,0.08518822095004643,-0.0010948717667599516,-0.0033268410673759075,0.17058527242381225
58.021,222,58,21000000,,16.05053534407664,0.9963077362086017,-0.0003861449987764896,-0.0017127009395358913,0.08583596530512434,-0.001063467331269975,-0.003346470380414912,0.17188548545767895
58.031,223,58,31000000,,16.08581614356917,0.9962516243941892,-0.0004190229366638587,-0.0016980372760310402,0.08648492579407985,-0.0011286202437398515,-0.0033108725027815034,0.173188339976384
58.041,224,58,41000000,,16.145185968095774,0.9961949795145761,-0.00047383196115460927,-0.0016775523847702262,0.08713509314548157,-0.0012364122924098438,-0.0032597695161220575,0.17449374930838463
58.051,225,58,51000000,,16.192774618221996,0.9961377863393749,-0.00050411741793799,-0.001672146634737421,0.08778645120873421,-0.0012979316445336669,-0.0032428732198930277,0.1758015690578976
58.061,226,58,61000000,,16.240443985761868,0.9960800338169774,-0.0004871486896644937,-0.0016959380959747717,0.08843897671322422,-0.001270459453773446,-0.0032924202370574474,0.17711171039570567
58.071,227,58,71000000,,16.273403147200163,0.9960217356004267,-0.00044224280318281775,-0.001733090168390813,0.08909266346954302,-0.0011897851782977282,-0.0033735961757046518,0.17842419039680107
58.081,228,58,81000000,,16.335947681288875,0.9959629231193419,-0.00042483734545349796,-0.0017497481978140772,0.08974749947509061,-0.0011603225428325251,-0.0034091190842717722,0.17973910700986087
58.091,229,58,91000000,,16.383884062677033,0.9959036188555183,-0.0004495127351141702,-0.0017300793760424051,0.09040346454723676,-0.0012081601912029593,-0.003364715954621289,0.1810564446090607
58.101,230,58,101000000,,16.432027099852053,0.9958437943519015,-0.0004973905032948305,-0.0016930677289250945,0.0910605488058497,-0.001298997204469901,-0.0032814825673674886,0.18237614958267198
58.111,231,58,111000000,,16.480350754075204,0.9957834016749654,-0.0005273065299835274,-0.0016776408599113066,0.09171872559932402,-0.0013579159078358886,-0.0032444117705712205,0.18369810661947528
58.121,232,58,121000000,,16.52876730777871,0.9957224175907043,-0.0005175495534483357,-0.0017053842003087025,0.09237797788920478,-0.0013457590094272695,-0.0033005641878638414,0.1850222606106538
58.131,233,58,131000000,,16.57721324698667,0.9956608673030846,-0.00048520407392772737,-0.0017541994932364171,0.09303830055030327,-0.0012926207415282149,-0.0034028970202220066,0.1863486115402613
58.141,234,58,141000000,,16.62571321996374,0.9955988114672456,-0.00046843535394637125,-0.0017773744783169609,0.09369966950808234,-0.001265834042824005,-0.0034513262124169497,0.18767714654093326
58.151,235,58,151000000,,16.674475053553316,0.9955362832697662,-0.00048650214911887923,-0.001751831958290166,0.09436208804794324,-0.0012992819843555517,-0.003396216364895066,0.18900789708454757
58.161,236,58,161000000,,16.724019562853492,0.9954732422564142,-0.0005234998783524571,-0.0017028700024478188,0.09502552271140663,-0.0013659002874307547,-0.003290837285540249,0.19034078644075114
58.171,237,58,171000000,,16.773061498469733,0.9954096160678836,-0.000547830685049062,-0.0016813933988012828,0.09568996666498852,-0.0014124247149585037,-0.003242512197036085,0.1916757979085691
58.181,238,58,180000000,,16.822109198296378,0.9953453724175301,-0.000544447527423731,-0.001712592700413023,0.09635538695528928,-0.001413869908358493,-0.0033043275471116296,0.19301287470019324
58.191,239,58,191000000,,16.87108134844342,0.9952805491463669,-0.0005246674856474636,-0.001768599220796276,0.09702177972726128,-0.001387576528448074,-0.003418703120305233,0.19435198923528005
58.201,240,58,201000000,,16.920217080183207,0.9952152274385131,-0.0005140311008963027,-0.001794495051029774,0.09768913057911023,-0.0013737571900719447,-0.0034713940700674684,0.19569308425711626
58.211,241,58,211000000,,16.969503858089872,0.9951494507604756,-0.0005262470652461826,-0.0017628751033574787,0.09835743650001341,-0.0013941812423279565,-0.003405134337508553,0.19703614597002883
58.221,242,58,221000000,,17.01880691317936,0.9950831627865989,-0.0005499657931048703,-0.0017069437552199409,0.09902667721367457,-0.0014325975729525661,-0.003288185336537408,0.19838116112284157
58.231,243,58,231000000,,17.06820050153563,0.9950162747478165,-0.0005672803600592542,-0.0016836096636643684,0.09969682158733896,-0.0014646156441616546,-0.0032373315883502674,0.1997281270461133
58.241,244,58,241000000,,17.11765369209625,0.9949487504993566,-0.000570089573795683,-0.0017182069532808053,0.10036785845365824,-0.0014793339399270919,-0.003304624397946654,0.20107705435124437
58.251,245,58,251000000,,17.167142379812102,0.9948806425484885,-0.0005640297775030788,-0.0017760694971937672,0.10103977064584192,-0.0014812011280859174,-0.0034199821132845365,0.20242785569329524
58.26,246,58,260000000,,17.201933343541235,0.9948120498571977,-0.0005620093859376745,-0.0017963465844328332,0.10171254588679259,-0.0014836188108650966,-0.003459734546944926,0.20378041717372558
58.271,247,58,271000000,,17.26637847808632,0.9947430046028191,-0.0005661165616118594,-0.0017612370151098872,0.10238619509529695,-0.0014869427742690018,-0.003388037840773128,0.20513472895033652
58.281,248,58,281000000,,17.298736602137975,0.9946734560322213,-0.0005775756389223433,-0.0016969587811223041,0.10306067597945187,-0.0014987862616802302,-0.0032567947968842326,0.20649076711921954
58.291,249,58,291000000,,17.366044502575413,0.9946032729651595,-0.000586823458115565,-0.0016834986726665137,0.10373596751903602,-0.001516600269799484,-0.0032270827825233717,0.2078486333567039
58.301,250,58,301000000,,17.4159464778768,0.9945324545889365,-0.0005967001786032758,-0.0017214922730921507,0.10441205456617009,-0.0015463735109162633,-0.0032995604757164454,0.2092083115378934
58.311,251,58,311000000,,17.46588162319911,0.9944610587497487,-0.0006033875140944367,-0.0017764594652344313,0.1050889281653109,-0.0015734729928177731,-0.0034064274148806195,0.2105696998045312
58.321,252,58,321000000,,17.515889502509797,0.9943891885221856,-0.0006051226410512358,-0.0017904691835949553,0.10576658432671111,-0.0015822084266306922,-0.0034328496297861832,0.21193265148364285
58.331,253,58,331000000,,17.565989459828177,0.99431687224106,-0.0006018726393371757,-0.0017482627950164923,0.10644500388929623,-0.0015691013612439042,-0.0033485279751583885,0.21329709102606512
58.341,254,58,341000000,,17.61616078556946,0.9942440279447919,-0.0005992694181977971,-0.0016928477551470425,0.10712417078392869,-0.0015543386777167054,-0.003237820719818263,0.2146631069379097
58.351,255,58,351000000,,17.66636428590874,0.9941705553474485,-0.0006069271838548959,-0.001680460505998695,0.10780405927336362,-0.0015691079292396292,-0.003210475795912604,0.21603080556088614
58.361,256,58,361000000,,17.716581209462646,0.9940964388418111,-0.0006255532541340019,-0.0017208391980339437,0.10848464512850589,-0.001617099217344038,-0.0032856403032504033,0.21740016490032782
58.371,257,58,371000000,,17.766838326913003,0.9940217606456992,-0.0006428862016445217,-0.0017684139930936671,0.10916592226594826,-0.0016641970852457832,-0.0033753278607919768,0.21877103480221852
58.381,258,58,381000000,,17.817169306879936,0.9939466212284055,-0.0006452264275990814,-0.001771467770810552,0.10984789429313506,-0.0016718355913345991,-0.00337974171626243,0.22014325182952738
58.391,259,58,391000000,,17.86756340714153,0.9938710299886732,-0.0006314453798154818,-0.001725336396976537,0.11053054006271987,-0.001636564854925062,-0.0032899416610736587,0.22151675757927164
58.401,260,58,401000000,,17.917980383414374,0.9937948919538214,-0.0006190283191176585,-0.0016769697295293175,0.11121383421950289,-0.0016033877029985135,-0.003195444314654239,0.22289167546839772
58.411,261,58,411000000,,17.968393900975265,0.9937181162679768,-0.0006283631022973443,-0.0016741333442598565,0.11189775905299859,-0.001623504091979241,-0.003186613813520811,0.22426814422495905
58.421,262,58,421000000,,18.018816420229427,0.9936407087294217,-0.0006573491890616476,-0.0017142975334461673,0.11258228519334398,-0.0016923466897423441,-0.003258785652339835,0.22564609496613552
58.431,263,58,431000000,,18.06929093853896,0.9935627627075762,-0.0006816202067112622,-0.0017503428334372912,0.11326741561592078,-0.0017509890963377237,-0.003323746323786958,0.22702534973517263
58.441,264,58,441000000,,18.11983224428031,0.9934843660841853,-0.0006789160276991072,-0.0017414509632106515,0.11395315292181757,-0.0017458829995282113,-0.0033054853880676305,0.22840573618496468
58.451,265,58,451000000,,18.170520542959206,0.9934055042173223,-0.0006527497798406677,-0.0016943910923203653,0.11463946576948221,-0.0016853881454013506,-0.0032167786504195828,0.22978722146155825
58.461,266,58,461000000,,18.221075501096937,0.9933260718254728,-0.0006355936958940309,-0.0016575916666757493,0.11532633459917564,-0.0016450404058773794,-0.003146461847191695,0.2311699940349517
58.471,267,58,471000000,,18.271571348739613,0.9932460011303081,-0.0006525411260501718,-0.0016640103525801208,0.1160137364799507,-0.0016823730073803305,-0.0031541410184807717,0.23255416079448443
58.481,268,58,481000000,,18.322087217781107,0.9931653219719748,-0.0006921370811598865,-0.0016995622209764138,0.1167016523042337,-0.001771506611085508,-0.0032143509739674947,0.2339396182846511
58.491,269,58,491000000,,18.372668075221387,0.9930841311793165,-0.0007173886882772931,-0.001720942032964464,0.11739008586128366,-0.0018289083869160003,-0.0032496575273499584,0.2353261545889747
58.501,270,58,501000000,,18.423417522204286,0.9930024931075601,-0.0007035136610416617,-0.0017022407887419837,0.11807902244344083,-0.001799189761630924,-0.0032145238194678516,0.23671359037512751
58.511,271,58,511000000,,18.47415339005386,0.9929203672550325,-0.000665925153301327,-0.0016600618738709817,0.11876844987641208,-0.0017167565446216796,-0.0031384418467346187,0.23810199832168305
58.521,272,58,521000000,,18.52480772461816,0.9928376532626115,-0.0006508495923167623,-0.001635966045702141,0.11945833376206452,-0.0016832443659183694,-0.003093003495230562,0.23949155902697988
58.531,273,58,531000000,,18.575297543316452,0.992754309618211,-0.0006811016267164185,-0.0016480358696579465,0.12014866143541159,-0.0017483610957631673,-0.0031085275327655815,0.24088235677048364
58.541,274,58,541000000,,18.625796657318045,0.9926703903913741,-0.0007284953623171877,-0.001673639471736983,0.12083941684106618,-0.0018508050065965018,-0.0031466879789547875,0.24227422241739155
58.551,275,58,551000000,,18.676492108781606,0.992585982763724,-0.0007468717680045253,-0.001680410204846448,0.12153059557361039,-0.001891121937291755,-0.0031543729187171188,0.2436669227744522
58.561,276,58,561000000,,18.72720128896901,0.9925011226060744,-0.0007165697694959023,-0.0016569191731627085,0.12222218714798823,-0.0018274270482629025,-0.003113831861842442,0.2450603443855867
58.571,277,58,571000000,,18.777687660358954,0.9924157443667924,-0.0006739020484439509,-0.0016258300776725327,0.12291416861174893,-0.0017372661251910256,-0.0030613392951808205,0.24645461788191148
58.581,278,58,581000000,,18.82806122619184,0.9923297714575813,-0.0006707788108823183,-0.001613625601740236,0.1236065154444585,-0.0017301856845221243,-0.0030366768533613975,0.24784991642012252
58.591,279,58,590000000,,18.878431923727124,0.9922431962180319,-0.0007150498870569854,-0.0016229138622678978,0.12429921153527614,-0.0018224700438789422,-0.0030428948972254233,0.24924623504647317
58.601,280,58,601000000,,18.928864927673338,0.9921560797039516,-0.0007621835886596661,-0.0016339692794768068,0.12499224940024192,-0.0019208872802691285,-0.0030517757639927368,0.2506433791613084
58.611,281,58,611000000,,18.97933954892279,0.9920684893095346,-0.0007635181150558932,-0.0016291122235384925,0.12568562252336504,-0.001924446576904042,-0.00304045999037994,0.2520411434298713
58.621,282,58,621000000,,19.029749211462203,0.99198042402363,-0.0007185052126831439,-0.0016098895398638975,0.12637930840630635,-0.0018324090037338152,-0.003012353988860461,0.25343948697280116
58.631,283,58,631000000,,19.080028535002405,0.9918918191408035,-0.0006808414875736706,-0.001591577256167905,0.12707329128060765,-0.0017551448407532309,-0.002984315812301741,0.25483858079391974
58.641,284,58,641000000,,19.130232146831315,0.9918026298769597,-0.0006971171094826702,-0.0015842228975794226,0.12776755030087864,-0.001787638528909222,-0.0029643393229832338,0.25623854266005286
58.651,285,58,651000000,,19.180456770546982,0.9917128730850435,-0.0007518172949719631,-0.0015838415377453048,0.12846207246947994,-0.001898110301319133,-0.0029482763393882117,0.25763928966444427
58.661,286,58,661000000,,19.23085567133884,0.9916226032268919,-0.0007883519637868049,-0.001581804615538811,0.12915683482496862,-0.0019721067716208626,-0.0029334685397695015,0.2590405902232366
58.671,287,58,671000000,,19.2811296513344,0.9915318598911341,-0.0007668404494336755,-0.001574800000557452,0.12985184240638484,-0.001929684282650488,-0.002923781622292676,0.26044233364738406
58.681,288,58,681000000,,19.331232178676714,0.9914406172452016,-0.0007144604233231553,-0.0015657274102859127,0.1305470768410058,-0.0018255012255968192,-0.002918114202094868,0.2618445708922158
58.691,289,58,691000000,,19.381189043958454,0.9913488292700274,-0.0006941656058475499,-0.001555373587730631,0.13124251700055373,-0.0017845912703068946,-0.0029016315595915554,0.2632474417524318
58.701,290,58,701000000,,19.43110187894775,0.991256483282914,-0.0007310040977689934,-0.001542569383247946,0.13193813115170808,-0.0018562812315207561,-0.0028652730956155725,0.264650948035993
58.711,291,58,711000000,,19.481055521851324,0.9911636035935496,-0.0007850001211999365,-0.001529131671599368,0.13263392226751108,-0.0019617656357628493,-0.0028230077754711758,0.2660549858257093
58.721000000000004,292,58,721000000,,19.531025990879602,0.9910702263657333,-0.0007984383486004987,-0.0015216597702533013,0.13332986517294182,-0.0019883914565469885,-0.0028032357025413734,0.2674593641758648
58.731,293,58,731000000,,19.580891090627954,0.9909763605868613,-0.0007582546861852385,-0.0015229735651334322,0.13402596091305743,-0.001911069665928834,-0.0028152136944537,0.2688640613100345
58.741,294,58,741000000,,19.63057091655674,0.9908819826707314,-0.0007136407172571635,-0.001523289628459833,0.13472217631736258,-0.0018247175470813106,-0.0028265177969872823,0.27026911793579284
58.751,295,58,751000000,,19.680126748842483,0.9907870758754879,-0.0007187679267611645,-0.0015097639199049297,0.13541850887520382,-0.0018332001001037876,-0.002797043844280367,0.27167464590586177
58.761,296,58,761000000,,19.729673032818383,0.9906916430034298,-0.0007679561767182272,-0.0014837185187872874,0.136114943801499,-0.0019255364278117947,-0.0027307578444850655,0.27308060009727236
58.771,297,58,771000000,,19.779244982988867,0.9905956981378744,-0.0008068483897725892,-0.0014626364140650958,0.13681145296531472,-0.001998740406441081,-0.0026769936757236046,0.27448682117484546
58.781,298,58,781000000,,19.82886814028174,0.9904992545781317,-0.000794322104118415,-0.0014626173687307558,0.13750802305747475,-0.0019758025254681174,-0.0026789947070340325,0.2758932239847536
58.791,299,58,791000000,,19.878323903340156,0.9904023115081508,-0.0007468018256569304,-0.00147597165232854,0.13820465372732152,-0.0018872488981808808,-0.0027171918405006767,0.27729983095553884
58.802,300,58,801000000,,19.905935882248542,0.9903048668813038,-0.0007250475665532305,-0.0014732879739560313,0.13890131463578695,-0.0018453273970208692,-0.0027165917228650915,0.2787066610496698
58.811,301,58,811000000,,19.976766676437236,0.9902069194379373,-0.0007517983135979904,-0.0014462475609739755,0.13959799043867147,-0.0018926660877137459,-0.0026542727332363736,0.2801137227006876
58.821,302,58,821000000,,20.02577445262311,0.9901084699278576,-0.0007979573557577588,-0.0014084096944158649,0.14029468096252942,-0.0019753212335650193,-0.002565061202662866,0.2815209706569993
58.831,303,58,831000000,,20.074865097433722,0.9900095132647933,-0.0008123327248623715,-0.0013933025496825093,0.14099135539098326,-0.002001329220642433,-0.002529704472369554,0.28292830504336836
58.841,304,58,841000000,,20.123713580988376,0.9899100526106063,-0.0007809376520398522,-0.0014096824735520905,0.14168799896294482,-0.001945593892915054,-0.0025696215444999115,0.2843356904586402
58.851,305,58,851000000,,20.17232489381427,0.9898100994912016,-0.0007447607964050754,-0.001426293448701597,0.14238461301874694,-0.0018805155179982603,-0.0026114373333114838,0.2857431452301734
