Time,header.seq,header.stamp.secs,header.stamp.nsecs,header.frame_id,position_controller_output.thrust.num,position_controller_output.orientation_set_point.w,position_controller_output.orientation_set_point.x,position_controller_output.orientation_set_point.y,position_controller_output.orientation_set_point.z,position_controller_output.euler_set_point.phi,position_controller_output.euler_set_point.theta,position_controller_output.euler_set_point.psi
222.74,1,222,740000000,,10.0658429870509,0.9999999999945878,1.974969259088602e-07,-2.3465819092777125e-06,2.2975892906595707e-06,3.94983068857014e-07,-4.693164726080896e-06,4.595177654475623e-06
222.74,2,222,740000000,,10.06591952892279,0.9999999999544756,2.3212692573799476e-07,-2.591570378242777e-06,9.180332733742001e-06,4.6420626850435646e-07,-5.183145018277633e-06,1.836066426477985e-05
222.75,3,222,750000000,,10.06610235690019,0.9999999997822692,3.0070739374440465e-07,-3.105229441578675e-06,2.0633196082618083e-05,6.012866457535956e-07,-6.210471290954301e-06,4.126639030122831e-05
222.76,4,222,760000000,,10.066577350446444,0.9999999993214358,3.9193301191579715e-07,-3.794925451336926e-06,3.664114459543727e-05,7.83587922497958e-07,-7.589879619344844e-06,7.328228623413667e-05
222.77,5,222,770000000,,10.067336337532616,0.9999999983538032,5.046045115520955e-07,-4.641211523700959e-06,5.718914357587216e-05,1.0086781676620717e-06,-9.282480748054245e-06,0.00011437828253382054
222.78,6,222,780000000,,10.068356632907355,0.9999999966003454,6.411462409743989e-07,-5.642269294436837e-06,8.226215835612726e-05,1.2813641871710097e-06,-1.1284644034896854e-05,0.00016452430967059555
222.79,7,222,790000000,,10.069617719794934,0.9999999937219067,8.039422202650521e-07,-6.797195946575579e-06,0.00011184515428104154,1.6063639637261379e-06,-1.3594571642306352e-05,0.00022369029811477746
222.8,8,222,800000000,,10.07110105376493,0.9999999893199012,9.925135552160205e-07,-8.103218535837001e-06,0.00014592309667872403,1.9826621960098075e-06,-1.620672656060007e-05,0.00029184617833668175
222.81,9,222,810000000,,10.072789884736563,0.9999999829370017,1.2025295815737672e-06,-9.55663340102712e-06,0.0001844809508238927,2.401533088918009e-06,-1.9113710164689616e-05,0.000368961880806624
222.82,10,222,820000000,,10.074669093709955,0.9999999740577946,1.4287035286786632e-06,-1.1155418207843378e-05,0.00022750368193048926,2.8523311865121848e-06,-2.23114859093719e-05,0.0004550073359949203
222.83,11,222,830000000,,10.076725046131278,0.999999962109435,1.6679545741468579e-06,-1.2899832368846908e-05,0.0002749762551687719,3.328814727814146e-06,-2.5800581058797568e-05,0.0005499524743718857
222.84,12,222,840000000,,10.076886179551622,0.9999999464730969,1.9499979489562965e-06,-1.403889292301649e-05,0.00032688363466229606,3.890817522010911e-06,-2.8079059191640074e-05,0.0006537672264078361
222.85,13,222,850000000,,10.077423408564586,0.9999999264686392,2.329066069667914e-06,-1.4380038657328174e-05,0.0003832107852816527,4.647110626943398e-06,-2.8761860250329306e-05,0.0007664215225730872
222.86,14,222,860000000,,10.07829122879658,0.999999901345732,2.7249573180643073e-06,-1.4697098145346913e-05,0.00044394267199331913,5.436864762804838e-06,-2.9396612844730514e-05,0.0008878852933379549
222.87,15,222,870000000,,10.079463270918062,0.999999870304904,3.113740563688957e-06,-1.5298985889430862e-05,0.0005090642600601336,6.2119039887896594e-06,-3.0601138003302945e-05,0.001018128469172754
222.88,16,222,880000000,,10.080419688459827,0.9999998324711259,3.4630629963624725e-06,-1.770460734654406e-05,0.0005785605190403207,6.905638463152263e-06,-3.5413215951473474e-05,0.001157120980547801
222.89,17,222,890000000,,10.081307668315409,0.9999997869634667,3.751365858116083e-06,-2.029232551953377e-05,0.0006524164084089835,7.47625203183702e-06,-4.0589537309479015e-05,0.001304832757933411
222.9,18,222,900000000,,10.082418945771478,0.9999997328247672,4.1254381903290005e-06,-2.3072212316001584e-05,0.0007306168955049677,8.217160288801874e-06,-4.615044054942456e-05,0.0014612337317998997
222.91,19,222,910000000,,10.083503776787731,0.9999996690499018,4.715905478631746e-06,-2.5882197225146317e-05,0.0008131469479486932,9.389715789166877e-06,-5.177204679028256e-05,0.0016262938326175836
222.92,20,222,920000000,,10.084670434342609,0.9999995945887082,4.760826430299359e-06,-2.854887084345878e-05,0.0008999915087576909,9.470261533309092e-06,-5.71062879766107e-05,0.0017999829908567774
222.93,21,222,930000000,,10.085903258388688,0.9999995083146185,5.279124434246861e-06,-3.1510816982307965e-05,0.0009911355711070152,1.0495780715028276e-05,-6.303206767556012e-05,0.0019822711369877964
222.94,22,222,940000000,,10.087220612008046,0.9999994090905844,5.332040074458513e-06,-3.418448582510644e-05,0.0010865640673203471,1.0589786604453187e-05,-6.838051850993465e-05,0.002173128201480957
222.95,23,222,950000000,,10.088580461244959,0.999999295674216,5.910460180800665e-06,-3.7398009264703306e-05,0.001186261997752531,1.1732184394556633e-05,-7.48099886270251e-05,0.002372524114806576
222.96,24,222,960000000,,10.090030484240076,0.9999991668320747,6.498268006768249e-06,-4.04965974817655e-05,0.0012902143057676055,1.2892026649087523e-05,-8.100989588789483e-05,0.002580428807434966
222.97,25,222,970000000,,10.091574876483293,0.9999990212094347,7.545121751022036e-06,-4.4541617746849895e-05,0.001398405981093707,1.496565426249559e-05,-8.910425070454699e-05,0.0027968122098364447
222.98,26,222,980000000,,10.093149496866111,0.9999988575097688,7.858655375389051e-06,-4.8316731568392294e-05,0.0015108219259362902,1.5571296912385307e-05,-9.665709894220067e-05,0.0030216442524813284
222.99,27,222,990000000,,10.094858397186895,0.9999986742873153,8.464259116732047e-06,-5.260924031954433e-05,0.0016274471531116427,1.675725836793372e-05,-0.0001052458916127158,0.00325489486583993
223.0,28,223,0,,10.096618345482659,0.9999984701453148,8.615781819791322e-06,-5.6539977652518615e-05,0.001748266578427388,1.703384348103238e-05,-0.00011310990791712813,0.0034965339803825677
223.01,29,223,10000000,,10.098451455543067,0.9999982435856003,9.056979611348026e-06,-6.0176126712685735e-05,0.0018732652026137245,1.7888475849260283e-05,-0.00012038597457722192,0.003746531526579556
223.02,30,223,20000000,,10.100367167729507,0.9999979930405005,9.406999926372579e-06,-6.409917636639988e-05,0.0020024279699766665,1.855725428023901e-05,-0.00012823576947489052,0.004004857434901211
223.03,31,223,30000000,,10.102370755972432,0.9999977169238187,9.940470851761905e-06,-6.829052180266816e-05,0.002135739858249336,1.958919491918793e-05,-0.00013662319272505697,0.004271481635817849
223.04,32,223,40000000,,10.10445409001407,0.9999974136188552,1.0504912415028288e-05,-7.260501725232668e-05,0.002273185817014188,2.067968131935932e-05,-0.0001452574186827948,0.0045463740597997855
223.05,33,223,50000000,,10.10662401089787,0.999997081454063,1.1119461898632733e-05,-7.706005471874018e-05,0.002414750807405108,2.1866697494865274e-05,-0.0001541733617008251,0.004829504637317332
223.06,34,223,60000000,,10.10887629755043,0.9999967187174784,1.1743221598167482e-05,-8.165106382747048e-05,0.0025604197852391766,2.306824444191773e-05,-0.0001633617276949758,0.005120843298840811
223.07,35,223,70000000,,10.111219282702702,0.9999963236590577,1.2369112078158974e-05,-8.632594586811923e-05,0.0027101777073434753,2.4270216266449945e-05,-0.00017271830285139206,0.005420359974840536
223.08,36,223,80000000,,10.113648796648295,0.9999958944786815,1.2972529090557794e-05,-9.114225603477696e-05,0.0028640095293957315,2.5422887508948506e-05,-0.0001823580716011784,0.005728024595786816
223.09,37,223,90000000,,10.116169979880862,0.9999954293437476,1.3589779314362244e-05,-9.605232630594332e-05,0.003021900210548864,2.6598913804487166e-05,-0.00019218590966457583,0.006043807092149973
223.1,38,223,100000000,,10.11878246861464,0.9999949263701735,1.4267177161856324e-05,-0.00010112805019501141,0.003183834712456809,2.789026013231702e-05,-0.00020234592426603698,0.006367677394400325
223.11,39,223,110000000,,10.121488321852501,0.9999943836463367,1.4895332107592407e-05,-0.00010633631056824914,0.003349797979144692,2.907808724607969e-05,-0.00021277122100404422,0.006699605433008183
223.12,40,223,120000000,,10.1242888314099,0.999993799219233,1.560561894194248e-05,-0.00011164072075746105,0.003519774978344989,3.0425144682716214e-05,-0.000223389915387774,0.0070395611384438655
223.13,41,223,130000000,,10.127183117052638,0.9999931710998381,1.632662170970009e-05,-0.00011701803926256786,0.0036937506561557755,3.1788550391859335e-05,-0.00023415509539516022,0.007387514441177684
223.14,42,223,140000000,,10.130176232722379,0.9999924972608327,1.7107628264452734e-05,-0.00012243885632448983,0.0038717099709432174,3.326690534366242e-05,-0.00024500834939650653,0.007743435271679955
223.15,43,223,150000000,,10.13326592812503,0.9999917756103327,1.7849804865964612e-05,-0.000128113731920486,0.004053637866155802,3.4660663920639694e-05,-0.00025637007262462903,0.008107293560421
223.16,44,223,160000000,,10.13645653233805,0.9999910040784015,1.8577449224498443e-05,-0.00013376595592873612,0.004239519290866911,3.6020358803534e-05,-0.00026768702726700513,0.00847905923787113
223.17,45,223,170000000,,10.13974848581402,0.9999901805068954,1.9444614887712486e-05,-0.00013951983334554595,0.004429339218197542,3.7652888040358274e-05,-0.00027920918388137285,0.008858702234500663
223.18,46,223,180000000,,10.143140197333947,0.9999893027196314,2.0285678122115115e-05,-0.00014540389514588767,0.004623082575952258,3.922649548364915e-05,-0.0002909922482761449,0.00924619248077991
223.19,47,223,190000000,,10.146636938826285,0.9999883685040648,2.1014913050465318e-05,-0.00015144559728775343,0.004820734299184415,4.056918113511464e-05,-0.0003030902907625823,0.009641499907179189
223.2,48,223,200000000,,10.150238959861797,0.9999873756288825,2.1987910768928718e-05,-0.00015750923341477122,0.005022279386217754,4.239315773760281e-05,-0.0003152353540025076,0.010044594444168812
223.21,49,223,210000000,,10.153952527034454,0.9999863217277299,2.300795479766327e-05,-0.00016417022434720487,0.005227702766664688,4.429881631093332e-05,-0.0003285765209745826,0.010455446022219102
223.22,50,223,220000000,,10.157770766892742,0.9999852045664863,2.4246160517830013e-05,-0.00017089895350039407,0.005436989405340895,4.6633254716626445e-05,-0.0003420565088585446,0.010874024571800376
223.23,51,223,230000000,,10.16169822553067,0.9999840218270852,2.5669613351478735e-05,-0.0001775602924572703,0.005650124241195727,4.9331934106177065e-05,-0.0003554049912277756,0.011300300023382939
223.24,52,223,240000000,,10.165736469616215,0.9999827711454699,2.7164463922960045e-05,-0.00018412891393302958,0.0058670921981488515,5.2167392758921235e-05,-0.0003685702443788895,0.011734242307437118
223.25,53,223,250000000,,10.169888273522538,0.999981450105698,2.8737182217673367e-05,-0.00019067628241657792,0.006087878221099999,5.5151674363473816e-05,-0.0003816953969831918,0.012175821354433222
223.26,54,223,260000000,,10.174151834293037,0.9999800562366926,3.0450034638441168e-05,-0.00019737944775329312,0.006312467268039634,5.840695668646886e-05,-0.0003951354625047596,0.012625007094841567
223.27,55,223,270000000,,10.178532226303084,0.9999785870725262,3.236280337758184e-05,-0.00020421808675506387,0.006540844292319755,6.205270860231616e-05,-0.00040885079920199147,0.013081769459132466
223.28,56,223,280000000,,10.18302782212932,0.9999770401010412,3.4338864519807944e-05,-0.00021128426825575878,0.006772994209446241,6.581410389121597e-05,-0.00042302400085836105,0.013546078377776242
223.29,57,223,290000000,,10.187642310153509,0.9999754128431398,3.644947786440814e-05,-0.00021834345813674297,0.007008901965482022,6.983647429576732e-05,-0.0004371871349446509,0.014017903781243204
223.3,58,223,300000000,,10.192375994447074,0.9999737027774569,3.869801130553563e-05,-0.00022526152600032794,0.007248552493487347,7.412835492788278e-05,-0.00045107222892470206,0.014497215600003673
223.31,59,223,310000000,,10.19723152668365,0.99997190733469,4.106554808354177e-05,-0.00023201096833898769,0.007491930722683544,7.865237725295138e-05,-0.00046462423826451924,0.014983983764527958
223.32,60,223,320000000,,10.202207800691644,0.9999700239066325,4.3789006542759787e-05,-0.00023856808067890928,0.007739021641197087,8.388283043355808e-05,-0.00047779964499793754,0.015478178205286384
223.33,61,223,330000000,,10.207308649775351,0.9999680497962766,4.629475709711798e-05,-0.0002453133699296704,0.007989810058881153,8.866655229848016e-05,-0.0004913508566376905,0.01597976885274926
223.34,62,223,340000000,,10.21253470911816,0.9999659823642101,4.9104874442124934e-05,-0.0002520584940784274,0.008244281024273778,9.405033802825579e-05,-0.0005049095295109513,0.01648872563738691
223.35,63,223,350000000,,10.217887181743713,0.9999638189053981,5.186003262300577e-05,-0.000258950377767853,0.008502419383389621,9.93129166445816e-05,-0.0005187639120806138,0.017005018489669628
223.36,64,223,360000000,,10.223367780436677,0.9999615567928534,5.44951784651064e-05,-0.0002656863835218381,0.008764210029088152,0.0001043291194273972,-0.000532307578887948,0.01752861734006776
223.37,65,223,370000000,,10.228978498773666,0.9999591933364116,5.717132051127491e-05,-0.00027208921403681945,0.009029637915934153,0.0001094242573941911,-0.0005451887216221852,0.01805949211905159
223.38,66,223,380000000,,10.234719630619963,0.9999567257614428,6.0168250226956584e-05,-0.0002781814485400158,0.009298688042835731,0.00011515786611263832,-0.0005574578213497126,0.01859761275709146
223.39,67,223,390000000,,10.24059359475793,0.9999541512075799,6.35053145223152e-05,-0.00028424974145410323,0.00957134535413549,0.00012156352090196435,-0.000569689111302679,0.01914294918465767
223.4,68,223,400000000,,10.246600830689001,0.999951466825728,6.691977400623419e-05,-0.00029050517575413313,0.009847594709449613,0.00012811151996076195,-0.0005823001837636388,0.019695471332220542
223.41,69,223,410000000,,10.252741221547574,0.9999486698176657,7.022521431952906e-05,-0.0002968885700036227,0.010127420968686232,0.0001344298124486835,-0.0005951690970718624,0.020255149130250394
223.42,70,223,420000000,,10.25901666194592,0.9999457574270268,7.331206129755357e-05,-0.00030312558742960275,0.010410808993993529,0.00014030463051293906,-0.0006077448033819986,0.020821952509217544
223.43,71,223,430000000,,10.265428156492098,0.9999427267880123,7.601058569641259e-05,-0.0003092686428113868,0.01069774364302189,0.00014539553980565803,-0.0006201281832715389,0.021395851399592283
223.44,72,223,439000000,,10.271989207517159,0.9999395750380445,7.930821662229047e-05,-0.0003149945494011843,0.010988210107908626,0.00015168442711483782,-0.0006316939844416747,0.021976815731844956
223.45,73,223,450000000,,10.278685354410207,0.9999362990367239,8.261879480349918e-05,-0.0003211852318878342,0.011282193178680554,0.00015797974958557442,-0.0006441938311198745,0.022564815436445864
223.46,74,223,460000000,,10.285524496391291,0.9999328960744648,8.665224832979885e-05,-0.0003269533710600709,0.011579677932241414,0.00016572087417829567,-0.0006558697196883807,0.023159820443865334
223.47,75,223,470000000,,10.292509582277468,0.9999293629649011,9.072322794892809e-05,-0.0003332060873333662,0.01188064912394828,0.00017351626948369648,-0.0006685208527597698,0.023761800684573668
223.48,76,223,480000000,,10.299639930627851,0.999925697108742,9.419326419969075e-05,-0.0003390244219421326,0.012185091368833112,0.0001801104862717377,-0.0006802940224292936,0.024370726089041197
223.49,77,223,490000000,,10.30690137356429,0.9999218952429907,9.76647556252906e-05,-0.00034508069167227143,0.01249298981739692,0.0001866921218074399,-0.0006925477834127307,0.024986566587738217
223.5,78,223,500000000,,10.314309140890694,0.999917954651977,0.00010099472129119625,-0.00035059536344548376,0.012804329250868279,0.00019299464233911106,-0.0007037195948645903,0.025609292111135065
223.51,79,223,510000000,,10.321917594351097,0.9999138722539038,0.00010380977010443002,-0.00035589106808678805,0.013119094453616977,0.00019826377322987177,-0.0007144446731200319,0.026238872589702047
223.52,80,223,520000000,,10.32960971219272,0.9999096444512406,0.00010734788349193449,-0.0003621621669523142,0.013437270868383408,0.00020494348137417857,-0.0007271438764353406,0.02687527795390947
223.53,81,223,530000000,,10.337479724787025,0.9999052686712382,0.00011116434980236896,-0.00036818718794206677,0.013758843126530383,0.00021217603817732557,-0.0007393636712246818,0.027518478134227663
223.54,82,223,540000000,,10.345539899081762,0.9999007419065511,0.00011431760103640875,-0.00037411578457482254,0.014083795780784019,0.00021807463084938379,-0.000751377423305535,0.028168443061126924
223.55,83,223,550000000,,10.353735502083639,0.9998960610807729,0.00011718677643978566,-0.0003798382846468822,0.014412113838453453,0.00022340071403127034,-0.0007629755016823711,0.02882514266507758
223.56,84,223,560000000,,10.362058637854933,0.9998912230840781,0.00012014773134111955,-0.0003852881680608394,0.014743782315835296,0.00022890818489745618,-0.0007740354564890456,0.029488546876549948
223.57,85,223,570000000,,10.37055478385015,0.9998862248152929,0.0001230011461711606,-0.00039052201211301494,0.015078786022013803,0.0002341971819093187,-0.0007846646572445532,0.030158625626014356
223.58,86,223,580000000,,10.379218234777806,0.9998810631254237,0.0001259770927013962,-0.00039554330870065357,0.015417109924865042,0.0002397280274486665,-0.0007948770171083508,0.030835348843941093
223.59,87,223,590000000,,10.38805574715726,0.9998757348319728,0.0001290749984185801,-0.0004004768076790127,0.015758738915083507,0.000245495980871249,-0.0008049222900416922,0.031518686460800506
223.6,88,223,600000000,,10.397025677520025,0.999870236412356,0.00013264903342781424,-0.00040612391848540453,0.016103658102936805,0.0002521835660825953,-0.0008164147968360213,0.03220860840706287
223.61,89,223,610000000,,10.406167998693588,0.999864565018991,0.00013616236760403456,-0.0004118765289003197,0.0164518520817055,0.0002587356810593643,-0.0008281218337350914,0.032905084613198556
223.62,90,223,620000000,,10.4154736049037,0.9998587175744744,0.00013936329012180057,-0.00041759927533285157,0.016803305598782275,0.00026465320100045803,-0.0008397641783958284,0.03360808500967781
223.63,91,223,630000000,,10.424925895963119,0.9998526909042202,0.00014276919984018813,-0.0004231041779125138,0.017158003712552047,0.0002709771925993848,-0.000850983073268791,0.034317579526971
223.64,92,223,640000000,,10.434530984358368,0.9998464817407906,0.00014640649138155878,-0.00042856230460353885,0.017515931321318318,0.00027775480162763494,-0.0008621220238212076,0.03503353809554843
223.65,93,223,650000000,,10.444299360028095,0.999840086831922,0.00015008964248513089,-0.0004341540007573562,0.01787707323187281,0.00028460858904855976,-0.0008735355857854105,0.03575593064588041
223.66,94,223,660000000,,10.454228407186037,0.9998335029935753,0.00015371886045999862,-0.0004398499885827502,0.01824141425700243,0.00029133968000983154,-0.0008851617241673087,0.036484727108437275
223.67,95,223,670000000,,10.464313024884078,0.9998267270287233,0.00015720895673345005,-0.0004456296503958192,0.018608939211824316,0.00029777816737689013,-0.000896955973754556,0.037219897413689286
223.68,96,223,680000000,,10.474548751069351,0.9998197557009465,0.00016051535116006087,-0.00045152925444442635,0.018979632932546987,0.00030383324954834,-0.0009089889078080111,0.037961411492106814
223.69,97,223,690000000,,10.484932174003474,0.9998125857511455,0.00016364608415809714,-0.0004575966688382863,0.01935348027760936,0.0003095187892062806,-0.0009213561902852729,0.03870923927416015
223.7,98,223,700000000,,10.495459605022436,0.9998052139195316,0.0001666450897457521,-0.000463848678628947,0.01973046611556075,0.00031492150052543297,-0.0009340927611561281,0.03946335069031962
223.71,99,223,710000000,,10.506127973313436,0.9997976369485402,0.00016958633821297135,-0.0004702688342201903,0.020110575322757215,0.0003201894358795957,-0.0009471684376463566,0.04022371567105555
223.72,100,223,720000000,,10.516934095819304,0.9997898515910293,0.00017251958573155738,-0.00047681331371890435,0.020493792758883165,0.00032542339141243716,-0.0009604975332783378,0.04099030414683822
223.73,101,223,730000000,,10.527875039723565,0.9997818546086825,0.00017541802227586759,-0.00048343794204537245,0.02088010324440431,0.0003305712058212711,-0.00097399061140203,0.041763086048137985
223.74,102,223,740000000,,10.53894858522238,0.9997736427466443,0.00017821555302914585,-0.0004901389082304512,0.021269491582374057,0.0003355005844487229,-0.0009876371924382055,0.04254203130542513
223.75,103,223,750000000,,10.55015285399755,0.9997652127352487,0.00018083936247506786,-0.0004969362212290142,0.021661942571253336,0.0003400647767082904,-0.001001473925039573,0.04332710984916999
223.76,104,223,760000000,,10.561486246488556,0.9997565612806958,0.00018327419393204193,-0.0005038667451178869,0.022057441036335328,0.0003442313180693139,-0.0010155734629130717,0.04411829160984287
223.77,105,223,770000000,,10.572947308165343,0.999747685070311,0.00018557619798501888,-0.0005109666520153613,0.02245597183623334,0.0003481104348750693,-0.0010300102248784037,0.04491554651791409
223.78,106,223,780000000,,10.584534588065491,0.9997385808017428,0.0001878224770962247,-0.0005182338302220905,0.022857519833342065,0.00035185587258256386,-0.001044783209966115,0.04571884450385398
223.79,107,223,790000000,,10.596246736265392,0.999729245194542,0.0001900649577025926,-0.0005256267050466622,0.023262069869857103,0.00035557287030981685,-0.0010598115852293885,0.04652815549813282
223.8,108,223,800000000,,10.608082634297048,0.9997196749823621,0.0001922913636866885,-0.0005330979714932562,0.02366960675095193,0.00035923869582302144,-0.001075000190559703,0.04734344943122095
223.81,109,223,810000000,,10.620041423645738,0.9997098669001702,0.00019442495321353047,-0.0005406210375832089,0.02408011524630357,0.0003627008779494549,-0.0010902921376235062,0.0481646962335887
223.82,110,223,820000000,,10.632122435529913,0.9996998176563403,0.00019639955955131906,-0.0005482128924028905,0.024493580132715742,0.00036582604671409166,-0.0011057179391545356,0.04899186583570635
223.83,111,223,830000000,,10.644325126223913,0.9996895239414181,0.00019818807193843152,-0.0005559051034103096,0.024909986206040343,0.00036855814171489183,-0.001121338975641552,0.04982492816804423
223.84,112,223,840000000,,10.656648958390871,0.9996789824238135,0.00019983251243773652,-0.0005637389171385858,0.025329318298944255,0.00037097872884367947,-0.0011372393818381088,0.05066385316107267
223.85,113,223,850000000,,10.66909331892829,0.9996681897726717,0.00020141910267353573,-0.0005717337029730271,0.025751561264275902,0.0003732587255254266,-0.001153461960266,0.05150861074526197
223.86,114,223,860000000,,10.681657615934798,0.9996571426855482,0.00020301398577240345,-0.0005798651174474591,0.026176699935875652,0.00037553111736120075,-0.0011699613521868242,0.05235917085108245
223.87,115,223,870000000,,10.694341447014896,0.9996458378944137,0.00020460847383665899,-0.0005880794884947856,0.026604719097620765,0.0003777809143013674,-0.0011866298064729106,0.053215503409004425
223.88,116,223,880000000,,10.707017123465112,0.9996342723689693,0.00020618685267794905,-0.0005959342717448984,0.027035603464445876,0.0003800002874980487,-0.001202581706070862,0.05407757834949821
223.89,117,223,890000000,,10.72006694812734,0.9996224421555406,0.0002074993871877091,-0.000604615947841108,0.027469337861563296,0.0003816255821878197,-0.001220175385011535,0.05494536560303412
223.9,118,223,900000000,,10.732965056881191,0.9996103448579527,0.00020871822617493055,-0.0006125748488111182,0.027905906932426842,0.00038308518479057365,-0.0012363215694833043,0.05581883510008248
223.91,119,223,910000000,,10.746269032591806,0.999597976205824,0.00020974031212878756,-0.0006214408225794589,0.0283452956507178,0.00038408244693697425,-0.001254272608348753,0.0566979567711136
223.92,120,223,920000000,,10.759548365457666,0.9995853335778024,0.00021072717670807888,-0.0006300664271910533,0.02878748871484829,0.00038500385097323597,-0.0012717432748476118,0.05758270054659779
223.93,121,223,930000000,,10.772946767942186,0.9995724134392522,0.0002117196819698516,-0.0006388317112786244,0.029232470987752522,0.0003859093784498497,-0.0012894956471320314,0.05847303635700539
223.94,122,223,940000000,,10.786463877425597,0.9995592125373745,0.0002127209107674077,-0.0006476824745087374,0.029680227237842693,0.0003868079063119609,-0.0013074215508017736,0.05936893413280667
223.95,123,223,950000000,,10.800099342239527,0.9995457276421655,0.0002136675042390515,-0.0006565621058095554,0.030130742186224063,0.00038757582504706623,-0.0013254040046102057,0.06027036380447197
223.96,124,223,960000000,,10.8138532734412,0.9995319555143866,0.00021448028577179568,-0.0006654431669841234,0.030584000542519356,0.0003880563304511955,-0.0013433831543738315,0.061177295302471624
223.97,125,223,970000000,,10.827725775797097,0.9995178928693802,0.0002151252492314024,-0.0006743582179303037,0.0310399870501753,0.000388179300413794,-0.0013614216005090106,0.0620896985572759
223.98,126,223,980000000,,10.841717469656876,0.9995035363822729,0.00021563136748173816,-0.0006833822940132739,0.03149868649775592,0.0003879977184414637,-0.0013796706865198353,0.06300754349935517
223.99,127,223,990000000,,10.855827949116982,0.9994888827539825,0.0002160672879425807,-0.0006925435247539781,0.03196008369183492,0.0003876465950489431,-0.00139819062040353,0.06393080005917971
224.0,128,224,0,,10.870056708500009,0.999473928716912,0.00021650092267841054,-0.0007018320844745011,0.03242416343187385,0.00038726181755331256,-0.0014169659383009804,0.0648594381672199
224.01,129,224,10000000,,10.884404465152791,0.9994586710562597,0.00021694482048212877,-0.0007111918466947888,0.03289091047017552,0.00038687167769963063,-0.0014358852346720732,0.06579342775394596
224.02,130,224,20000000,,10.898871079458777,0.9994431065925159,0.00021734488238220998,-0.0007205522606417678,0.033360309506099695,0.0003863724145223449,-0.0014548038779387505,0.06673273874982825
224.03,131,224,30000000,,10.91345625103269,0.9994272321208812,0.00021763195371206112,-0.0007298956926860329,0.03383234523063419,0.0003856268644222131,-0.0014736817959471282,0.06767734108533706
224.04,132,224,40000000,,10.928160089185264,0.9994110444072377,0.00021776478739186366,-0.000739246034805689,0.03430700235566592,0.00038455087410846,-0.0014925635717615566,0.06862720469094279
224.05,133,224,50000000,,10.942982626204863,0.9993945401786442,0.00021776064449150343,-0.0007486691136161852,0.034784265638021734,0.00038317423482482393,-0.0015115815129337932,0.06958229949711567
224.06,134,224,60000000,,10.957923809337053,0.9993777161588754,0.00021768408905057968,-0.0007582273512545091,0.03526411986695994,0.00038162127155321607,-0.0015308645108125373,0.07054259543432603
224.07,135,224,70000000,,10.972983639665575,0.9993605691219203,0.00021759996807022073,-0.0007679259924337707,0.03574654982282227,0.00038002071226399915,-0.0015504274310437424,0.07150806243304422
224.08,136,224,80000000,,10.988162237537296,0.9993430959141378,0.0002175241167655909,-0.0007777043071383372,0.03623154023797072,0.0003784080742632808,-0.0015701499727483524,0.07247867042374054
224.09,137,224,90000000,,11.003459735654452,0.9993252934298936,0.0002174167128456449,-0.0007874731768738483,0.036719075794818284,0.00037670995118678914,-0.0015898510783695255,0.07345438933688526
224.1,138,224,100000000,,11.018876203310416,0.9993071585528764,0.000217216434761538,-0.0007971801501392416,0.03720914115919986,0.00037480759314900664,-0.00160942123014398,0.07443518910294879
224.11,139,224,110000000,,11.034411659124546,0.9992886881045655,0.00021687914184009984,-0.0008068593927666553,0.037701721016618235,0.00037261027376528144,-0.0016289250823292704,0.07542103965240136
224.12,140,224,120000000,,11.050066082793045,0.9992698788620843,0.0002164096120048194,-0.0008165956408714771,0.038196800093655156,0.00037012104402329445,-0.0016485319103328201,0.07641191091571331
224.13,141,224,130000000,,11.065839419841128,0.9992507276075884,0.0002158570745651386,-0.0008264635215498537,0.038694363148602015,0.00036743223802160324,-0.0016683942285691893,0.07740777282335495
224.14,142,224,140000000,,11.081731703122648,0.9992312311979858,0.00021528538690063518,-0.0008364544448628005,0.039194394940109546,0.00036467164062816104,-0.0016884995728478722,0.07840859530579665
224.15,143,224,150000000,,11.09774304028113,0.9992113865583276,0.0002147213254146808,-0.0008465047250049199,0.039696880188336246,0.00036189732950901103,-0.0017087226849606934,0.07941434829350864
224.16,144,224,160000000,,11.113873448996742,0.9991911906529879,0.00021413771750629669,-0.0008565376212567045,0.04020180356408824,0.00035906087180132115,-0.0017289079974744388,0.08042500171696132
224.17,145,224,170000000,,11.130122854318618,0.9991706404544551,0.00021348340516148955,-0.0008664918394084891,0.040709149715536665,0.00035606496136847307,-0.0017489287596553784,0.08144052550662495
224.18,146,224,180000000,,11.146491171492931,0.999149732870686,0.0002127107657144854,-0.0008763956932312584,0.04121890329880237,0.00035281223007936093,-0.0017688373769126227,0.08246088959296988
224.19,147,224,190000000,,11.162978321237267,0.9991284647540527,0.0002118073889462184,-0.0008863436041481797,0.041731049002572254,0.00034927005183949157,-0.001788821091970987,0.08348606390646635
224.2,148,224,200000000,,11.179584255712548,0.9991068329833059,0.00021081564303345536,-0.0008963965007171837,0.04224557155663392,0.000345517706108341,-0.0018090047791844614,0.0845160183775848
224.21,149,224,210000000,,11.196309018398157,0.9990848344881448,0.00020978861408088744,-0.0009065691206120724,0.04276245569379183,0.0003416595802234351,-0.0018294220927139002,0.08555072293679541
224.22,150,224,220000000,,11.213152660514604,0.9990624662914855,0.00020876432294562704,-0.0009167940157988826,0.043281686124323634,0.00033777700145363283,-0.001849941379980335,0.08659014751456863
224.23,151,224,230000000,,11.230115055074233,0.9990397254794726,0.000207744045793838,-0.0009269643945715397,0.04380324752027663,0.00033388159752051317,-0.0018703493267594057,0.08763426204137467
224.24,152,224,240000000,,11.247195943122538,0.9990166091085575,0.00020667547137968588,-0.0009370397100426477,0.04432712450713351,0.0003298725009174161,-0.0018905602523708138,0.0886830364476839
224.25,153,224,250000000,,11.264395132992592,0.9989931141816454,0.000205499705322204,-0.0009470552542783326,0.04485330170538725,0.0003256290711786158,-0.0019106391985915143,0.08973644066396662
224.26,154,224,260000000,,11.281712509349392,0.9989692376677854,0.00020419789285651833,-0.0009570860480375124,0.045381763770932934,0.0003211069248580486,-0.0019307339601967156,0.09079444462069314
224.27,155,224,270000000,,11.299148035748765,0.9989449765341498,0.00020278866779970044,-0.0009672129450826904,0.045912495391365646,0.0003163357295564748,-0.0019510073307382994,0.09185701824833382
224.28,156,224,280000000,,11.316701761088895,0.9989203278250061,0.00020133202789689717,-0.0009774412973268354,0.04644548128620456,0.0003114344579127603,-0.0019714751652720546,0.09292413147735885
224.29,157,224,290000000,,11.334373613406463,0.9988952886704825,0.00019987778152005527,-0.0009877092142557145,0.046980706160014984,0.0003065080087395146,-0.0019920182774691843,0.0939957542382387
224.3,158,224,300000000,,11.35216326545791,0.9988698562722718,0.00019844301107208988,-0.0009979111092648467,0.0475181546821904,0.0003016003102896338,-0.0020124273023016284,0.09507185646144359
224.31,159,224,310000000,,11.370070310113494,0.9988440278141711,0.0001969863492604884,-0.0010079947981971604,0.04805781146523589,0.00029663384621235906,-0.002032594033751194,0.09615240807744385
224.32,160,224,320000000,,11.388094480082042,0.9988178004093076,0.00019543201966082009,-0.0010180049316265794,0.048599661087267994,0.0002914531887864816,-0.0020526001943928624,0.09723737901670985
224.33,161,224,330000000,,11.406235644524562,0.9987911711399247,0.00019374057748305516,-0.0010280231975631669,0.04914368815861754,0.00028597167180194387,-0.0020726047238309436,0.09832673920971186
224.34,162,224,340000000,,11.424493788309922,0.9987641371069856,0.0001919326101795209,-0.0010381137764423865,0.04968987734537771,0.00028022394042789665,-0.0020927373635523773,0.0994204585869202
224.35,163,224,350000000,,11.442868928814008,0.9987366954760624,0.0001900716948578135,-0.001048284953161099,0.050238213353607584,0.00027433584246296626,-0.002113020597180733,0.10051850707880516
224.36,164,224,360000000,,11.461360838360653,0.9987088435140824,0.0001882362752804577,-0.0010584640112564173,0.050788680902400116,0.000268471097893069,-0.002133316899540373,0.10162085461583713
224.37,165,224,370000000,,11.479968955524937,0.9986805785410275,0.00018644247437932493,-0.0010685638799487682,0.0513412646454737,0.00026267072652365754,-0.002153454036898516,0.10272747112848633
224.38,166,224,380000000,,11.49869273664173,0.9986518978684112,0.00018463239148019768,-0.0010785433777401876,0.05189594915677657,0.00025682352109634976,-0.0021733438395659947,0.10383832654722315
224.39,167,224,390000000,,11.5175318859679,0.9986227987552624,0.00018272580881564877,-0.0010884341218286154,0.05245271898241449,0.00025076626461146905,-0.0021930409468822695,0.10495339080251785
224.4,168,224,400000000,,11.536486289706563,0.9985932784244995,0.0001806811964923901,-0.0010983093430303945,0.053011558704703476,0.0002444084770249774,-0.002212686844417125,0.10607263382484078
224.41,169,224,410000000,,11.555556776468647,0.998563334112394,0.00017850553595876917,-0.0011082358160168387,0.0535724529538216,0.00023775693875008577,-0.0022324151159756594,0.10719602554466229
224.42,170,224,420000000,,11.574743703316091,0.9985329631205486,0.00017627845123097544,-0.0011182230808433813,0.05413538643758421,0.00023096939914017675,-0.0022522529209901103,0.10832353589245261
224.43,171,224,430000000,,11.594046475366717,0.9985021628508909,0.00017409813393621273,-0.0011282068584934331,0.05470034388573203,0.00022424870100487012,-0.002272082387173572,0.10945513479868216
224.44,172,224,440000000,,11.6134633695847,0.9984709307748615,0.0001719703254174801,-0.0011381025331495085,0.055267309925605024,0.00021761558409847125,-0.0022917352717788026,0.11059079219382113
224.45,173,224,450000000,,11.632993249887813,0.9984392643607456,0.00016982252637098069,-0.001147866210675177,0.05583626909317068,0.00021093038823957134,-0.0023111159598800503,0.11173047800833993
224.46,174,224,460000000,,11.652635874957145,0.9984071610197037,0.00016756878427518534,-0.0011575264892176023,0.05640720590229902,0.00020401863368074398,-0.00233027175460453,0.11287416217270889
224.47,175,224,470000000,,11.672391190784287,0.9983746181237694,0.00016516157194644302,-0.0011671559613148134,0.056980104903685436,0.00019677744872920072,-0.002349341782889824,0.11402181461739821
224.48,176,224,480000000,,11.692259207634331,0.9983416330600028,0.00016260909019482744,-0.0011768204600879325,0.05755495070778341,0.00018921569400676128,-0.002368457850573469,0.11517340527287835
224.49,177,224,490000000,,11.712239676172537,0.998308203286008,0.00016000992426449889,-0.0011865263584386338,0.05813172803114758,0.00018152930329141763,-0.002387643569483719,0.11632890406961954
224.5,178,224,500000000,,11.732331875259753,0.9982743263619311,0.00015748092576083956,-0.001196210666670012,0.0587104216168769,0.0001739587697077427,-0.002406786661610231,0.1174882809380921
224.51,179,224,510000000,,11.75253493989177,0.9982399999258535,0.00015502775385203328,-0.0012057888544865737,0.05929101607887753,0.00016652540796594943,-0.0024257192169864256,0.11865150580876632
224.52,180,224,520000000,,11.77284833093523,0.9982052216112551,0.0001525584871285299,-0.0012152207645581383,0.05987349590951153,0.00015905080177632937,-0.002444350279197766,0.1198185486121126
224.53,181,224,530000000,,11.7932718255391,0.9981699889979246,0.00014996465929026202,-0.001224533940442201,0.060457845571215536,0.00015131553633313904,-0.0024627216295420406,0.12098937927860119
224.54,182,224,540000000,,11.813805369715604,0.9981342996255115,0.0001471981541934985,-0.0012337963252750106,0.061044049590611944,0.00014321564620262974,-0.002480962549992006,0.12216396773870243
224.55,183,224,550000000,,11.834448847729702,0.9980981510386225,0.0001443007655980674,-0.0012430737264386158,0.06163209260022527,0.00013482660611502866,-0.002499208893915823,0.12334228392288663
224.56,184,224,560000000,,11.855201703568905,0.9980615408551723,0.00014138063505646329,-0.0012523801280249407,0.06222195931767369,0.00012636245895754857,-0.002517501500113304,0.12452429776162412
224.57,185,224,570000000,,11.876062968026595,0.9980244668105832,0.0001385538472680503,-0.0012616551832170544,0.06281363447916055,0.00011806234389530611,-0.002535734341933367,0.1257099791853852
224.58,186,224,580000000,,11.897031766088336,0.9979869267329233,0.0001358123811560784,-0.0012708092420971894,0.06340710267030156,0.00010992165623801862,-0.0025537277348595816,0.12689929812464013
224.59,187,224,590000000,,11.918107630561641,0.9979489184357683,0.0001330470417778497,-0.001279803931840144,0.06400234834176868,0.0001017277252668278,-0.002571391379102191,0.12809222450985935
224.6,188,224,600000000,,11.939290379021708,0.9979104396852485,0.00013013204548939896,-0.001288661614838147,0.06459935591077565,9.3227145374446e-05,-0.0025887535414647342,0.12928872827151308
224.61,189,224,610000000,,11.96057990982896,0.9978714882009578,0.00012702261288557683,-0.001297446734470397,0.06519810988696291,8.432262439086064e-05,-0.002605936425564281,0.13048877934007166
224.62,190,224,620000000,,11.981975859240407,0.9978320616868541,0.00012379426716624793,-0.001306235060937246,0.06579859492958184,7.515517297720876e-05,-0.002623100433592621,0.1316923476460054
224.63,191,224,630000000,,12.003477343868944,0.9977921579318281,0.00012059357247378978,-0.0013150454098419225,0.06640079579723729,6.601474852530579e-05,-0.0026403020805653584,0.13289940311978463
224.64,192,224,640000000,,12.025083268914825,0.9977517748890541,0.00011749381082459523,-0.0013238045015491098,0.06700469716809745,5.705727859973335e-05,-0.0026574049841568783,0.13410991569187963
224.65,193,224,650000000,,12.04679287197452,0.9977109105849616,0.00011445799882484622,-0.0013324238953691695,0.067610283579173,4.822104608026458e-05,-0.0026742279788384326,0.13532385529276084
224.66,194,224,660000000,,12.068605784851584,0.9976695630309829,0.000111371017032448,-0.001340861194385163,0.06821753945519944,3.9282587137616955e-05,-0.0026906709638838924,0.1365411918528984
224.67,195,224,670000000,,12.09052182751456,0.9976277301888797,0.00010811366464365706,-0.001349133050081281,0.06882644920110531,3.0002414958562207e-05,-0.0027067505494119738,0.1377618953027627
224.68,196,224,680000000,,12.11254072443237,0.9975854099311123,0.00010467894857616814,-0.0013573257669707846,0.06943699735482887,2.0355207716878102e-05,-0.0027226373107634917,0.13898593557282407
224.69,197,224,690000000,,12.134661764488119,0.9975426001393101,0.00010116071838760755,-0.0013655233729625643,0.07004916858700988,1.0516737615368645e-05,-0.002738511343349887,0.1402132825935529
224.7,198,224,700000000,,12.156883814700926,0.9974992988080681,9.770111500452293e-05,-0.0013737400939154109,0.07066294764626524,7.68541663112884e-07,-0.0027544207412867226,0.14144390629541934
224.71,199,224,710000000,,12.179205845546583,0.9974555041205153,9.435098844165324e-05,-0.0013818873320634417,0.07127831917898526,-8.77542083907511e-06,-0.0027701961536935756,0.1426777766088938
224.72,200,224,720000000,,12.201627265448924,0.9974112143280891,9.104109418604805e-05,-0.0013898671394749953,0.07189526767055289,-1.823899419236609e-05,-0.0027856325929815078,0.14391486346444665
224.73,201,224,730000000,,12.224147772711895,0.9973664276619046,8.763870895595315e-05,-0.0013976279751774679,0.07251377750766072,-2.787886524456977e-05,-0.002800608130340385,0.14515513679254813
224.74,202,224,740000000,,12.24676707506158,0.9973211422535437,8.405973460289799e-05,-0.0014052049629739783,0.0731338331216125,-3.7867099526082974e-05,-0.002815180177247188,0.1463985665236685
224.75,203,224,750000000,,12.269484585036455,0.9972753561269241,8.033300595162684e-05,-0.0014127155281863405,0.07375541907793168,-4.816279022788471e-05,-0.0028295865278698097,0.14764512258827817
224.76,204,224,760000000,,12.292299248089371,0.997229067364192,7.656702037767699e-05,-0.0014202448598368178,0.07437852005769674,-5.856194181400319e-05,-0.00284401263125035,0.1488947749168474
224.77,205,224,770000000,,12.31520987888805,0.9971822742379975,7.286874281956192e-05,-0.0014277642986023468,0.07500312076699782,-6.884700017148927e-05,-0.0028584171594190425,0.15014749343984657
224.78,206,224,780000000,,12.338215659177276,0.9971349751740308,6.925789824197289e-05,-0.0014351712965798853,0.07562920580951342,-7.896311131033497e-05,-0.002872598780746331,0.15140324808774597
224.79,207,224,790000000,,12.361316148932312,0.9970871686569601,6.56511809416756e-05,-0.0014423584514026825,0.07625675964573148,-8.905963434616487e-05,-0.002886330909269768,0.15266200879101588
224.8,208,224,800000000,,12.384510981771838,0.9970388530923954,6.19384277239593e-05,-0.001449300023475249,0.07688576667546468,-9.935146681991284e-05,-0.0028995452963094426,0.15392374548012666
224.81,209,224,810000000,,12.407799598778698,0.9969900267564781,5.806589793734268e-05,-0.0014560751419058929,0.07751621134736625,-0.00010995708114926509,-0.0029123910033682712,0.15518842808554856
224.82,210,224,820000000,,12.431181038835794,0.9969406878793142,5.4072446714385596e-05,-0.001462804255374312,0.07814807822717376,-0.00012081715548140929,-0.0029251136481144384,0.15645602653775204
224.83,211,224,830000000,,12.454654065097026,0.9968908347693912,5.007359888719101e-05,-0.0014695653775382072,0.07878135200047078,-0.000131713439803392,-0.0029378864697987284,0.1577265107672072
224.84,212,224,840000000,,12.478217671417518,0.996840465976238,4.61542469525737e-05,-0.0014762961379846686,0.0794160173502497,-0.00014246689798076513,-0.0029505985145007797,0.1589998507043846
224.85,213,224,850000000,,12.501871285111763,0.9967895801972906,4.2305938230059625e-05,-0.0014828670368000273,0.08005205884715297,-0.00015307355430605322,-0.0029629905126156604,0.16027601627975432
224.86,214,224,860000000,,12.52561447025384,0.9967381761618928,3.8434367434013274e-05,-0.0014891602514758929,0.0806894609351699,-0.00016370179835009787,-0.0029748126305208424,0.16155497742378683
224.87,215,224,870000000,,12.549446621019456,0.9966862524285698,3.4448772803807024e-05,-0.0014951968558699561,0.08132820801872878,-0.0001745349043403303,-0.00298609205346313,0.16283670406695233
224.88,216,224,880000000,,12.57336681510378,0.9966338074187601,3.0319611205973832e-05,-0.0015011056307949792,0.08196828455318705,-0.00018565184274118814,-0.002997080220223385,0.16412116613972136
224.89,217,224,890000000,,12.597373824377046,0.9965808395864083,2.6101290449917833e-05,-0.0015070053490475266,0.08260967511647985,-0.00019696324501955673,-0.00300802228647322,0.16540833357256396
224.9,218,224,900000000,,12.621466504151787,0.9965273475679173,2.1896271443531615e-05,-0.0015129087586331204,0.0832523643922068,-0.00020826694651526572,-0.0030189603233037048,0.16669817629595057
224.91,219,224,910000000,,12.645644158363794,0.9964733301926063,1.776775218000598e-05,-0.0015187263879950406,0.08389633704353454,-0.00021942198830244146,-0.003029726616741946,0.16799066424035153
224.92,220,224,920000000,,12.669906308153262,0.9964187864309553,1.369096813796716e-05,-0.0015243070902290282,0.08454157762849122,-0.00023045184360441,-0.0030400160365621136,0.16928576733623718
224.93,221,224,930000000,,12.694253292779507,0.996363715153516,9.582442995795433e-06,-0.0015295959476570823,0.08518807058442375,-0.00024151258356742506,-0.0030497051492406847,0.17058345551407772
224.94,222,224,940000000,,12.718683668504177,0.9963081150952969,5.360409531080342e-06,-0.0015346504730690193,0.0858358003076111,-0.0002527758493464937,-0.003058894440650785,0.1718836987043435
224.95,223,224,950000000,,12.743196533102081,0.9962519848908132,1.0021752720294492e-06,-0.0015396109256293573,0.08648475124730735,-0.00026431014452160407,-0.00306785903931664,0.17318646683750488
224.96,224,224,960000000,,12.767791206300506,0.9961953232546283,-3.4256257243824256e-06,-0.00154457823222648,0.08713490799878283,-0.00027599985889180867,-0.0030768110940982483,0.17449172984403227
224.97,225,224,970000000,,12.79246570628621,0.996138129141587,-7.823519210597648e-06,-0.0015495148179159486,0.08778625526197531,-0.0002876401916034906,-0.0030856928854184197,0.17579945765439575
224.98,226,224,980000000,,12.817218866802163,0.9960804017000988,-1.2138448502830548e-05,-0.0015542839681723583,0.08843877771076737,-0.0002991011263476763,-0.003094241517194661,0.17710962019906584
224.99,227,224,990000000,,12.842050045591643,0.9960221400901034,-1.6404813880524364e-05,-0.0015587731247935811,0.08909245988049987,-0.0003104304785720363,-0.00310222697277125,0.17842218740851268
225.0,228,225,0,,12.866958230572548,0.995963343379593,-2.0712479683277136e-05,-0.0015629578848164881,0.08974728618619317,-0.0003218017595879337,-0.0031095847547246624,0.17973712921320675
225.01,229,225,10000000,,12.891942190906873,0.9959040104607845,-2.5142376951822483e-05,-0.0015669503973662778,0.09040324099521474,-0.0003333952021408346,-0.003116523510118481,0.18105441554361829
225.02,230,225,20000000,,12.915474619494557,0.9958441413042687,-3.004493723160256e-05,-0.00157020143595484,0.09106030855820828,-0.00034580789599044504,-0.0031218850698825963,0.1823740163302176
225.03,231,225,30000000,,12.940591597494326,0.995783732732188,-3.4652789501851434e-05,-0.0015741550887374406,0.09171847393459534,-0.0003577733318033805,-0.0031286845626560737,0.18369590150347512
225.04,232,225,40000000,,12.96734046499667,0.9957227840807328,-3.88650146765567e-05,-0.0015786881898561945,0.09237772185773134,-0.0003690706222342586,-0.003136696219751347,0.18502004099386093
225.05,233,225,50000000,,12.992621641464659,0.9956612969236137,-4.33176623570033e-05,-0.0015823018597379273,0.09303803659145016,-0.0003806898457029557,-0.003142818236832363,0.18634640473184558
225.06,234,225,60000000,,13.017973885715168,0.9955992695296805,-4.772426457815503e-05,-0.001585604678954009,0.09369940283781594,-0.00039217086264350026,-0.003148315451032138,0.18767496264789923
225.07,235,225,70000000,,13.043395840259082,0.995536701117618,-5.22007723341484e-05,-0.0015886381557417154,0.09436180494108774,-0.0004037511151309938,-0.003153248884924893,0.18900568467249226
225.08,236,225,80000000,,13.06888621627093,0.9954735907878219,-5.68284995771217e-05,-0.001591540412099785,0.09502522724854978,-0.00041561760400941677,-0.0031578778641525485,0.190338540736095
225.09,237,225,90000000,,13.094444052523933,0.995409937720384,-6.158714217422665e-05,-0.001594414802458149,0.0956896542786261,-0.0004277490611285169,-0.003162411444874411,0.19167350076917775
225.1,238,225,100000000,,13.120068860528255,0.9953457413137047,-6.63565631982584e-05,-0.0015972423386478552,0.09635507076635896,-0.0004399024623598295,-0.003166834429829416,0.1930105347022108
225.11,239,225,110000000,,13.145760049240602,0.9952810011627203,-7.1018447825833e-05,-0.0015999029040563127,0.09702146150007711,-0.0004518187465699541,-0.0031709306148649244,0.1943496124656645
225.12,240,225,120000000,,13.17151644684675,0.9952157169168024,-7.555680824089422e-05,-0.0016022719926666398,0.09768881111675785,-0.00046344108993597976,-0.0031744557618026093,0.19569070399000912
225.13,241,225,130000000,,13.197340335345467,0.9951498880849275,-8.009454778943806e-05,-0.0016043462791965999,0.09835710397544296,-0.00047501228379071247,-0.0031773796511855566,0.19703377920571502
225.14,242,225,140000000,,13.223238642396923,0.9950835140729661,-8.476814128716739e-05,-0.001606212128419516,0.09902632436457152,-0.00048681980672978073,-0.003179847222075704,0.19837880804325253
225.15,243,225,150000000,,13.249197556024328,0.9950165943038295,-8.960676101045113e-05,-0.0016079631149847908,0.09969645673371624,-0.0004989394252509346,-0.003182038381614787,0.19972576043309193
225.16,244,225,160000000,,13.27521561126085,0.9949491282959338,-9.452022164616511e-05,-0.0016096506251995785,0.10036748574092072,-0.0005112014102360566,-0.003184072838998798,0.2010746063057036
225.17,245,225,170000000,,13.301292435322958,0.9948811157465491,-9.935830783956676e-05,-0.0016112343661989546,0.10103939619101761,-0.0005232983829005284,-0.0031859004705436724,0.20242531559155771
225.18,246,225,180000000,,13.3256521988071,0.9948125577479547,-0.00010434328335165758,-0.0016118190651449387,0.10171217281502043,-0.000535489998631581,-0.003185695117927329,0.20377785822112468
225.19,247,225,190000000,,13.353619845686545,0.9947434504760262,-0.0001086115137167797,-0.0016136473358792404,0.10238580019155036,-0.000546513135822817,-0.0031880950846080135,0.20513220412487485
225.2,248,225,200000000,,13.379869710347808,0.9946737973258767,-0.00011327607518925412,-0.0016144277181708304,0.10306026249236183,-0.000558115042218491,-0.0031883147755164855,0.20648832323327845
225.21,249,225,210000000,,13.40617309813732,0.99460359674194,-0.00011811278241526956,-0.0016150183202684174,0.10373554411672145,-0.0005700233325776644,-0.0031881064734459947,0.20784618547680586
225.22,250,225,220000000,,13.432529466869646,0.9945328484113448,-0.00012310144868577736,-0.0016155129497040098,0.10441162959536567,-0.0005822165391254046,-0.0031876603436982853,0.20920576078592734
225.23,251,225,230000000,,13.458938431810653,0.9944615521706106,-0.0001280822820331272,-0.001615931576963692,0.10508850372180455,-0.0005943805267127904,-0.003187049093003309,0.2105670190911133
225.24,252,225,240000000,,13.485399951375374,0.9943897080638551,-0.00013288827237550117,-0.0016161874465337911,0.10576615136954647,-0.000606164426813618,-0.0031861355546595476,0.21192993032283397
225.25,253,225,250000000,,13.511911928240854,0.9943173162178759,-0.00013752910154204344,-0.0016161704366906688,0.10644455715604434,-0.0006175633981506186,-0.0031846994370681486,0.21329446441155972
225.26,254,225,260000000,,13.538472214391529,0.9942443766862519,-0.00014218682134414258,-0.0016158449206670688,0.10712370538712074,-0.00062893071231098,-0.003182631666507876,0.21466059128776083
225.27,255,225,270000000,,13.565079751563164,0.9941708894218937,-0.00014701689282223975,-0.0016152630033025592,0.10780358035586853,-0.0006405853828794047,-0.0031800023780304185,0.21602828088190767
225.28,256,225,280000000,,13.591733913256565,0.9940968543464431,-0.0001520254399468588,-0.0016145192783569055,0.10848416656025026,-0.0006525589194313404,-0.0031769977098988485,0.21739750312447043
225.29,257,225,290000000,,13.618434216017189,0.9940222714547908,-0.00015706933041317403,-0.001613685709831082,0.10916544874415844,-0.0006645816705450322,-0.0031737913097620485,0.21876822794591944
225.3,258,225,300000000,,13.645179539579027,0.9939471409151579,-0.00016196721103768042,-0.0016127495788509178,0.10984741176742231,-0.0006762898771836319,-0.003170397619138868,0.22014042527672523
225.31,259,225,310000000,,13.671968193347734,0.9938714630878808,-0.00016667678428575533,-0.0016116017562699883,0.11053004034281283,-0.0006875749146691453,-0.0031666096996054707,0.2215140650473579
225.32,260,225,320000000,,13.698798654960783,0.9937952383615252,-0.0001713367730994491,-0.001610140385930988,0.11121331890383948,-0.0006986890010713942,-0.003162195104937648,0.22288911718828794
225.33,261,225,330000000,,13.725669812091143,0.9937184670148733,-0.0001761264702595173,-0.0016083585641938414,0.11189723176113636,-0.0007099855920377138,-0.0031571003293339515,0.2242655516299854
225.34,262,225,340000000,,13.752580959434516,0.9936411492204378,-0.00018110989816023007,-0.0016063431358723373,0.11258176334034768,-0.0007216100263014205,-0.0031514831524262284,0.22564333830292085
225.35,263,225,350000000,,13.779531535247541,0.9935632851471654,-0.00018619164449494723,-0.0016042106330836927,0.1132668982911109,-0.0007333979833190458,-0.0031455960607213894,0.22702244713756442
225.36,264,225,360000000,,13.818861839696618,0.9934848675708242,-0.0001891311809286445,-0.0016069552683256702,0.11395262099637689,-0.0007420352109934891,-0.0031498727050100145,0.22840284806438663
225.37,265,225,370000000,,13.852180536683887,0.9934059084073883,-0.00019304892855194096,-0.0016070649128398856,0.11463891667217004,-0.0007520200524394938,-0.003148678921909329,0.22978451101385763
225.38,266,225,380000000,,13.88769101494482,0.9933264031074266,-0.0001965517118345265,-0.0016078275300251683,0.11532576966021175,-0.0007613317526253922,-0.003148865323225832,0.23116740591644774
225.39,267,225,390000000,,13.887671905573,0.9932463752711972,-0.0002056438527601294,-0.001594005716720172,0.1160131667829518,-0.0007783651889027285,-0.003118771067317892,0.2325515027026274
225.4,268,225,400000000,,13.914767722299,0.9931657875261157,-0.00021082304718325574,-0.0015905871963886487,0.1167010885709464,-0.0007900148932359156,-0.0031102320273479053,0.2339367713028669
225.41,269,225,410000000,,13.94189809206371,0.9930846565311453,-0.00021591340366969495,-0.0015869960444308536,0.11738952162511884,-0.0008014379296703573,-0.0031013558727434215,0.2353231816476364
225.42,270,225,420000000,,13.969062581145574,0.993002982639468,-0.00022085085823347482,-0.001583420858485707,0.11807845049967486,-0.0008125508597359989,-0.0030925327456067537,0.23671070366740635
225.43,271,225,430000000,,13.996259006552812,0.9929207666303144,-0.0002255930152875084,-0.0015797956488810931,0.11876785991070166,-0.0008232538830873258,-0.003083642301319113,0.238099307292647
225.44,272,225,440000000,,14.023485459428125,0.9928380095076238,-0.00023019042439155355,-0.0015759277294245724,0.11945773453862067,-0.000833601154060606,-0.003074290689451737,0.23948896245382884
225.45,273,225,450000000,,14.050740610708907,0.9927547122316246,-0.0002347960390120908,-0.0015716742032183427,0.1201480588812118,-0.0008438610193878106,-0.003064158160963081,0.2408796390814218
225.46,274,225,460000000,,14.078023468445792,0.992670875557984,-0.00023953110233174363,-0.001567055163639318,0.1208388173639194,-0.000854277369434447,-0.0030532554763465394,0.24227130710589667
225.47,275,225,470000000,,14.10533302128383,0.9925865000972378,-0.00024439303326080554,-0.0015622209836533936,0.12152999449666516,-0.0008648799753632143,-0.003041881440219191,0.24366393645772347
225.48,276,225,480000000,,14.132667638092398,0.9925015864914054,-0.00024923067167564915,-0.0015573380765075702,0.12222157499488771,-0.0008754084304952766,-0.0030304029310182622,0.24505749706737256
225.49,277,225,490000000,,14.16002525907569,0.9924161356752985,-0.00025390357806314313,-0.0015524051463153886,0.12291354369044225,-0.0008855834022234704,-0.0030188520409129916,0.2464519588653142
225.5,278,225,500000000,,14.18740414450159,0.9923301488618286,-0.00025840207618817043,-0.0015472530900215132,0.12360588536191694,-0.0008953436848139843,-0.003006896274585333,0.24784729178201895
225.51,279,225,510000000,,14.214803140738185,0.992243627294718,-0.00026285780687917173,-0.0015417091080112823,0.12429858459298844,-0.0009049066672191057,-0.002994160842217137,0.24924346574795692
225.52,280,225,520000000,,14.242221363525776,0.992156572028728,-0.00026739775322072006,-0.001535755297830565,0.12499162585673594,-0.0009145181692881432,-0.0029805788768576063,0.25064045069359847
225.53,281,225,530000000,,14.269657735215356,0.992068983933486,-0.00027205406023043683,-0.0015295353995829286,0.125684993635797,-0.0009242762824091445,-0.002966427384457449,0.2520382165494138
225.54,282,225,540000000,,14.297110586762427,0.9919808638575119,-0.00027673297014210133,-0.0015232478856684116,0.12637867254899607,-0.0009340439189907401,-0.002952123504128608,0.2534367332458733
225.55,283,225,550000000,,14.324577906792179,0.9918922129316108,-0.0002813012652568652,-0.0015169300888446021,0.1270726474042917,-0.0009435659253676908,-0.0029377751181384588,0.25483597071344766
225.56,284,225,560000000,,14.352058086891903,0.9918030326053038,-0.00028570655197180956,-0.0015104198686967695,0.12776690306377958,-0.0009526968014675268,-0.0029230744925344537,0.2562358988826065
225.57,285,225,570000000,,14.37955014077359,0.9917133244079991,-0.00029002021408723567,-0.001503515310846234,0.12846142425498844,-0.0009615254703579705,-0.0029076036117952177,0.25763648768382064
225.58,286,225,580000000,,14.407053192157733,0.9916230896938666,-0.0002943617197565725,-0.0014961600989145862,0.12915619552358382,-0.0009702726561725974,-0.0028912205482873564,0.25903770704756024
225.59,287,225,590000000,,14.434566058981773,0.9915323295740615,-0.00029879481700424097,-0.00148850454194687,0.12985120132413344,-0.0009791018484775725,-0.002874206977575288,0.2604395269042957
225.6,288,225,600000000,,14.462086980437526,0.9914410451275507,-0.0003032809077026478,-0.001480764496162397,0.13054642619998394,-0.0009879914991837505,-0.0028570008087433468,0.2618419171844971
225.61,289,225,610000000,,14.489613972158239,0.9913492377027656,-0.0003077074448883701,-0.0014730027967298337,0.1312418549283529,-0.0009967345045422348,-0.002839756024391472,0.2632448478186351
225.62,290,225,620000000,,14.517145577220772,0.9912569089774342,-0.0003119858923486369,-0.001465072126157999,0.13193747243664494,-0.0010051163411418395,-0.0028222042206617936,0.2646482887371796
225.63,291,225,630000000,,14.54468095241576,0.9911640607533355,-0.00031613950322606434,-0.0014567503115007691,0.13263326357027688,-0.0010131234794322887,-0.0028038995543616346,0.2660522098706014
225.64,292,225,640000000,,14.572220263110646,0.99107069466734,-0.00032026093269189816,-0.0014479551599962848,0.1333292129669473,-0.0010209160294515538,-0.0027846551751722175,0.2674565811493703
225.65,293,225,650000000,,14.599761647677822,0.9909768120992898,-0.0003244458777992345,-0.0014388244533112074,0.13402530507554802,-0.0010287185690030089,-0.00276471894641952,0.2688613725039571
225.66,294,225,660000000,,14.627302495034746,0.9908824143830823,-0.0003287126792030241,-0.0014295739377942688,0.13472152438524557,-0.001036624076420358,-0.0027445134490273297,0.27026655386483184
225.67,295,225,670000000,,14.654841957826742,0.9907875030655791,-0.00033296995704492293,-0.0014203085842250554,0.1354178556306674,-0.0010444792960807962,-0.0027242712061139357,0.2716720951624649
225.68,296,225,680000000,,14.682378247905941,0.9906920800597088,-0.0003371013937443822,-0.0014108922414909492,0.13611428379380636,-0.0010520165751605037,-0.002703754203576629,0.27307796632732667
225.692,297,225,692000000,,14.707319130188678,0.9905961485086809,-0.0003413266341393158,-0.001400222183230128,0.13681079428807416,-0.0010593687210483833,-0.002680718278389499,0.2744841372898873
225.7,298,225,700000000,,14.758231446175706,0.9904996982769949,-0.00034294725333203473,-0.001397930376305169,0.13750736667912158,-0.0010638337584152036,-0.002674986874622025,0.27589057798061695
225.71,299,225,710000000,,14.764962935909992,0.9904027605484619,-0.0003488574931361345,-0.0013802536991554123,0.13820399811930692,-0.0010725359441437089,-0.0026375902053838553,0.2772972583299866
225.72,300,225,720000000,,14.792469822012219,0.9903053093732042,-0.00035285864672000855,-0.0013696897970095223,0.1389006611498943,-0.0010793811189108529,-0.0026148005373453844,0.2787041482684658
225.73,301,225,730000000,,14.81996576124292,0.9902073556710194,-0.0003569269688881015,-0.0013589665209717196,0.13959734448814215,-0.0010862835169915726,-0.0025916680775483533,0.28011121772652553
225.74,302,225,740000000,,14.84745008140128,0.9901089015635662,-0.00036090284944344085,-0.0013479802184243133,0.1402940331698129,-0.0010928972318936686,-0.002568032216729601,0.28151843663463544
225.75,303,225,750000000,,14.874922166717703,0.9900099492287118,-0.00036467334208247794,-0.0013366066754696348,0.14099071219095383,-0.001098962504462534,-0.002543679448469185,0.28292577492326637
225.76,304,225,760000000,,14.902380875497295,0.9899105007730222,-0.00036828985558424684,-0.0013247849280726876,0.1416873662920629,-0.0011045622930329784,-0.002518475646120294,0.2843332025228884
