Time,header.seq,header.stamp.secs,header.stamp.nsecs,header.frame_id,orientation.x,orientation.y,orientation.z,orientation.w,orientation_covariance_0,orientation_covariance_1,orientation_covariance_2,orientation_covariance_3,orientation_covariance_4,orientation_covariance_5,orientation_covariance_6,orientation_covariance_7,orientation_covariance_8,angular_velocity.x,angular_velocity.y,angular_velocity.z,angular_velocity_covariance_0,angular_velocity_covariance_1,angular_velocity_covariance_2,angular_velocity_covariance_3,angular_velocity_covariance_4,angular_velocity_covariance_5,angular_velocity_covariance_6,angular_velocity_covariance_7,angular_velocity_covariance_8,linear_acceleration.x,linear_acceleration.y,linear_acceleration.z,linear_acceleration_covariance_0,linear_acceleration_covariance_1,linear_acceleration_covariance_2,linear_acceleration_covariance_3,linear_acceleration_covariance_4,linear_acceleration_covariance_5,linear_acceleration_covariance_6,linear_acceleration_covariance_7,linear_acceleration_covariance_8
63.748,0,63,747000000,IMU,-5.471068558411881e-07,-7.040538616915604e-07,5.8262210571460136e-05,0.9999999983023599,0.0,0.0,0.0,0.0,0.0,0.0,0.0,0.0,0.0,-0.06766330692391623,-0.01832527499561266,0.027542295352272206,0.0,0.0,0.0,0.0,0.0,0.0,0.0,0.0,0.0,0.0721951381132726,-0.10685262429836012,9.865321663137772,0.0,0.0,0.0,0.0,0.0,0.0,0.0,0.0,0.0
63.758,1,63,757000000,IMU,-4.042473804777349e-07,2.4625438500347585e-07,6.938683444280023e-05,0.9999999975926216,0.0,0.0,0.0,0.0,0.0,0.0,0.0,0.0,0.0,-0.0033755701312733447,0.007723057205160344,-0.0013999574036821973,0.0,0.0,0.0,0.0,0.0,0.0,0.0,0.0,0.0,-0.1087694485570048,0.07328763329538476,9.785876779722654,0.0,0.0,0.0,0.0,0.0,0.0,0.0,0.0,0.0
63.768,2,63,767000000,IMU,-4.7135643077119596e-11,-3.931547436957903e-12,7.904340912256938e-05,0.9999999968760698,0.0,0.0,0.0,0.0,0.0,0.0,0.0,0.0,0.0,0.056669834330522334,0.10203081270577058,0.025811649664526915,0.0,0.0,0.0,0.0,0.0,0.0,0.0,0.0,0.0,0.027464315147240327,-0.0653397893959093,9.765676846666143,0.0,0.0,0.0,0.0,0.0,0.0,0.0,0.0,0.0
63.778,3,63,777000000,IMU,-3.276569374055347e-07,2.4774495985711146e-11,9.04687108335954e-05,0.9999999959076525,0.0,0.0,0.0,0.0,0.0,0.0,0.0,0.0,0.0,0.0021714644711866115,-0.00911124419523769,-0.0670107800215298,0.0,0.0,0.0,0.0,0.0,0.0,0.0,0.0,0.0,-0.03264142078150848,-0.004144507203635572,9.760518839550162,0.0,0.0,0.0,0.0,0.0,0.0,0.0,0.0,0.0
63.788,4,63,787000000,IMU,2.4180542381436662e-11,-2.2418860872527538e-07,0.00010394448156864423,0.9999999945977474,0.0,0.0,0.0,0.0,0.0,0.0,0.0,0.0,0.0,0.03287961825332262,0.01469432164326509,0.01680572311140143,0.0,0.0,0.0,0.0,0.0,0.0,0.0,0.0,0.0,-0.052094494228015195,-0.05106688925719369,9.808625332098766,0.0,0.0,0.0,0.0,0.0,0.0,0.0,0.0,0.0
63.798,5,63,797000000,IMU,-6.506036792173988e-07,-7.095749452991432e-07,0.00011481987868304875,0.9999999934077345,0.0,0.0,0.0,0.0,0.0,0.0,0.0,0.0,0.0,0.012080637148867906,-0.08623217916879954,-0.01908346253201005,0.0,0.0,0.0,0.0,0.0,0.0,0.0,0.0,0.0,0.0050487500614564305,0.023640447501473205,9.692271397054549,0.0,0.0,0.0,0.0,0.0,0.0,0.0,0.0,0.0
63.808,6,63,807000000,IMU,-3.4159109682601395e-12,1.605334530369167e-11,0.000130443214211951,0.9999999914922839,0.0,0.0,0.0,0.0,0.0,0.0,0.0,0.0,0.0,0.02401487310285165,0.0003435288462501977,0.013901245381522832,0.0,0.0,0.0,0.0,0.0,0.0,0.0,0.0,0.0,-0.05883325750303839,-0.03538058438574279,9.78961318489269,0.0,0.0,0.0,0.0,0.0,0.0,0.0,0.0,0.0
63.818,7,63,817000000,IMU,2.4069554880337025e-08,-6.051004639164686e-07,0.00014964440552582992,0.9999999888030926,0.0,0.0,0.0,0.0,0.0,0.0,0.0,0.0,0.0,0.06189901273819953,-0.06783568266693077,-0.06850028847109012,0.0,0.0,0.0,0.0,0.0,0.0,0.0,0.0,0.0,-0.05865308225477791,-0.013029464976326132,9.808707583310678,0.0,0.0,0.0,0.0,0.0,0.0,0.0,0.0,0.0
63.828,8,63,827000000,IMU,6.624532480411478e-12,-5.729125828163385e-08,0.00017066284610225242,0.9999999854370948,0.0,0.0,0.0,0.0,0.0,0.0,0.0,0.0,0.0,0.021863065208209423,-0.007964522561181507,0.010609922607961734,0.0,0.0,0.0,0.0,0.0,0.0,0.0,0.0,0.0,-0.10856989097034503,0.018714509962326435,9.811926349763452,0.0,0.0,0.0,0.0,0.0,0.0,0.0,0.0,0.0
63.838,9,63,837000000,IMU,3.5465997628709196e-07,-1.1895608221013255e-06,0.0001961525424878615,0.9999999807613196,0.0,0.0,0.0,0.0,0.0,0.0,0.0,0.0,0.0,0.0034187672548584313,0.03241998309038088,-0.054588613049730214,0.0,0.0,0.0,0.0,0.0,0.0,0.0,0.0,0.0,0.008270188360546452,0.07613630357366294,9.818958468011456,0.0,0.0,0.0,0.0,0.0,0.0,0.0,0.0,0.0
63.848,10,63,847000000,IMU,3.2780828296398176e-06,-9.348065297342066e-08,0.0002228908303298341,0.9999999751544613,0.0,0.0,0.0,0.0,0.0,0.0,0.0,0.0,0.0,0.03039142094364576,0.050454489869263965,-0.00492199052021402,0.0,0.0,0.0,0.0,0.0,0.0,0.0,0.0,0.0,0.005187995729179273,0.10078900227774823,9.88110513051391,0.0,0.0,0.0,0.0,0.0,0.0,0.0,0.0,0.0
63.858,11,63,857000000,IMU,3.520534338622168e-06,2.1570622547095702e-06,0.00027101975434574803,0.9999999632656221,0.0,0.0,0.0,0.0,0.0,0.0,0.0,0.0,0.0,0.0053540643124997955,0.015093209936813047,0.06511552024659563,0.0,0.0,0.0,0.0,0.0,0.0,0.0,0.0,0.0,-0.021830553538825688,-0.02428852795378098,9.759280389414537,0.0,0.0,0.0,0.0,0.0,0.0,0.0,0.0,0.0
63.868,12,63,867000000,IMU,7.892911551996763e-07,-4.8027978615147205e-06,0.00032092347247319596,0.9999999484922163,0.0,0.0,0.0,0.0,0.0,0.0,0.0,0.0,0.0,0.033444298708071786,0.010437810445583676,-0.01083510012622774,0.0,0.0,0.0,0.0,0.0,0.0,0.0,0.0,0.0,0.027732540755064483,-0.06273979871187592,9.787970925887164,0.0,0.0,0.0,0.0,0.0,0.0,0.0,0.0,0.0
63.878,13,63,877000000,IMU,-3.5699497503283635e-06,-1.873262841967969e-06,0.00038437452673465507,0.9999999261199821,0.0,0.0,0.0,0.0,0.0,0.0,0.0,0.0,0.0,-0.0057957345959319595,0.037237849416141215,0.02943073331082848,0.0,0.0,0.0,0.0,0.0,0.0,0.0,0.0,0.0,-0.07151496224844113,0.03707390405918067,9.812654147947539,0.0,0.0,0.0,0.0,0.0,0.0,0.0,0.0,0.0
63.888,14,63,887000000,IMU,-1.9025917215731471e-06,1.2076986373110586e-05,0.0004581423351631061,0.9999998949780583,0.0,0.0,0.0,0.0,0.0,0.0,0.0,0.0,0.0,-0.014769751626898722,0.043826613952219685,-0.0686956479773681,0.0,0.0,0.0,0.0,0.0,0.0,0.0,0.0,0.0,-0.18882591752011232,-0.08643951678040745,9.81564651067198,0.0,0.0,0.0,0.0,0.0,0.0,0.0,0.0,0.0
63.898,15,63,897000000,IMU,9.274642444791879e-06,4.866585113985968e-06,0.0005408438879496547,0.9999998536890825,0.0,0.0,0.0,0.0,0.0,0.0,0.0,0.0,0.0,-0.008810855342004657,-0.036870513027245394,0.016989984975845644,0.0,0.0,0.0,0.0,0.0,0.0,0.0,0.0,0.0,-0.055530484580906266,-0.001609919577253316,9.786241804696894,0.0,0.0,0.0,0.0,0.0,0.0,0.0,0.0,0.0
63.908,16,63,907000000,IMU,-8.962953203967579e-06,7.2664425678947424e-06,0.0006260221639027601,0.9999998039815381,0.0,0.0,0.0,0.0,0.0,0.0,0.0,0.0,0.0,-0.014576371057489376,0.01633574946628328,0.05732114240782761,0.0,0.0,0.0,0.0,0.0,0.0,0.0,0.0,0.0,-0.03589671512682032,-0.13948051878342707,9.785204578131298,0.0,0.0,0.0,0.0,0.0,0.0,0.0,0.0,0.0
63.918,17,63,917000000,IMU,1.4826210829848784e-05,7.80499676128165e-06,0.000719076882496767,0.9999997413238179,0.0,0.0,0.0,0.0,0.0,0.0,0.0,0.0,0.0,-0.009484659136202826,0.020883903498994303,0.04435310825529662,0.0,0.0,0.0,0.0,0.0,0.0,0.0,0.0,0.0,-0.06663236371779295,0.18629768776202843,9.826591504552548,0.0,0.0,0.0,0.0,0.0,0.0,0.0,0.0,0.0
63.928,18,63,927000000,IMU,-4.4882303589346465e-06,2.263383260991492e-05,0.0008061006996922426,0.9999996748345609,0.0,0.0,0.0,0.0,0.0,0.0,0.0,0.0,0.0,0.005058815821497347,0.005099096425297387,-0.0660989197492002,0.0,0.0,0.0,0.0,0.0,0.0,0.0,0.0,0.0,0.08838278804631078,-0.19449571429799978,9.691482493278864,0.0,0.0,0.0,0.0,0.0,0.0,0.0,0.0,0.0
63.938,19,63,937000000,IMU,9.224931326370174e-06,-2.747117480023709e-06,0.0009130768618980301,0.9999995830989122,0.0,0.0,0.0,0.0,0.0,0.0,0.0,0.0,0.0,-0.004854314220114463,-0.04006642763113899,0.047008206946441033,0.0,0.0,0.0,0.0,0.0,0.0,0.0,0.0,0.0,0.06116812446078818,0.24911591597994973,9.939633357027978,0.0,0.0,0.0,0.0,0.0,0.0,0.0,0.0,0.0
63.948,20,63,947000000,IMU,9.915187636437779e-06,1.2275074988822842e-05,0.0010003202347701407,0.9999994995550946,0.0,0.0,0.0,0.0,0.0,0.0,0.0,0.0,0.0,-0.0012119233664228037,0.02343848510753196,-0.0066032104393703404,0.0,0.0,0.0,0.0,0.0,0.0,0.0,0.0,0.0,-0.20181407657769695,-0.024317019105296933,9.712451237748644,0.0,0.0,0.0,0.0,0.0,0.0,0.0,0.0,0.0
63.958,21,63,957000000,IMU,1.0455048220723895e-05,-1.7839785618110137e-05,0.0011140551711668846,0.9999993792265621,0.0,0.0,0.0,0.0,0.0,0.0,0.0,0.0,0.0,0.03188738807182333,0.06650410654379835,0.08459812387317431,0.0,0.0,0.0,0.0,0.0,0.0,0.0,0.0,0.0,0.044207585763559765,0.23936543095383195,10.01004682227681,0.0,0.0,0.0,0.0,0.0,0.0,0.0,0.0,0.0
63.968,22,63,967000000,IMU,5.7804511167556794e-05,-3.470615066497917e-06,0.001212345220086264,0.9999992634325591,0.0,0.0,0.0,0.0,0.0,0.0,0.0,0.0,0.0,0.012540952309275644,-0.0035119320353270127,-0.013840854481856978,0.0,0.0,0.0,0.0,0.0,0.0,0.0,0.0,0.0,-0.01191620707029542,0.10981011333346757,9.630673507214318,0.0,0.0,0.0,0.0,0.0,0.0,0.0,0.0,0.0
63.978,23,63,977000000,IMU,2.7622420587663906e-05,1.3706079159704767e-05,0.0013494746906090554,0.9999990889831873,0.0,0.0,0.0,0.0,0.0,0.0,0.0,0.0,0.0,-0.03742168764651177,0.06166733542996057,0.05090103286456757,0.0,0.0,0.0,0.0,0.0,0.0,0.0,0.0,0.0,-0.1957811165284932,-0.08674760777379852,9.723491432280317,0.0,0.0,0.0,0.0,0.0,0.0,0.0,0.0,0.0
63.988,24,63,987000000,IMU,1.3391011583258825e-05,-1.939928903758794e-05,0.0014800178057314236,0.9999989044952217,0.0,0.0,0.0,0.0,0.0,0.0,0.0,0.0,0.0,0.01309946477683191,0.02373044718165703,0.006127366498151808,0.0,0.0,0.0,0.0,0.0,0.0,0.0,0.0,0.0,0.21124718390920766,-0.07229137488564752,9.988656719250708,0.0,0.0,0.0,0.0,0.0,0.0,0.0,0.0,0.0
63.998,25,63,997000000,IMU,7.800079798417662e-05,-1.0087063508075458e-05,0.001579167709229798,0.9999987500209553,0.0,0.0,0.0,0.0,0.0,0.0,0.0,0.0,0.0,0.010761510181482779,0.009980583285826863,0.07134728037848961,0.0,0.0,0.0,0.0,0.0,0.0,0.0,0.0,0.0,-0.15224368715101425,-0.008490419980581657,9.752154073474571,0.0,0.0,0.0,0.0,0.0,0.0,0.0,0.0,0.0
64.008,26,64,7000000,IMU,6.35685464733602e-05,1.1179073980744081e-05,0.001733804889157389,0.9999984948762046,0.0,0.0,0.0,0.0,0.0,0.0,0.0,0.0,0.0,0.012891797219960536,0.015661610983181508,-0.021330590722103644,0.0,0.0,0.0,0.0,0.0,0.0,0.0,0.0,0.0,-0.11722008785933466,-0.006904778867077008,9.705549682850293,0.0,0.0,0.0,0.0,0.0,0.0,0.0,0.0,0.0
64.018,27,64,17000000,IMU,4.613665482492045e-06,-1.8891733741370574e-06,0.0019193072021691775,0.9999981581158084,0.0,0.0,0.0,0.0,0.0,0.0,0.0,0.0,0.0,-0.003403435580110756,0.03504035009031358,0.020081753523542502,0.0,0.0,0.0,0.0,0.0,0.0,0.0,0.0,0.0,-0.10541484179739069,-0.043010373469030846,9.710183060151278,0.0,0.0,0.0,0.0,0.0,0.0,0.0,0.0,0.0
64.028,28,64,27000000,IMU,6.863145930175917e-07,-1.2570342964160212e-06,0.0020730229783082273,0.9999978512845317,0.0,0.0,0.0,0.0,0.0,0.0,0.0,0.0,0.0,-0.033410564368972266,0.022818412591747377,-0.030999268729556495,0.0,0.0,0.0,0.0,0.0,0.0,0.0,0.0,0.0,0.14527742185332518,0.18061007736025184,9.962424010591512,0.0,0.0,0.0,0.0,0.0,0.0,0.0,0.0,0.0
64.038,29,64,37000000,IMU,-3.07404517219085e-06,-2.1615482153537875e-06,0.0022438148979759313,0.9999974826371222,0.0,0.0,0.0,0.0,0.0,0.0,0.0,0.0,0.0,0.013847652048466544,0.07643909891052691,0.08490591974255642,0.0,0.0,0.0,0.0,0.0,0.0,0.0,0.0,0.0,-0.02064667411289369,0.08310295142704437,9.836343302335413,0.0,0.0,0.0,0.0,0.0,0.0,0.0,0.0,0.0
64.048,30,64,47000000,IMU,3.1114791836217097e-06,3.6037654418274424e-06,0.0024194490897284904,0.9999970731174337,0.0,0.0,0.0,0.0,0.0,0.0,0.0,0.0,0.0,-0.018601396376537415,0.08114732366027103,0.03541393752652441,0.0,0.0,0.0,0.0,0.0,0.0,0.0,0.0,0.0,-0.15312348019508765,0.005520932846575725,9.765130637398189,0.0,0.0,0.0,0.0,0.0,0.0,0.0,0.0,0.0
64.058,31,64,57000000,IMU,9.536341089374438e-06,-8.221791282966173e-06,0.0025949795685590153,0.9999966329555812,0.0,0.0,0.0,0.0,0.0,0.0,0.0,0.0,0.0,-0.03544305520710537,-0.01092743501576618,-0.003301887516357266,0.0,0.0,0.0,0.0,0.0,0.0,0.0,0.0,0.0,0.04737482469095171,0.045317576318828816,9.908787097242346,0.0,0.0,0.0,0.0,0.0,0.0,0.0,0.0,0.0
64.067,32,64,67000000,IMU,1.7714238865401268e-06,1.3069677936041319e-05,0.0027806641405182073,0.9999961338590181,0.0,0.0,0.0,0.0,0.0,0.0,0.0,0.0,0.0,0.0028450302738243123,-0.014068954992955221,0.007757259641487935,0.0,0.0,0.0,0.0,0.0,0.0,0.0,0.0,0.0,-0.106614628560675,-0.11795917701200356,9.783186898273135,0.0,0.0,0.0,0.0,0.0,0.0,0.0,0.0,0.0
64.078,33,64,77000000,IMU,-3.2985801546104455e-06,-9.910073554572816e-06,0.002974823740029047,0.9999955751475231,0.0,0.0,0.0,0.0,0.0,0.0,0.0,0.0,0.0,0.08423118519695265,0.0032679176348107005,0.007258732424549073,0.0,0.0,0.0,0.0,0.0,0.0,0.0,0.0,0.0,0.06754306761780078,-0.007203303376739725,9.784421876851681,0.0,0.0,0.0,0.0,0.0,0.0,0.0,0.0,0.0
64.088,34,64,87000000,IMU,5.780015139449881e-07,1.0353893140552138e-05,0.00317917081606503,0.9999949463699229,0.0,0.0,0.0,0.0,0.0,0.0,0.0,0.0,0.0,-0.03054220385858645,0.0053482801361030945,0.02360659552714135,0.0,0.0,0.0,0.0,0.0,0.0,0.0,0.0,0.0,-0.14583263649043182,0.02932015498710551,9.840947390834197,0.0,0.0,0.0,0.0,0.0,0.0,0.0,0.0,0.0
64.098,35,64,97000000,IMU,-9.744559189034234e-06,-1.589927074323865e-05,0.003391613285287408,0.9999942482892489,0.0,0.0,0.0,0.0,0.0,0.0,0.0,0.0,0.0,-0.017190375579041694,0.011001557823167623,-0.00012568288750276768,0.0,0.0,0.0,0.0,0.0,0.0,0.0,0.0,0.0,0.20935166857501664,0.00929587137778162,9.849512586026037,0.0,0.0,0.0,0.0,0.0,0.0,0.0,0.0,0.0
64.108,36,64,107000000,IMU,2.2294990057783617e-05,-2.1977011224244424e-05,0.0035923792086871484,0.9999935468949616,0.0,0.0,0.0,0.0,0.0,0.0,0.0,0.0,0.0,-0.07323472651934768,-0.025643012833456713,0.0575537413805499,0.0,0.0,0.0,0.0,0.0,0.0,0.0,0.0,0.0,-0.08977640489253055,0.023621481738451175,9.762071404383425,0.0,0.0,0.0,0.0,0.0,0.0,0.0,0.0,0.0
64.118,37,64,117000000,IMU,2.0975855459329884e-05,2.326343338948249e-06,0.0038251675375306727,0.9999926837971923,0.0,0.0,0.0,0.0,0.0,0.0,0.0,0.0,0.0,-0.022937150733399636,-0.03565608178684121,0.08284320236565679,0.0,0.0,0.0,0.0,0.0,0.0,0.0,0.0,0.0,-0.051188574037739284,-0.11956209638266815,9.774826635014797,0.0,0.0,0.0,0.0,0.0,0.0,0.0,0.0,0.0
64.128,38,64,127000000,IMU,1.0612637212706106e-05,1.681771179207895e-06,0.0040500824730425235,0.9999917983246188,0.0,0.0,0.0,0.0,0.0,0.0,0.0,0.0,0.0,-0.05759519024186784,-0.038078911380358134,0.02501427227274227,0.0,0.0,0.0,0.0,0.0,0.0,0.0,0.0,0.0,0.1570619241901352,0.05285671012658833,9.859115156821185,0.0,0.0,0.0,0.0,0.0,0.0,0.0,0.0,0.0
64.138,39,64,137000000,IMU,3.454820073900698e-05,6.984438235905402e-08,0.004269498953902509,0.9999908850510087,0.0,0.0,0.0,0.0,0.0,0.0,0.0,0.0,0.0,0.045316466229778515,0.0014645883506328825,0.0137327720318427,0.0,0.0,0.0,0.0,0.0,0.0,0.0,0.0,0.0,-0.08635067431181115,-0.067052927774059,9.694027247055583,0.0,0.0,0.0,0.0,0.0,0.0,0.0,0.0,0.0
64.148,40,64,147000000,IMU,2.5794650267199683e-05,1.0221123748355955e-08,0.004528991968420753,0.9999897437305975,0.0,0.0,0.0,0.0,0.0,0.0,0.0,0.0,0.0,-0.06727516519599983,0.014463601772099868,0.029266031003078743,0.0,0.0,0.0,0.0,0.0,0.0,0.0,0.0,0.0,-0.03229708309898792,0.03296329996688897,9.69663654764202,0.0,0.0,0.0,0.0,0.0,0.0,0.0,0.0,0.0
64.158,41,64,157000000,IMU,-1.52030590119737e-06,-5.5886278524703464e-08,0.00480388099219057,0.9999884612959783,0.0,0.0,0.0,0.0,0.0,0.0,0.0,0.0,0.0,-0.05030108581917985,0.03134129101577039,0.0059012040508376815,0.0,0.0,0.0,0.0,0.0,0.0,0.0,0.0,0.0,-0.15105046069452227,-0.12442218020019916,9.848992246452378,0.0,0.0,0.0,0.0,0.0,0.0,0.0,0.0,0.0
64.168,42,64,167000000,IMU,5.469793622936484e-06,2.7688742341684953e-08,0.00506070328582186,0.9999871945441768,0.0,0.0,0.0,0.0,0.0,0.0,0.0,0.0,0.0,-0.009749763940544174,-0.029373478735086157,-0.015098047045542531,0.0,0.0,0.0,0.0,0.0,0.0,0.0,0.0,0.0,0.0425889478969125,0.03310870800864345,9.780830148374452,0.0,0.0,0.0,0.0,0.0,0.0,0.0,0.0,0.0
64.178,43,64,177000000,IMU,1.5068275219595676e-07,1.8087229591267055e-07,0.005327235176133078,0.999985810181986,0.0,0.0,0.0,0.0,0.0,0.0,0.0,0.0,0.0,-0.0756185117995141,-0.020394921349061693,0.06233251737362622,0.0,0.0,0.0,0.0,0.0,0.0,0.0,0.0,0.0,-0.03327219774620551,0.03002221583213462,9.802359512332284,0.0,0.0,0.0,0.0,0.0,0.0,0.0,0.0,0.0
64.188,44,64,187000000,IMU,8.093238142188603e-08,8.516722725066138e-08,0.0055905385119013615,0.9999843728174622,0.0,0.0,0.0,0.0,0.0,0.0,0.0,0.0,0.0,-0.05678935603465322,0.02415477942233014,0.0058920829331320645,0.0,0.0,0.0,0.0,0.0,0.0,0.0,0.0,0.0,-0.022331402760250522,0.09056145636840573,9.737010385407668,0.0,0.0,0.0,0.0,0.0,0.0,0.0,0.0,0.0
64.198,45,64,197000000,IMU,4.5147967040472435e-13,-2.9377021625715264e-12,0.005866054019570421,0.9999827945571063,0.0,0.0,0.0,0.0,0.0,0.0,0.0,0.0,0.0,-0.04959936597539865,-0.019988983263215954,0.03319799406069699,0.0,0.0,0.0,0.0,0.0,0.0,0.0,0.0,0.0,0.005132682717570161,-0.04398967466915845,9.803763049629909,0.0,0.0,0.0,0.0,0.0,0.0,0.0,0.0,0.0
64.208,46,64,207000000,IMU,1.1497438415000682e-07,1.718809140605405e-07,0.006159744119371113,0.9999810285962135,0.0,0.0,0.0,0.0,0.0,0.0,0.0,0.0,0.0,-0.007542271952631886,-0.0024703856390945805,0.08897538553653245,0.0,0.0,0.0,0.0,0.0,0.0,0.0,0.0,0.0,-0.03791952691348119,-0.03992253085808979,9.854751261660896,0.0,0.0,0.0,0.0,0.0,0.0,0.0,0.0,0.0
64.218,47,64,217000000,IMU,-7.39845831973331e-08,1.0529521741160028e-07,0.006472544866343872,0.999979052862077,0.0,0.0,0.0,0.0,0.0,0.0,0.0,0.0,0.0,0.037829935960588104,0.03487708750843405,0.018282481883796067,0.0,0.0,0.0,0.0,0.0,0.0,0.0,0.0,0.0,-0.05672210809796835,-0.014860929072204128,9.735793474454173,0.0,0.0,0.0,0.0,0.0,0.0,0.0,0.0,0.0
64.228,48,64,227000000,IMU,1.503895722932292e-08,7.543297329283396e-08,0.006797899244344679,0.9999768940159858,0.0,0.0,0.0,0.0,0.0,0.0,0.0,0.0,0.0,0.0024491567843072373,-0.05681683651535637,0.04407933076385363,0.0,0.0,0.0,0.0,0.0,0.0,0.0,0.0,0.0,0.017676231792373875,-0.03529438940615079,9.747886945944247,0.0,0.0,0.0,0.0,0.0,0.0,0.0,0.0,0.0
64.238,49,64,237000000,IMU,1.6171768207060042e-12,-5.5551901186608e-12,0.007124976724967989,0.9999746170311868,0.0,0.0,0.0,0.0,0.0,0.0,0.0,0.0,0.0,-0.006483383685359449,0.0202586860882944,0.07629988386745906,0.0,0.0,0.0,0.0,0.0,0.0,0.0,0.0,0.0,0.09039774566771834,-0.004195483036523385,9.803350245099233,0.0,0.0,0.0,0.0,0.0,0.0,0.0,0.0,0.0
64.248,50,64,247000000,IMU,-1.5307748339263605e-07,-7.701543165640299e-08,0.007448734600818126,0.9999722577915937,0.0,0.0,0.0,0.0,0.0,0.0,0.0,0.0,0.0,0.00020195720086360678,-0.002053599873848358,0.012565874217222592,0.0,0.0,0.0,0.0,0.0,0.0,0.0,0.0,0.0,-0.0387271871627474,0.030392112587612846,9.833192149822466,0.0,0.0,0.0,0.0,0.0,0.0,0.0,0.0,0.0
64.258,51,64,257000000,IMU,1.0036125095032561e-09,-1.29669677168428e-07,0.007772737521354604,0.9999697918194367,0.0,0.0,0.0,0.0,0.0,0.0,0.0,0.0,0.0,-0.051212129517641716,-0.009175250319063305,0.026573038486180298,0.0,0.0,0.0,0.0,0.0,0.0,0.0,0.0,0.0,-0.010768010407343903,-0.05931399926433056,9.770233883919884,0.0,0.0,0.0,0.0,0.0,0.0,0.0,0.0,0.0
64.268,52,64,267000000,IMU,1.450564401181017e-07,-7.681505323275934e-08,0.008105847139151934,0.9999671470814079,0.0,0.0,0.0,0.0,0.0,0.0,0.0,0.0,0.0,-0.01222707190312093,0.01595082280487045,0.07635013329501501,0.0,0.0,0.0,0.0,0.0,0.0,0.0,0.0,0.0,-0.02137798905602758,-0.04843547153849326,9.81306861485085,0.0,0.0,0.0,0.0,0.0,0.0,0.0,0.0,0.0
64.278,53,64,277000000,IMU,1.896552451819866e-06,-4.185662976357105e-09,0.008456591864732304,0.9999642423859147,0.0,0.0,0.0,0.0,0.0,0.0,0.0,0.0,0.0,0.028628821803878355,0.014755314843019583,0.06321460286067332,0.0,0.0,0.0,0.0,0.0,0.0,0.0,0.0,0.0,0.015815020527784104,0.011255725380907796,9.754216247943154,0.0,0.0,0.0,0.0,0.0,0.0,0.0,0.0,0.0
64.288,54,64,287000000,IMU,7.50284265546918e-06,-1.49813934294264e-07,0.008826874827828242,0.9999610423533803,0.0,0.0,0.0,0.0,0.0,0.0,0.0,0.0,0.0,0.05070456468483097,0.03589672952023519,0.10447862194002075,0.0,0.0,0.0,0.0,0.0,0.0,0.0,0.0,0.0,-0.08268810021742673,0.0034426073312364045,9.795638536777533,0.0,0.0,0.0,0.0,0.0,0.0,0.0,0.0,0.0
64.298,55,64,297000000,IMU,1.4166210591215125e-05,-2.882489265091643e-06,0.009210201199008242,0.9999575850929295,0.0,0.0,0.0,0.0,0.0,0.0,0.0,0.0,0.0,0.046180170945724894,-0.008498296261715605,0.09919738395582277,0.0,0.0,0.0,0.0,0.0,0.0,0.0,0.0,0.0,-0.019837684567145193,0.0011316752802934562,9.81128407742791,0.0,0.0,0.0,0.0,0.0,0.0,0.0,0.0,0.0
64.308,56,64,307000000,IMU,1.721120741463151e-05,-9.24604134860026e-06,0.009595420321276521,0.9999539627038552,0.0,0.0,0.0,0.0,0.0,0.0,0.0,0.0,0.0,0.09587593929367058,-0.035420796622112026,0.022522243672202263,0.0,0.0,0.0,0.0,0.0,0.0,0.0,0.0,0.0,0.024298009113041377,-0.016808090159947338,9.890538579602566,0.0,0.0,0.0,0.0,0.0,0.0,0.0,0.0,0.0
64.318,57,64,317000000,IMU,1.623528619025559e-05,-1.4853249483439472e-05,0.009973591868737497,0.9999502622535944,0.0,0.0,0.0,0.0,0.0,0.0,0.0,0.0,0.0,-0.02200767474479077,-0.009293560384643237,0.08373317913820179,0.0,0.0,0.0,0.0,0.0,0.0,0.0,0.0,0.0,0.04515709533558861,-0.09515076883861359,9.833530095081551,0.0,0.0,0.0,0.0,0.0,0.0,0.0,0.0,0.0
64.328,58,64,327000000,IMU,1.4982961530293517e-05,-1.8676936377634118e-05,0.010346764915748248,0.9999464705085274,0.0,0.0,0.0,0.0,0.0,0.0,0.0,0.0,0.0,0.04505699399315044,0.025180777036930342,0.07285983143488327,0.0,0.0,0.0,0.0,0.0,0.0,0.0,0.0,0.0,0.03214285862207694,0.05645726783600323,9.826684891908561,0.0,0.0,0.0,0.0,0.0,0.0,0.0,0.0,0.0
64.338,59,64,337000000,IMU,1.7759168145141762e-05,-2.3073173369636065e-05,0.010724575701181608,0.9999424896604157,0.0,0.0,0.0,0.0,0.0,0.0,0.0,0.0,0.0,0.012018582028142807,-0.039749345318733885,0.03382976393876289,0.0,0.0,0.0,0.0,0.0,0.0,0.0,0.0,0.0,-0.009532586339181822,-0.05813944088654685,9.787328112451153,0.0,0.0,0.0,0.0,0.0,0.0,0.0,0.0,0.0
64.347,60,64,347000000,IMU,2.5010585770227255e-05,-3.0246794581681035e-05,0.011115935089212508,0.9999382153146736,0.0,0.0,0.0,0.0,0.0,0.0,0.0,0.0,0.0,-0.07618630555029948,-0.020405853315088682,0.060687731499605845,0.0,0.0,0.0,0.0,0.0,0.0,0.0,0.0,0.0,0.011427419971561084,-0.04215766393386551,9.860859045396746,0.0,0.0,0.0,0.0,0.0,0.0,0.0,0.0,0.0
64.358,61,64,357000000,IMU,3.3770378198132605e-05,-4.0045276669759355e-05,0.011522856901288464,0.9999336083084567,0.0,0.0,0.0,0.0,0.0,0.0,0.0,0.0,0.0,0.0163585954523779,0.06120395328814968,0.07601886430147234,0.0,0.0,0.0,0.0,0.0,0.0,0.0,0.0,0.0,0.027759804643125236,0.02526974787899007,9.805226602622655,0.0,0.0,0.0,0.0,0.0,0.0,0.0,0.0,0.0
64.368,62,64,367000000,IMU,3.9972130618969684e-05,-4.98015672881758e-05,0.011937656774609867,0.9999287415975023,0.0,0.0,0.0,0.0,0.0,0.0,0.0,0.0,0.0,0.036405981284278306,-0.02414583651074974,0.06780372113963717,0.0,0.0,0.0,0.0,0.0,0.0,0.0,0.0,0.0,-0.07584260561912068,-0.016988492170458256,9.869928683102424,0.0,0.0,0.0,0.0,0.0,0.0,0.0,0.0,0.0
64.378,63,64,377000000,IMU,4.2058167184386204e-05,-5.66496847576116e-05,0.012348646213950645,0.9999237500722774,0.0,0.0,0.0,0.0,0.0,0.0,0.0,0.0,0.0,-0.07870467862150549,-0.05412663823486189,0.09366137701486592,0.0,0.0,0.0,0.0,0.0,0.0,0.0,0.0,0.0,0.014492674686424963,0.02411985756957974,9.86548120339023,0.0,0.0,0.0,0.0,0.0,0.0,0.0,0.0,0.0
64.388,64,64,387000000,IMU,4.126754107520172e-05,-6.091414342420679e-05,0.012750117850430866,0.9999187112366972,0.0,0.0,0.0,0.0,0.0,0.0,0.0,0.0,0.0,-0.055998537548139236,-0.08858527398028757,0.07547208137763953,0.0,0.0,0.0,0.0,0.0,0.0,0.0,0.0,0.0,-0.048683719400928215,-0.01697363828098726,9.826461154595766,0.0,0.0,0.0,0.0,0.0,0.0,0.0,0.0,0.0
64.398,65,64,397000000,IMU,4.0785799831866615e-05,-6.419682969748925e-05,0.013145072541956947,0.9999135969088291,0.0,0.0,0.0,0.0,0.0,0.0,0.0,0.0,0.0,0.04531217605944961,-0.04913389459902102,-0.016097625348199307,0.0,0.0,0.0,0.0,0.0,0.0,0.0,0.0,0.0,0.04183360631056779,-0.032763403114818714,9.832563921065308,0.0,0.0,0.0,0.0,0.0,0.0,0.0,0.0,0.0
64.408,66,64,407000000,IMU,4.3434206943597795e-05,-6.929823278525116e-05,0.01354358821702096,0.999908278058259,0.0,0.0,0.0,0.0,0.0,0.0,0.0,0.0,0.0,0.016963318461573156,-0.0010855495381201132,0.06805712808390867,0.0,0.0,0.0,0.0,0.0,0.0,0.0,0.0,0.0,0.10536956921143574,-0.13472707964973527,9.80228499524223,0.0,0.0,0.0,0.0,0.0,0.0,0.0,0.0,0.0
64.418,67,64,417000000,IMU,4.913687471700709e-05,-7.79132334162149e-05,0.013953697775912391,0.9999026381770748,0.0,0.0,0.0,0.0,0.0,0.0,0.0,0.0,0.0,-0.03773463463569556,-0.020868067235878564,0.09711550120671655,0.0,0.0,0.0,0.0,0.0,0.0,0.0,0.0,0.0,0.06435029488584681,0.00016875818877945536,9.887972455290106,0.0,0.0,0.0,0.0,0.0,0.0,0.0,0.0,0.0
64.428,68,64,427000000,IMU,5.5348741985497064e-05,-8.90744826783485e-05,0.014377108106951125,0.9998966385405715,0.0,0.0,0.0,0.0,0.0,0.0,0.0,0.0,0.0,0.04517333222410006,-0.031205545241952418,0.1079081171209907,0.0,0.0,0.0,0.0,0.0,0.0,0.0,0.0,0.0,-0.014051845686771841,0.010212347601740675,9.86272566282896,0.0,0.0,0.0,0.0,0.0,0.0,0.0,0.0,0.0
64.437,69,64,437000000,IMU,5.9466274942949555e-05,-9.97745818409453e-05,0.014808011819521238,0.9998903486356632,0.0,0.0,0.0,0.0,0.0,0.0,0.0,0.0,0.0,0.016917134194467907,-0.017849078958866955,0.1221893015851884,0.0,0.0,0.0,0.0,0.0,0.0,0.0,0.0,0.0,0.02789527503063691,-0.09973019534327428,9.956715024871789,0.0,0.0,0.0,0.0,0.0,0.0,0.0,0.0,0.0
64.448,70,64,447000000,IMU,6.0681624758564175e-05,-0.00010706812513571268,0.015236188997868943,0.9998839149616212,0.0,0.0,0.0,0.0,0.0,0.0,0.0,0.0,0.0,0.0006053431198174448,0.044835851016369964,0.04884193554715264,0.0,0.0,0.0,0.0,0.0,0.0,0.0,0.0,0.0,-0.016405468970326034,0.07654552218588118,9.945147405146242,0.0,0.0,0.0,0.0,0.0,0.0,0.0,0.0,0.0
64.458,71,64,457000000,IMU,6.051565030705878e-05,-0.00011101517233716545,0.0156562142363119,0.9998774259724411,0.0,0.0,0.0,0.0,0.0,0.0,0.0,0.0,0.0,0.008170316056397207,-0.001730073874745234,0.03946718925304062,0.0,0.0,0.0,0.0,0.0,0.0,0.0,0.0,0.0,-0.025052134198038638,-0.03210602665321786,9.88159924981953,0.0,0.0,0.0,0.0,0.0,0.0,0.0,0.0,0.0
64.468,72,64,467000000,IMU,6.108259168723328e-05,-0.00011414810601279241,0.016071014649122577,0.9998708445230687,0.0,0.0,0.0,0.0,0.0,0.0,0.0,0.0,0.0,-0.03356732682559556,-0.03031990498023358,0.06494286934920611,0.0,0.0,0.0,0.0,0.0,0.0,0.0,0.0,0.0,0.06486597569111288,-0.017177629569579713,9.947208017204542,0.0,0.0,0.0,0.0,0.0,0.0,0.0,0.0,0.0
64.478,73,64,477000000,IMU,6.376452804901205e-05,-0.00011989157846022766,0.0164892719618795,0.9998640334916851,0.0,0.0,0.0,0.0,0.0,0.0,0.0,0.0,0.0,-0.01692916685300261,-0.02407536877018347,0.11583667737070674,0.0,0.0,0.0,0.0,0.0,0.0,0.0,0.0,0.0,-0.0031287852547183135,-0.09155826807057044,9.852849001786538,0.0,0.0,0.0,0.0,0.0,0.0,0.0,0.0,0.0
64.487,74,64,487000000,IMU,6.800880510893364e-05,-0.00012966919395181794,0.01691758410312083,0.9998568767122704,0.0,0.0,0.0,0.0,0.0,0.0,0.0,0.0,0.0,-0.0656190526077655,-0.030198801542232243,0.12770105889032282,0.0,0.0,0.0,0.0,0.0,0.0,0.0,0.0,0.0,0.003163636485058007,-0.002778537283495034,9.914327248515756,0.0,0.0,0.0,0.0,0.0,0.0,0.0,0.0,0.0
64.498,75,64,497000000,IMU,7.193829757703841e-05,-0.00014187796620641004,0.017356784357236987,0.9998493470179899,0.0,0.0,0.0,0.0,0.0,0.0,0.0,0.0,0.0,-0.0106038972047774,0.06164274412036169,0.08293076996416432,0.0,0.0,0.0,0.0,0.0,0.0,0.0,0.0,0.0,0.0464580172534211,-0.06567170954951047,9.882163373263937,0.0,0.0,0.0,0.0,0.0,0.0,0.0,0.0,0.0
64.508,76,64,507000000,IMU,7.419743593932616e-05,-0.000153012890954535,0.017801518626357073,0.9998415259511836,0.0,0.0,0.0,0.0,0.0,0.0,0.0,0.0,0.0,0.005841708820947735,-0.00884047583060843,0.024437238199480585,0.0,0.0,0.0,0.0,0.0,0.0,0.0,0.0,0.0,0.009332594885490913,0.023739482830863884,9.909477459735962,0.0,0.0,0.0,0.0,0.0,0.0,0.0,0.0,0.0
64.518,77,64,517000000,IMU,7.498463273364818e-05,-0.00016042051807925586,0.01824453429672921,0.9998335389507885,0.0,0.0,0.0,0.0,0.0,0.0,0.0,0.0,0.0,-0.04108838390865229,0.061053002998958696,0.07761403195861927,0.0,0.0,0.0,0.0,0.0,0.0,0.0,0.0,0.0,0.002729977201944454,0.09727991046666895,9.829130422447449,0.0,0.0,0.0,0.0,0.0,0.0,0.0,0.0,0.0
64.528,78,64,527000000,IMU,7.555950850889107e-05,-0.00016448108614895693,0.018682285104498136,0.9998254544969373,0.0,0.0,0.0,0.0,0.0,0.0,0.0,0.0,0.0,0.0332264842406381,-0.02541249307243207,0.0826290310992919,0.0,0.0,0.0,0.0,0.0,0.0,0.0,0.0,0.0,0.03621440268994272,-0.04977805846511529,9.892153847419355,0.0,0.0,0.0,0.0,0.0,0.0,0.0,0.0,0.0
64.538,79,64,537000000,IMU,7.710468349222336e-05,-0.0001682246093292996,0.019117347934470535,0.9998172296791553,0.0,0.0,0.0,0.0,0.0,0.0,0.0,0.0,0.0,0.0007226087913965405,-0.04192024153924661,0.1313328548255992,0.0,0.0,0.0,0.0,0.0,0.0,0.0,0.0,0.0,0.09110754681281479,0.011452188186600654,9.937335903340768,0.0,0.0,0.0,0.0,0.0,0.0,0.0,0.0,0.0
64.548,80,64,547000000,IMU,7.978640330666745e-05,-0.00017489353732306605,0.01955578190085933,0.9998087489318277,0.0,0.0,0.0,0.0,0.0,0.0,0.0,0.0,0.0,-0.05268554766820686,-0.030595623832029253,0.10987703987347727,0.0,0.0,0.0,0.0,0.0,0.0,0.0,0.0,0.0,-0.06492436410937807,-0.014556443009698258,9.822444602269526,0.0,0.0,0.0,0.0,0.0,0.0,0.0,0.0,0.0
64.558,81,64,557000000,IMU,8.261158861580802e-05,-0.00018542168050438056,0.020002310394223084,0.9997999131691395,0.0,0.0,0.0,0.0,0.0,0.0,0.0,0.0,0.0,0.0025480529305179135,-0.026933553829784327,0.03782817794028478,0.0,0.0,0.0,0.0,0.0,0.0,0.0,0.0,0.0,-0.006625937164858047,-0.05308526411161829,9.896664287862206,0.0,0.0,0.0,0.0,0.0,0.0,0.0,0.0,0.0
64.568,82,64,567000000,IMU,8.432899580032417e-05,-0.00019849722623436006,0.020457309683892113,0.9997907040815939,0.0,0.0,0.0,0.0,0.0,0.0,0.0,0.0,0.0,-0.07212737101934065,0.03762602916318472,0.09900738775707489,0.0,0.0,0.0,0.0,0.0,0.0,0.0,0.0,0.0,-0.04944990608993637,-0.0872751676928268,9.88345437171921,0.0,0.0,0.0,0.0,0.0,0.0,0.0,0.0,0.0
64.578,83,64,577000000,IMU,8.476340720668493e-05,-0.00021002088440426784,0.02091634667526332,0.9997812036381527,0.0,0.0,0.0,0.0,0.0,0.0,0.0,0.0,0.0,0.02888433884134095,-0.012827361918005747,0.12079556545158227,0.0,0.0,0.0,0.0,0.0,0.0,0.0,0.0,0.0,0.0028196179982140574,-0.08297627023355136,9.898777129278281,0.0,0.0,0.0,0.0,0.0,0.0,0.0,0.0,0.0
64.588,84,64,587000000,IMU,8.501283215619828e-05,-0.00021726247472351676,0.021374621518731835,0.9997715094584195,0.0,0.0,0.0,0.0,0.0,0.0,0.0,0.0,0.0,-0.008132242595920816,0.015003565476348558,0.12571420042797413,0.0,0.0,0.0,0.0,0.0,0.0,0.0,0.0,0.0,0.01271760998253852,0.02849549490597439,9.832356302465396,0.0,0.0,0.0,0.0,0.0,0.0,0.0,0.0,0.0
64.598,85,64,597000000,IMU,8.629790319065027e-05,-0.00022147487044231348,0.021830436855915302,0.9997616593609866,0.0,0.0,0.0,0.0,0.0,0.0,0.0,0.0,0.0,-0.0014508074947948634,0.03519955437670827,0.09858263878071755,0.0,0.0,0.0,0.0,0.0,0.0,0.0,0.0,0.0,0.06069819524741449,-0.022778728571069953,9.867946695753515,0.0,0.0,0.0,0.0,0.0,0.0,0.0,0.0,0.0
64.608,86,64,607000000,IMU,8.871885324597642e-05,-0.00022601907623919163,0.022286067039497832,0.9997516052801583,0.0,0.0,0.0,0.0,0.0,0.0,0.0,0.0,0.0,0.021261702273401316,0.014509315700641375,0.10599934278606543,0.0,0.0,0.0,0.0,0.0,0.0,0.0,0.0,0.0,0.039725517726858596,-0.07736820772464725,9.894382130428044,0.0,0.0,0.0,0.0,0.0,0.0,0.0,0.0,0.0
64.618,87,64,617000000,IMU,9.125377239805143e-05,-0.0002337688552831152,0.022744957915331918,0.9997412684861524,0.0,0.0,0.0,0.0,0.0,0.0,0.0,0.0,0.0,0.04605310055670586,0.06765584908808728,0.12731557044117445,0.0,0.0,0.0,0.0,0.0,0.0,0.0,0.0,0.0,0.07729269740307232,0.02374392912408293,9.873469687024066,0.0,0.0,0.0,0.0,0.0,0.0,0.0,0.0,0.0
64.627,88,64,627000000,IMU,9.259214071937903e-05,-0.00024515480449435804,0.023208878800373853,0.9997306033480454,0.0,0.0,0.0,0.0,0.0,0.0,0.0,0.0,0.0,0.02226422137340413,-0.011297089159043091,0.17024774793551997,0.0,0.0,0.0,0.0,0.0,0.0,0.0,0.0,0.0,0.09632136510835344,0.028147589732781045,9.926689144718107,0.0,0.0,0.0,0.0,0.0,0.0,0.0,0.0,0.0
64.638,89,64,637000000,IMU,9.23055886868892e-05,-0.0002578870943774416,0.02367698988028092,0.999719623256508,0.0,0.0,0.0,0.0,0.0,0.0,0.0,0.0,0.0,0.023187352488408194,-0.04179335411180246,0.07235178117180405,0.0,0.0,0.0,0.0,0.0,0.0,0.0,0.0,0.0,-0.023503583885906152,-0.013157250046886133,9.932235151285429,0.0,0.0,0.0,0.0,0.0,0.0,0.0,0.0,0.0
64.648,90,64,647000000,IMU,9.14166404709904e-05,-0.0002686625703758881,0.02414732707455155,0.999708370505407,0.0,0.0,0.0,0.0,0.0,0.0,0.0,0.0,0.0,0.0392151391474883,-0.040533930894824176,0.11150571815907273,0.0,0.0,0.0,0.0,0.0,0.0,0.0,0.0,0.0,-0.005499755277196422,0.04709240605620105,9.949122971271045,0.0,0.0,0.0,0.0,0.0,0.0,0.0,0.0,0.0
64.658,91,64,657000000,IMU,9.161524038528569e-05,-0.0002757878563257592,0.024618912910755696,0.9996968663924075,0.0,0.0,0.0,0.0,0.0,0.0,0.0,0.0,0.0,0.01691863199262642,-0.11551822681640057,0.12133031232074427,0.0,0.0,0.0,0.0,0.0,0.0,0.0,0.0,0.0,-0.057008291760705675,0.014662930944644152,9.854885918712238,0.0,0.0,0.0,0.0,0.0,0.0,0.0,0.0,0.0
64.668,92,64,667000000,IMU,9.377023685967425e-05,-0.00028041806054915434,0.025092469016857202,0.999685090701813,0.0,0.0,0.0,0.0,0.0,0.0,0.0,0.0,0.0,0.06168133996411615,0.02103485482449045,0.11963682534648415,0.0,0.0,0.0,0.0,0.0,0.0,0.0,0.0,0.0,0.10052791912297988,-0.052581438559489845,9.945180776547343,0.0,0.0,0.0,0.0,0.0,0.0,0.0,0.0,0.0
64.678,93,64,677000000,IMU,9.69587719403936e-05,-0.0002859182836593613,0.025568845385732366,0.9996730180390847,0.0,0.0,0.0,0.0,0.0,0.0,0.0,0.0,0.0,-0.062072483738727466,0.001613842195649867,0.04624745035907449,0.0,0.0,0.0,0.0,0.0,0.0,0.0,0.0,0.0,-0.03223828751325426,0.028465101643670263,9.93950416675071,0.0,0.0,0.0,0.0,0.0,0.0,0.0,0.0,0.0
64.688,94,64,687000000,IMU,9.908526301451364e-05,-0.00029482527039024673,0.026048001819473057,0.9996606448497328,0.0,0.0,0.0,0.0,0.0,0.0,0.0,0.0,0.0,0.03598022291421375,0.027314233254989582,0.09145225144641644,0.0,0.0,0.0,0.0,0.0,0.0,0.0,0.0,0.0,0.0019178846277345212,-0.05325473606777294,9.972412288962731,0.0,0.0,0.0,0.0,0.0,0.0,0.0,0.0,0.0
64.698,95,64,697000000,IMU,9.876079123854092e-05,-0.00030700981321416486,0.02652856667894982,0.9996480036198948,0.0,0.0,0.0,0.0,0.0,0.0,0.0,0.0,0.0,-0.012805309840612303,-0.020092649285772354,0.08215424521803498,0.0,0.0,0.0,0.0,0.0,0.0,0.0,0.0,0.0,0.0244446922468161,-0.010012194464344225,9.999977590587898,0.0,0.0,0.0,0.0,0.0,0.0,0.0,0.0,0.0
64.708,96,64,707000000,IMU,9.649230289541704e-05,-0.00031955476367717716,0.02700922020993392,0.9996351287332994,0.0,0.0,0.0,0.0,0.0,0.0,0.0,0.0,0.0,-0.0021614702884604512,-0.009127863504639825,0.081137195263396,0.0,0.0,0.0,0.0,0.0,0.0,0.0,0.0,0.0,-0.05416997692525746,-0.010173826828231255,9.938957203454024,0.0,0.0,0.0,0.0,0.0,0.0,0.0,0.0,0.0
64.717,97,64,717000000,IMU,9.445020434146437e-05,-0.0003295487026466941,0.0274908150429033,0.9996219973395386,0.0,0.0,0.0,0.0,0.0,0.0,0.0,0.0,0.0,0.03137159910465305,-0.04606718576967649,0.04809674900116635,0.0,0.0,0.0,0.0,0.0,0.0,0.0,0.0,0.0,-0.06509421770003478,-0.0532284030596004,10.00875161423434,0.0,0.0,0.0,0.0,0.0,0.0,0.0,0.0,0.0
64.728,98,64,727000000,IMU,9.481563467384104e-05,-0.0003362340835430322,0.02797633455274104,0.9996085247043613,0.0,0.0,0.0,0.0,0.0,0.0,0.0,0.0,0.0,0.03441502735113842,-0.005787753985884696,0.15331385207493728,0.0,0.0,0.0,0.0,0.0,0.0,0.0,0.0,0.0,-0.050892040327630436,-0.05455095413765048,9.929545447724403,0.0,0.0,0.0,0.0,0.0,0.0,0.0,0.0,0.0
64.738,99,64,737000000,IMU,9.780457228053984e-05,-0.00034163978978116313,0.028468389633974783,0.9995946300917028,0.0,0.0,0.0,0.0,0.0,0.0,0.0,0.0,0.0,-0.02458770798270817,0.01898709846859564,0.08161835199685083,0.0,0.0,0.0,0.0,0.0,0.0,0.0,0.0,0.0,-0.06425576137123805,0.0240049564555333,9.900964796866877,0.0,0.0,0.0,0.0,0.0,0.0,0.0,0.0,0.0
64.748,100,64,747000000,IMU,0.00010120521698322211,-0.00034874176449882217,0.02896577189759104,0.9995803380394506,0.0,0.0,0.0,0.0,0.0,0.0,0.0,0.0,0.0,0.0457408241224966,-0.025937026571586076,0.10062357562064629,0.0,0.0,0.0,0.0,0.0,0.0,0.0,0.0,0.0,-0.03354400404843173,0.08582118583000672,9.89362634774454,0.0,0.0,0.0,0.0,0.0,0.0,0.0,0.0,0.0
64.758,101,64,757000000,IMU,0.00010249533511605697,-0.0003586710451832535,0.02946440117208435,0.9995657606747833,0.0,0.0,0.0,0.0,0.0,0.0,0.0,0.0,0.0,0.04010615903471387,-0.03593346693209411,0.13211694766635818,0.0,0.0,0.0,0.0,0.0,0.0,0.0,0.0,0.0,0.03736868754320476,0.038525990775529775,9.917477330171199,0.0,0.0,0.0,0.0,0.0,0.0,0.0,0.0,0.0
64.768,102,64,767000000,IMU,0.00010069582552696777,-0.00037037032801582,0.02995974738512463,0.9995510323254089,0.0,0.0,0.0,0.0,0.0,0.0,0.0,0.0,0.0,-0.010727377362148956,0.02921599799132641,0.10601368826513823,0.0,0.0,0.0,0.0,0.0,0.0,0.0,0.0,0.0,0.04061376064293516,0.04842380446174646,9.991048852881926,0.0,0.0,0.0,0.0,0.0,0.0,0.0,0.0,0.0
64.778,103,64,777000000,IMU,9.704282868239698e-05,-0.0003816876222431448,0.030451108670776716,0.9995361798744301,0.0,0.0,0.0,0.0,0.0,0.0,0.0,0.0,0.0,-0.038459343344103045,-0.027370556472499016,0.1293960116157716,0.0,0.0,0.0,0.0,0.0,0.0,0.0,0.0,0.0,0.024844878447306498,-0.008497783905194994,9.928584467404578,0.0,0.0,0.0,0.0,0.0,0.0,0.0,0.0,0.0
64.788,104,64,787000000,IMU,9.453351836488458e-05,-0.00039067144301161203,0.03094320097023949,0.9995210636864803,0.0,0.0,0.0,0.0,0.0,0.0,0.0,0.0,0.0,-0.04144415855820295,-0.04772790498434933,0.1155040235111176,0.0,0.0,0.0,0.0,0.0,0.0,0.0,0.0,0.0,0.024148332609460896,0.09113844951476253,9.929208747230023,0.0,0.0,0.0,0.0,0.0,0.0,0.0,0.0,0.0
64.801,105,64,797000000,IMU,9.531687496971691e-05,-0.00039756144618402966,0.03144299065725123,0.999505463315793,0.0,0.0,0.0,0.0,0.0,0.0,0.0,0.0,0.0,0.022318390929425624,0.022163927941919286,0.10522852632704922,0.0,0.0,0.0,0.0,0.0,0.0,0.0,0.0,0.0,-0.004015672933900059,-0.03532117430912421,9.957925190870279,0.0,0.0,0.0,0.0,0.0,0.0,0.0,0.0,0.0
64.806,106,64,807000000,IMU,9.954124934756639e-05,-0.0004050273263275146,0.032007097736017294,0.999487554569301,0.0,0.0,0.0,0.0,0.0,0.0,0.0,0.0,0.0,0.00022024282831117719,-0.012492002685448304,0.1092851435288025,0.0,0.0,0.0,0.0,0.0,0.0,0.0,0.0,0.0,0.04590519967646261,0.02502427059417627,9.92799011270277,0.0,0.0,0.0,0.0,0.0,0.0,0.0,0.0,0.0
64.816,107,64,817000000,IMU,0.00010386283252434767,-0.00041440458129810514,0.032531317041063046,0.9994706253276927,0.0,0.0,0.0,0.0,0.0,0.0,0.0,0.0,0.0,-0.028980145867611072,-0.016277346984453746,0.10517110754709298,0.0,0.0,0.0,0.0,0.0,0.0,0.0,0.0,0.0,0.018738384797672644,0.013616250580591117,9.878407113032482,0.0,0.0,0.0,0.0,0.0,0.0,0.0,0.0,0.0
64.827,108,64,827000000,IMU,0.00010440864475775272,-0.00042679733773699774,0.0330531139059113,0.9994534999708542,0.0,0.0,0.0,0.0,0.0,0.0,0.0,0.0,0.0,-0.02202774358652543,-0.06937282638016812,0.07677412081757087,0.0,0.0,0.0,0.0,0.0,0.0,0.0,0.0,0.0,0.0010187580508092178,0.011615980424039515,9.86255786352719,0.0,0.0,0.0,0.0,0.0,0.0,0.0,0.0,0.0
64.838,109,64,837000000,IMU,9.951148865939717e-05,-0.0004400174090692242,0.03356195099660083,0.9994365372185695,0.0,0.0,0.0,0.0,0.0,0.0,0.0,0.0,0.0,-0.010847903543342476,-0.008738565256679227,0.09272258191879267,0.0,0.0,0.0,0.0,0.0,0.0,0.0,0.0,0.0,-0.026494117551482135,-0.04525993634240506,9.820821481799682,0.0,0.0,0.0,0.0,0.0,0.0,0.0,0.0,0.0
64.848,110,64,847000000,IMU,9.272985989908522e-05,-0.0004500808719029544,0.03400967612201484,0.9994213979890852,0.0,0.0,0.0,0.0,0.0,0.0,0.0,0.0,0.0,0.03837278532380934,0.027141786650185587,0.07904372672123411,0.0,0.0,0.0,0.0,0.0,0.0,0.0,0.0,0.0,0.06709138333146458,-0.055668575214063876,9.952094945377718,0.0,0.0,0.0,0.0,0.0,0.0,0.0,0.0,0.0
64.858,111,64,857000000,IMU,8.796829410311204e-05,-0.0004572020317720353,0.03451041780688728,0.9994042296741973,0.0,0.0,0.0,0.0,0.0,0.0,0.0,0.0,0.0,0.00455161391282625,0.0439093620230742,0.13476516402420138,0.0,0.0,0.0,0.0,0.0,0.0,0.0,0.0,0.0,-0.038277051862595786,0.044856279350402546,9.984110975162743,0.0,0.0,0.0,0.0,0.0,0.0,0.0,0.0,0.0
64.868,112,64,867000000,IMU,8.980805548217451e-05,-0.00046325427357825393,0.035025030109574654,0.99938632399879,0.0,0.0,0.0,0.0,0.0,0.0,0.0,0.0,0.0,0.04256335218206819,0.0320074308893947,0.10482041322265039,0.0,0.0,0.0,0.0,0.0,0.0,0.0,0.0,0.0,0.012557973132322642,-0.021957770366535657,9.912452081914555,0.0,0.0,0.0,0.0,0.0,0.0,0.0,0.0,0.0
64.878,113,64,877000000,IMU,9.444373018287864e-05,-0.0004713408074879462,0.03555548374272017,0.999367588274728,0.0,0.0,0.0,0.0,0.0,0.0,0.0,0.0,0.0,-0.00403213498429029,0.004935275498887021,0.07003147026990361,0.0,0.0,0.0,0.0,0.0,0.0,0.0,0.0,0.0,0.0015019593267209478,0.0016297491350330917,9.881929641669542,0.0,0.0,0.0,0.0,0.0,0.0,0.0,0.0,0.0
64.888,114,64,887000000,IMU,9.703977215872393e-05,-0.0004818387918364309,0.03609403563071279,0.9993482771319268,0.0,0.0,0.0,0.0,0.0,0.0,0.0,0.0,0.0,0.07126764890514371,-0.01318497903983434,0.10025424169258768,0.0,0.0,0.0,0.0,0.0,0.0,0.0,0.0,0.0,-0.09498144628473887,-0.045980159024413894,9.914680668864488,0.0,0.0,0.0,0.0,0.0,0.0,0.0,0.0,0.0
64.898,115,64,897000000,IMU,9.544284851146919e-05,-0.0004929253840355281,0.03662633596800344,0.9993289045298287,0.0,0.0,0.0,0.0,0.0,0.0,0.0,0.0,0.0,-0.015587173452910297,0.05859060700686326,0.12938134461305548,0.0,0.0,0.0,0.0,0.0,0.0,0.0,0.0,0.0,-0.0009982955517663355,0.039486743673527405,9.876619163692867,0.0,0.0,0.0,0.0,0.0,0.0,0.0,0.0,0.0
64.908,116,64,907000000,IMU,9.054079906689429e-05,-0.0005027904836916018,0.037144746965463875,0.9993097651764266,0.0,0.0,0.0,0.0,0.0,0.0,0.0,0.0,0.0,0.04397046498142575,-0.04135750972595842,0.03539281081942136,0.0,0.0,0.0,0.0,0.0,0.0,0.0,0.0,0.0,-0.011554688370829359,-0.04411914616163642,9.959122969674793,0.0,0.0,0.0,0.0,0.0,0.0,0.0,0.0,0.0
64.918,117,64,917000000,IMU,8.564640441436337e-05,-0.0005108397877064014,0.03765474268589394,0.9992906744589705,0.0,0.0,0.0,0.0,0.0,0.0,0.0,0.0,0.0,-0.005986970714552064,-0.019850590775956065,0.0540487451890103,0.0,0.0,0.0,0.0,0.0,0.0,0.0,0.0,0.0,-0.005094303828515653,-0.008766158405732617,9.934175767129942,0.0,0.0,0.0,0.0,0.0,0.0,0.0,0.0,0.0
64.928,118,64,927000000,IMU,8.409458672024931e-05,-0.0005179408178540152,0.03817001733263456,0.9992711215892494,0.0,0.0,0.0,0.0,0.0,0.0,0.0,0.0,0.0,0.04504625230421458,-0.0005707228726476289,0.18188013501565609,0.0,0.0,0.0,0.0,0.0,0.0,0.0,0.0,0.0,0.05084182746904485,-0.06636638196259718,9.853588756935464,0.0,0.0,0.0,0.0,0.0,0.0,0.0,0.0,0.0
64.938,119,64,937000000,IMU,8.630723394826167e-05,-0.0005260344468300546,0.03870293883104034,0.9992506183959372,0.0,0.0,0.0,0.0,0.0,0.0,0.0,0.0,0.0,-0.004247919172555462,0.002404826686390073,0.07409861288593811,0.0,0.0,0.0,0.0,0.0,0.0,0.0,0.0,0.0,0.03421286143821439,0.08746558485546614,9.96576662014789,0.0,0.0,0.0,0.0,0.0,0.0,0.0,0.0,0.0
64.948,120,64,947000000,IMU,8.983311358244573e-05,-0.000536237169802135,0.03925480210063007,0.9992290852911309,0.0,0.0,0.0,0.0,0.0,0.0,0.0,0.0,0.0,-0.02146923137651565,-0.026313843946219304,0.12888059206090052,0.0,0.0,0.0,0.0,0.0,0.0,0.0,0.0,0.0,0.09927728459955325,-0.0371780973507731,9.998600270518066,0.0,0.0,0.0,0.0,0.0,0.0,0.0,0.0,0.0
64.958,121,64,957000000,IMU,9.093948686702779e-05,-0.0005475602539784124,0.039811988022450784,0.9992070343614872,0.0,0.0,0.0,0.0,0.0,0.0,0.0,0.0,0.0,0.03983568764989587,0.031622924836601486,0.10400974026239863,0.0,0.0,0.0,0.0,0.0,0.0,0.0,0.0,0.0,0.033319985115482495,-0.06668000762848666,9.900721506593218,0.0,0.0,0.0,0.0,0.0,0.0,0.0,0.0,0.0
64.968,122,64,967000000,IMU,8.788063837126246e-05,-0.0005578112105840911,0.04035708123052787,0.9991851615782731,0.0,0.0,0.0,0.0,0.0,0.0,0.0,0.0,0.0,-0.00015341787414281454,-0.02064870732676031,0.15012042834462277,0.0,0.0,0.0,0.0,0.0,0.0,0.0,0.0,0.0,0.05635079194201008,-0.0296838102862521,9.896691212098425,0.0,0.0,0.0,0.0,0.0,0.0,0.0,0.0,0.0
64.978,123,64,977000000,IMU,8.252457865394506e-05,-0.0005658422049685169,0.04088463127309255,0.9991637102787293,0.0,0.0,0.0,0.0,0.0,0.0,0.0,0.0,0.0,-0.01675480065088241,0.027768418131254257,0.03144793331165613,0.0,0.0,0.0,0.0,0.0,0.0,0.0,0.0,0.0,0.042133150035653086,-0.004204946203779081,9.98617236701199,0.0,0.0,0.0,0.0,0.0,0.0,0.0,0.0,0.0
64.988,124,64,987000000,IMU,7.827135755045429e-05,-0.0005723266850419954,0.04140430744779184,0.9991423070016248,0.0,0.0,0.0,0.0,0.0,0.0,0.0,0.0,0.0,-0.048521683781876025,-0.05339856067586975,0.09026033690285522,0.0,0.0,0.0,0.0,0.0,0.0,0.0,0.0,0.0,0.049909887744589806,0.07101287237954479,9.88285164453359,0.0,0.0,0.0,0.0,0.0,0.0,0.0,0.0,0.0
64.998,125,64,997000000,IMU,7.788173335431247e-05,-0.0005793716980129347,0.041934477447414825,0.9991201919008961,0.0,0.0,0.0,0.0,0.0,0.0,0.0,0.0,0.0,0.0028308861751715174,-0.04007784139591944,0.11963550234138431,0.0,0.0,0.0,0.0,0.0,0.0,0.0,0.0,0.0,0.029209643409639423,0.058704932436313126,9.939831435436401,0.0,0.0,0.0,0.0,0.0,0.0,0.0,0.0,0.0
65.008,126,65,7000000,IMU,8.062770965242984e-05,-0.0005889030147197465,0.042486587812638074,0.9990968604436964,0.0,0.0,0.0,0.0,0.0,0.0,0.0,0.0,0.0,0.0061824184164639175,0.008069933409523312,0.08921670140674538,0.0,0.0,0.0,0.0,0.0,0.0,0.0,0.0,0.0,-0.056393272725576093,-0.11749461665355586,9.907737943301086,0.0,0.0,0.0,0.0,0.0,0.0,0.0,0.0,0.0
65.018,127,65,17000000,IMU,8.296616810279891e-05,-0.0006006300179222161,0.04305677251695069,0.9990724431694732,0.0,0.0,0.0,0.0,0.0,0.0,0.0,0.0,0.0,0.010258817772142244,-0.05388737962113823,0.10665589707937291,0.0,0.0,0.0,0.0,0.0,0.0,0.0,0.0,0.0,-0.023086723728140975,0.086172005972326,9.895500926808781,0.0,0.0,0.0,0.0,0.0,0.0,0.0,0.0,0.0
65.028,128,65,27000000,IMU,8.2069258010453e-05,-0.0006120594154464168,0.043627489234174546,0.9990476769559253,0.0,0.0,0.0,0.0,0.0,0.0,0.0,0.0,0.0,0.01801921498826821,-0.006518114531811622,0.11301456240567655,0.0,0.0,0.0,0.0,0.0,0.0,0.0,0.0,0.0,0.026554285758374065,0.02183040096977683,9.875044807842109,0.0,0.0,0.0,0.0,0.0,0.0,0.0,0.0,0.0
65.038,129,65,37000000,IMU,7.758627218149411e-05,-0.0006206775883137174,0.04418045410610941,0.9990233712054387,0.0,0.0,0.0,0.0,0.0,0.0,0.0,0.0,0.0,0.0151605378612646,-0.014868479922020882,0.10613319251656253,0.0,0.0,0.0,0.0,0.0,0.0,0.0,0.0,0.0,0.06472423319632573,0.04679649076526108,10.003635465571318,0.0,0.0,0.0,0.0,0.0,0.0,0.0,0.0,0.0
65.048,130,65,47000000,IMU,7.202712128881571e-05,-0.0006264565979592884,0.044714524856260915,0.9989996064218962,0.0,0.0,0.0,0.0,0.0,0.0,0.0,0.0,0.0,0.010684139637816798,-0.01644777767119258,0.16320753970413615,0.0,0.0,0.0,0.0,0.0,0.0,0.0,0.0,0.0,-0.10159989656989271,-0.014870350886529621,9.951471871477173,0.0,0.0,0.0,0.0,0.0,0.0,0.0,0.0,0.0
65.058,131,65,57000000,IMU,6.887337918134995e-05,-0.0006318193727702029,0.04524561637288259,0.9989756905249375,0.0,0.0,0.0,0.0,0.0,0.0,0.0,0.0,0.0,-0.06807042882178924,0.04746027118286835,0.18680173576986725,0.0,0.0,0.0,0.0,0.0,0.0,0.0,0.0,0.0,-0.011178353908943684,0.04446548763942402,9.948054311290296,0.0,0.0,0.0,0.0,0.0,0.0,0.0,0.0,0.0
65.068,132,65,67000000,IMU,6.953503592129745e-05,-0.0006397517180886179,0.0457935488669043,0.9989507178859188,0.0,0.0,0.0,0.0,0.0,0.0,0.0,0.0,0.0,0.012743669633379119,-0.014386454157803213,0.11619365588301182,0.0,0.0,0.0,0.0,0.0,0.0,0.0,0.0,0.0,0.07356538845575372,0.03809372447189031,9.951868917977029,0.0,0.0,0.0,0.0,0.0,0.0,0.0,0.0,0.0
65.078,133,65,77000000,IMU,7.204866146993899e-05,-0.0006514324310317228,0.04636799511364893,0.998924211076055,0.0,0.0,0.0,0.0,0.0,0.0,0.0,0.0,0.0,0.03886470422453566,-0.032583734901493216,0.09219603522234585,0.0,0.0,0.0,0.0,0.0,0.0,0.0,0.0,0.0,-0.10738256985799613,-0.08302284581966535,9.952444986575728,0.0,0.0,0.0,0.0,0.0,0.0,0.0,0.0,0.0
65.088,134,65,87000000,IMU,7.29532354203348e-05,-0.0006646438547209484,0.04695779437816731,0.9988966505467468,0.0,0.0,0.0,0.0,0.0,0.0,0.0,0.0,0.0,0.005465002025149234,0.003131666661476367,0.09072748719914543,0.0,0.0,0.0,0.0,0.0,0.0,0.0,0.0,0.0,0.006023613996477157,0.0004362992366061519,9.944290776549348,0.0,0.0,0.0,0.0,0.0,0.0,0.0,0.0,0.0
65.098,135,65,97000000,IMU,7.018960253520404e-05,-0.0006751559580744325,0.04753942431435768,0.9988691317553623,0.0,0.0,0.0,0.0,0.0,0.0,0.0,0.0,0.0,0.061316486581232614,0.020274710131058332,0.06797930714453106,0.0,0.0,0.0,0.0,0.0,0.0,0.0,0.0,0.0,-0.04521484609465473,-0.018806590442937456,9.88459311795094,0.0,0.0,0.0,0.0,0.0,0.0,0.0,0.0,0.0
65.108,136,65,107000000,IMU,6.49603424498825e-05,-0.0006812773458801189,0.048098761966495006,0.9988423502928891,0.0,0.0,0.0,0.0,0.0,0.0,0.0,0.0,0.0,0.011228513450993521,-0.006896813148954772,0.13801327125905377,0.0,0.0,0.0,0.0,0.0,0.0,0.0,0.0,0.0,-0.06998377724638961,0.07275029279637228,10.020336210601682,0.0,0.0,0.0,0.0,0.0,0.0,0.0,0.0,0.0
65.118,137,65,117000000,IMU,6.045233040848723e-05,-0.0006852365925889061,0.04864222591987692,0.998816029433793,0.0,0.0,0.0,0.0,0.0,0.0,0.0,0.0,0.0,0.055123633401188,-0.026895020353060694,0.03430793035189554,0.0,0.0,0.0,0.0,0.0,0.0,0.0,0.0,0.0,-0.02005989480302297,0.03807624629210088,10.011120043946848,0.0,0.0,0.0,0.0,0.0,0.0,0.0,0.0,0.0
65.127,138,65,127000000,IMU,5.888390688320194e-05,-0.0006907528442632332,0.049188899017861346,0.9987892528489702,0.0,0.0,0.0,0.0,0.0,0.0,0.0,0.0,0.0,-0.021607031504333737,-0.014737730129665155,0.08873887567710476,0.0,0.0,0.0,0.0,0.0,0.0,0.0,0.0,0.0,-0.021965600872489763,-0.008729363719654652,9.946662632390751,0.0,0.0,0.0,0.0,0.0,0.0,0.0,0.0,0.0
65.138,139,65,137000000,IMU,5.981819154962546e-05,-0.0007004226542474318,0.04975644543525757,0.9987611335887765,0.0,0.0,0.0,0.0,0.0,0.0,0.0,0.0,0.0,-0.019053594026970308,-0.0064095007448881575,0.07302022077334676,0.0,0.0,0.0,0.0,0.0,0.0,0.0,0.0,0.0,-0.005963715313837157,-0.031193670064470116,9.929529669021116,0.0,0.0,0.0,0.0,0.0,0.0,0.0,0.0,0.0
65.148,140,65,147000000,IMU,6.065158717007257e-05,-0.0007134977570075092,0.050347845791485164,0.9987314862697044,0.0,0.0,0.0,0.0,0.0,0.0,0.0,0.0,0.0,0.0062470642594505445,-0.06143385873873647,0.15880919870002433,0.0,0.0,0.0,0.0,0.0,0.0,0.0,0.0,0.0,-0.05860154392860563,0.022985799043160404,9.950576391483574,0.0,0.0,0.0,0.0,0.0,0.0,0.0,0.0,0.0
65.158,141,65,157000000,IMU,5.901319224763976e-05,-0.0007261581191914164,0.05094863758543908,0.9987010090813049,0.0,0.0,0.0,0.0,0.0,0.0,0.0,0.0,0.0,-0.005267743226518897,-0.03840955750334392,0.11779460704794062,0.0,0.0,0.0,0.0,0.0,0.0,0.0,0.0,0.0,-0.09960452022239438,-0.05073242482985543,9.968893713272534,0.0,0.0,0.0,0.0,0.0,0.0,0.0,0.0,0.0
65.168,142,65,167000000,IMU,5.472813774604324e-05,-0.0007343554808101816,0.051535396234107834,0.9986708970736318,0.0,0.0,0.0,0.0,0.0,0.0,0.0,0.0,0.0,0.06853412126591808,-0.01731617284842653,0.0637091843073132,0.0,0.0,0.0,0.0,0.0,0.0,0.0,0.0,0.0,-0.004929620784116146,-0.01786288298983707,9.904194994186392,0.0,0.0,0.0,0.0,0.0,0.0,0.0,0.0,0.0
65.178,143,65,177000000,IMU,5.0091604770853214e-05,-0.0007380241598381569,0.05209957004682137,0.9986416212095846,0.0,0.0,0.0,0.0,0.0,0.0,0.0,0.0,0.0,-0.0358030790982843,0.010507345327754063,0.1584562228197076,0.0,0.0,0.0,0.0,0.0,0.0,0.0,0.0,0.0,0.03442208006092631,-0.01329636664767643,9.980098417151614,0.0,0.0,0.0,0.0,0.0,0.0,0.0,0.0,0.0
65.188,144,65,187000000,IMU,4.732286397265148e-05,-0.000740819987829908,0.05265266357136516,0.9986126105578343,0.0,0.0,0.0,0.0,0.0,0.0,0.0,0.0,0.0,0.00554951089809773,0.01591043852995191,0.08878178795236748,0.0,0.0,0.0,0.0,0.0,0.0,0.0,0.0,0.0,0.0025661732973668878,-0.10870689464231888,9.956576738645003,0.0,0.0,0.0,0.0,0.0,0.0,0.0,0.0,0.0
65.198,145,65,197000000,IMU,4.709129456097289e-05,-0.0007474265664208418,0.05321640610355698,0.9985827222906268,0.0,0.0,0.0,0.0,0.0,0.0,0.0,0.0,0.0,-0.028538029156867154,0.02730078303601244,0.182956752831459,0.0,0.0,0.0,0.0,0.0,0.0,0.0,0.0,0.0,0.0016299259309336435,0.019145458707069796,9.808762637839719,0.0,0.0,0.0,0.0,0.0,0.0,0.0,0.0,0.0
65.208,146,65,207000000,IMU,4.749478150048529e-05,-0.0007592699416940181,0.0538040731720813,0.9985512220029049,0.0,0.0,0.0,0.0,0.0,0.0,0.0,0.0,0.0,-0.02411318646716893,-0.024940128177492495,0.09041343949027594,0.0,0.0,0.0,0.0,0.0,0.0,0.0,0.0,0.0,0.06082876675590493,0.02044313678501268,9.959704921211246,0.0,0.0,0.0,0.0,0.0,0.0,0.0,0.0,0.0
65.218,147,65,217000000,IMU,4.621135579717946e-05,-0.0007734183418649592,0.05441157934310564,0.9985182921318808,0.0,0.0,0.0,0.0,0.0,0.0,0.0,0.0,0.0,0.026947565883780226,0.03983230778591832,0.1389282901245481,0.0,0.0,0.0,0.0,0.0,0.0,0.0,0.0,0.0,-0.006374772392547794,0.018188318151976548,9.88904358043053,0.0,0.0,0.0,0.0,0.0,0.0,0.0,0.0,0.0
65.228,148,65,227000000,IMU,4.25624939737386e-05,-0.0007843230116553992,0.05501849596542504,0.9984850264914092,0.0,0.0,0.0,0.0,0.0,0.0,0.0,0.0,0.0,-0.04628956103401138,0.011779214449173582,0.15638906133257602,0.0,0.0,0.0,0.0,0.0,0.0,0.0,0.0,0.0,0.013575064138981841,0.005947754591062598,10.016274498242343,0.0,0.0,0.0,0.0,0.0,0.0,0.0,0.0,0.0
65.238,149,65,237000000,IMU,3.8042371802666555e-05,-0.0007890862861395635,0.055607210809519116,0.9984524094825937,0.0,0.0,0.0,0.0,0.0,0.0,0.0,0.0,0.0,-0.021258125439161543,0.054388231966364095,0.10466354954382547,0.0,0.0,0.0,0.0,0.0,0.0,0.0,0.0,0.0,0.0031615081428615337,0.014843225202649796,9.953365145565867,0.0,0.0,0.0,0.0,0.0,0.0,0.0,0.0,0.0
65.248,150,65,247000000,IMU,3.487539841221159e-05,-0.0007905475308549207,0.05617837887552582,0.9984204342686632,0.0,0.0,0.0,0.0,0.0,0.0,0.0,0.0,0.0,-0.0058968470791026725,-0.0060325679179144085,0.07175604361603746,0.0,0.0,0.0,0.0,0.0,0.0,0.0,0.0,0.0,0.007321552505755176,-0.0022646798712299917,9.916857726560904,0.0,0.0,0.0,0.0,0.0,0.0,0.0,0.0,0.0
65.258,151,65,257000000,IMU,3.387220128903636e-05,-0.0007940268278798742,0.05674758089357396,0.9983882413354026,0.0,0.0,0.0,0.0,0.0,0.0,0.0,0.0,0.0,0.028652357865154007,0.00379643428240838,0.14534271814144972,0.0,0.0,0.0,0.0,0.0,0.0,0.0,0.0,0.0,-0.07578361640725867,0.040995079146161684,9.99965751423042,0.0,0.0,0.0,0.0,0.0,0.0,0.0,0.0,0.0
65.268,152,65,267000000,IMU,3.3857537288874075e-05,-0.0008032670845157136,0.05733258610020381,0.9983548107695583,0.0,0.0,0.0,0.0,0.0,0.0,0.0,0.0,0.0,-0.014879461198524551,0.024953891046940502,0.13716047221655292,0.0,0.0,0.0,0.0,0.0,0.0,0.0,0.0,0.0,0.002677113208091949,-0.04844246226822444,9.96671465570313,0.0,0.0,0.0,0.0,0.0,0.0,0.0,0.0,0.0
65.278,153,65,277000000,IMU,3.2459651660822576e-05,-0.000817264891934989,0.057939448891241516,0.9983197640468944,0.0,0.0,0.0,0.0,0.0,0.0,0.0,0.0,0.0,0.03125085692128967,-0.0033385365157770695,0.10696538651230286,0.0,0.0,0.0,0.0,0.0,0.0,0.0,0.0,0.0,-0.022090761017343082,-0.0770504821019255,10.010310339901627,0.0,0.0,0.0,0.0,0.0,0.0,0.0,0.0,0.0
65.288,154,65,287000000,IMU,2.8609724111108304e-05,-0.0008305870243518975,0.05855746500881103,0.998283693445115,0.0,0.0,0.0,0.0,0.0,0.0,0.0,0.0,0.0,-0.005489278497842055,-0.02821992105861685,0.051149545525387016,0.0,0.0,0.0,0.0,0.0,0.0,0.0,0.0,0.0,-0.040993274067865806,0.01366676960075888,9.958061973393713,0.0,0.0,0.0,0.0,0.0,0.0,0.0,0.0,0.0
65.298,155,65,297000000,IMU,2.37624525403504e-05,-0.0008380034914340207,0.05916739790904269,0.9982477228675092,0.0,0.0,0.0,0.0,0.0,0.0,0.0,0.0,0.0,-0.04262180831187641,0.006526068490150884,0.13833606439982898,0.0,0.0,0.0,0.0,0.0,0.0,0.0,0.0,0.0,-0.042471202387283816,0.05015461612915413,9.929251949409789,0.0,0.0,0.0,0.0,0.0,0.0,0.0,0.0,0.0
65.308,156,65,307000000,IMU,2.045651000512882e-05,-0.0008392797670084156,0.059759282304540196,0.998212464042325,0.0,0.0,0.0,0.0,0.0,0.0,0.0,0.0,0.0,-0.04982684910950999,-0.015561930094777882,0.1437016441925568,0.0,0.0,0.0,0.0,0.0,0.0,0.0,0.0,0.0,-0.05023132105769772,0.049251096465454364,10.066004239860813,0.0,0.0,0.0,0.0,0.0,0.0,0.0,0.0,0.0
65.318,157,65,317000000,IMU,1.956481229874881e-05,-0.0008396786045427161,0.06034067691252787,0.998177487858145,0.0,0.0,0.0,0.0,0.0,0.0,0.0,0.0,0.0,-0.03373435066584966,-0.025359068947733727,0.12612441252741258,0.0,0.0,0.0,0.0,0.0,0.0,0.0,0.0,0.0,0.024409552857728205,0.07103305790946685,9.949712145083177,0.0,0.0,0.0,0.0,0.0,0.0,0.0,0.0,0.0
65.328,158,65,327000000,IMU,1.957001636191939e-05,-0.0008451272127496933,0.06092822003947245,0.9981417922218419,0.0,0.0,0.0,0.0,0.0,0.0,0.0,0.0,0.0,-0.03762046971881425,-0.006544472730560111,0.1131085450902795,0.0,0.0,0.0,0.0,0.0,0.0,0.0,0.0,0.0,0.054232562057612975,-0.11010083167971328,10.006227447892993,0.0,0.0,0.0,0.0,0.0,0.0,0.0,0.0,0.0
65.338,159,65,337000000,IMU,1.806990439491592e-05,-0.0008571393268055029,0.06153284975265274,0.9981046905946143,0.0,0.0,0.0,0.0,0.0,0.0,0.0,0.0,0.0,0.041901433505680395,-0.019501874804069837,0.19937853262474625,0.0,0.0,0.0,0.0,0.0,0.0,0.0,0.0,0.0,0.06834230099062605,-0.023977838500392822,10.015948475020817,0.0,0.0,0.0,0.0,0.0,0.0,0.0,0.0,0.0
65.348,160,65,347000000,IMU,1.380141383831957e-05,-0.0008714370113987907,0.06215193732689486,0.9980663189856522,0.0,0.0,0.0,0.0,0.0,0.0,0.0,0.0,0.0,0.053098522802768895,0.013748616623024994,0.10947324053868557,0.0,0.0,0.0,0.0,0.0,0.0,0.0,0.0,0.0,-0.0020989509442696577,0.03880041724407678,10.0446197244404,0.0,0.0,0.0,0.0,0.0,0.0,0.0,0.0,0.0
65.358,161,65,357000000,IMU,8.387605350314522e-06,-0.0008814553737500695,0.06277187761278478,0.9980275118187063,0.0,0.0,0.0,0.0,0.0,0.0,0.0,0.0,0.0,0.018120062915817636,-0.06697386450080178,0.200996165605837,0.0,0.0,0.0,0.0,0.0,0.0,0.0,0.0,0.0,0.06515677322752449,-0.03940893997334692,9.974953675986507,0.0,0.0,0.0,0.0,0.0,0.0,0.0,0.0,0.0
65.368,162,65,367000000,IMU,4.5887825103815836e-06,-0.0008843786977986057,0.06338167719356352,0.9979889683004481,0.0,0.0,0.0,0.0,0.0,0.0,0.0,0.0,0.0,-0.017343956869652268,-0.004866167626050806,0.13529319379287977,0.0,0.0,0.0,0.0,0.0,0.0,0.0,0.0,0.0,0.11705258705827824,0.08884013183507708,9.978353049876787,0.0,0.0,0.0,0.0,0.0,0.0,0.0,0.0,0.0
65.378,163,65,377000000,IMU,3.847600267417747e-06,-0.000883611543283441,0.06398053520945891,0.9979507554634887,0.0,0.0,0.0,0.0,0.0,0.0,0.0,0.0,0.0,-0.03834318285428939,0.061773599727189245,0.09398916266595356,0.0,0.0,0.0,0.0,0.0,0.0,0.0,0.0,0.0,0.05853574353858337,0.013350287075089937,9.925067057783346,0.0,0.0,0.0,0.0,0.0,0.0,0.0,0.0,0.0
65.388,164,65,387000000,IMU,4.6192259338125084e-06,-0.0008858684987926738,0.06457810473944946,0.9979122624779828,0.0,0.0,0.0,0.0,0.0,0.0,0.0,0.0,0.0,0.015938960386124804,0.05234675194931223,0.13460215694952726,0.0,0.0,0.0,0.0,0.0,0.0,0.0,0.0,0.0,-0.00037498201927379203,-0.02082694015589543,10.021303068424075,0.0,0.0,0.0,0.0,0.0,0.0,0.0,0.0,0.0
65.398,165,65,397000000,IMU,3.8723272075725895e-06,-0.0008948206506652792,0.06518445572724428,0.997872830581408,0.0,0.0,0.0,0.0,0.0,0.0,0.0,0.0,0.0,0.0014534992491426783,-0.07030858272499131,0.1053567581469913,0.0,0.0,0.0,0.0,0.0,0.0,0.0,0.0,0.0,-0.01765840024308455,0.026334397717825204,9.845072584292335,0.0,0.0,0.0,0.0,0.0,0.0,0.0,0.0,0.0
65.408,166,65,407000000,IMU,-5.316742623486654e-07,-0.0009079463468493838,0.06580226001145997,0.9978322695776746,0.0,0.0,0.0,0.0,0.0,0.0,0.0,0.0,0.0,0.022983382931216056,-0.003911492705327011,0.10917057203769007,0.0,0.0,0.0,0.0,0.0,0.0,0.0,0.0,0.0,0.015013762577947684,-0.0006615619105710562,10.006754558956636,0.0,0.0,0.0,0.0,0.0,0.0,0.0,0.0,0.0
65.418,167,65,417000000,IMU,-7.3114525598985365e-06,-0.0009196182869888165,0.06642597890304767,0.9977909317965968,0.0,0.0,0.0,0.0,0.0,0.0,0.0,0.0,0.0,0.011006399628554682,-0.011332409893735037,0.09772762203186713,0.0,0.0,0.0,0.0,0.0,0.0,0.0,0.0,0.0,-0.02166902753334429,-0.12453357962128325,10.078364853381483,0.0,0.0,0.0,0.0,0.0,0.0,0.0,0.0,0.0
65.428,168,65,427000000,IMU,-1.2612234227324043e-05,-0.0009249045246747467,0.06704704027675917,0.9977493867613643,0.0,0.0,0.0,0.0,0.0,0.0,0.0,0.0,0.0,0.003201444347713837,-0.023359919641878134,0.14007153641215533,0.0,0.0,0.0,0.0,0.0,0.0,0.0,0.0,0.0,0.01072493841808484,0.017816596332524533,9.913964597436655,0.0,0.0,0.0,0.0,0.0,0.0,0.0,0.0,0.0
65.438,169,65,437000000,IMU,-1.3720259673288235e-05,-0.0009244726824977315,0.0676621873593733,0.9977078598285969,0.0,0.0,0.0,0.0,0.0,0.0,0.0,0.0,0.0,-5.463338698399059e-05,-0.016260046635065292,0.1022790375528278,0.0,0.0,0.0,0.0,0.0,0.0,0.0,0.0,0.0,0.027528977006316353,-0.014015231905549564,9.882636030087555,0.0,0.0,0.0,0.0,0.0,0.0,0.0,0.0,0.0
65.448,170,65,447000000,IMU,-1.1839875947541008e-05,-0.0009242429043974872,0.06827473484716791,0.9976661296327646,0.0,0.0,0.0,0.0,0.0,0.0,0.0,0.0,0.0,-0.011155626021091002,-0.042557046874610226,0.12092752425272991,0.0,0.0,0.0,0.0,0.0,0.0,0.0,0.0,0.0,-0.0431690174087714,-0.005174769447423276,9.965019068425093,0.0,0.0,0.0,0.0,0.0,0.0,0.0,0.0,0.0
