Time,header.seq,header.stamp.secs,header.stamp.nsecs,header.frame_id,torques.x,torques.y,torques.z
386.61,87,386,610000000,,0.002710384478799877,-0.003544633526907825,0.024492672457124824
386.62,88,386,620000000,,0.0019770320728049375,-0.0036477432386500417,0.023060317754162864
386.63,89,386,630000000,,0.0014871064143834826,-0.0025599691078055644,0.02152115109343526
386.64,90,386,640000000,,0.0006258448105213502,-0.0029368117197514647,0.019964835567248346
386.65,91,386,650000000,,-0.0010005175004744844,-0.0030537151479580393,0.018387769530162346
386.66,92,386,660000000,,-0.002007057370142409,-0.003008082817234207,0.01684324950027061
386.67,93,386,670000000,,-0.001385007466243601,-0.002980180073743254,0.015389884756826027
386.68,94,386,680000000,,0.0005453614732246476,-0.0031992156613694033,0.014077239209077812
386.69,95,386,690000000,,0.002275093561498019,-0.003066474270542002,0.012843873124039864
386.7,96,386,700000000,,0.0024809791265094677,-0.0023145741978646073,0.011617694674155458
386.71,97,386,710000000,,0.0010164272458432636,-0.0011685908252056126,0.010379503440915839
386.72,98,386,720000000,,-0.0010254037926632892,-0.0002893002857822112,0.009186923316944403
386.73,99,386,730000000,,-0.00218374637284651,-0.000327388108128159,0.008137114123905363
386.74,100,386,740000000,,-0.00171755501893002,-0.001254904121913356,0.007288003773143357
386.75,101,386,750000000,,-8.402824493320927e-05,-0.0023202437888192855,0.006617755899224856
386.76,102,386,760000000,,0.0014626475519852334,-0.002721716499424548,0.006056539266700059
386.77,103,386,770000000,,0.0017900869917574812,-0.002175702523632698,0.005829120798885896
386.78,104,386,780000000,,0.0007630433821406891,-0.0010086973186475656,0.0050613287645863
386.79,105,386,790000000,,-0.0008161669916504279,-3.4956547634315386e-05,0.004670679408527646
386.8,106,386,800000000,,-0.0017544229509856134,1.844183383205429e-05,0.004430326089977247
386.81,107,386,810000000,,-0.0015479131020017145,-0.0007326139512815656,0.004348387783632599
386.82,108,386,820000000,,-0.00021024297543853485,-0.0019704301440483392,0.004449857434476796
386.83,109,386,830000000,,0.0008642274378757892,-0.002451217380136076,0.0045977148623587176
386.84,110,386,840000000,,0.0012461750960176504,-0.001946528985184451,0.004796455839967213
386.85,111,386,850000000,,0.0004452389876334451,-0.001013859966738275,0.005003551263655016
386.86,112,386,860000000,,-0.0007012281041790795,-2.109182044883826e-05,0.005267864234329004
386.87,113,386,870000000,,-0.0013832373571692484,6.590322938000411e-05,0.005637403464398889
386.88,114,386,880000000,,-0.0011498053033762667,-0.0007416507034005891,0.006122982873459208
386.89,115,386,890000000,,-0.00036802842718801685,-0.0016953358348787424,0.006675531553264949
386.9,116,386,900000000,,0.0005550461682882191,-0.0023068544129572896,0.007258467419587951
386.91,117,386,910000000,,0.0008420054633317993,-0.0019216739583367397,0.007810131098656567
386.92,118,386,920000000,,0.00027859863568699807,-0.0008861024407251729,0.008328906463583407
386.93,119,386,930000000,,-0.0005970303033578085,4.02924153932965e-05,0.008857874209868881
386.94,120,386,940000000,,-0.0011390539192362612,0.00012415643586407646,0.009442435558333594
386.95,121,386,950000000,,-0.0010571847862001075,-0.0005975010968634484,0.010082343937183724
386.96,122,386,960000000,,-0.00033216134024532777,-0.0018544124728482442,0.010746929951109591
386.97,123,386,970000000,,0.0003656340980685712,-0.002402007490633021,0.01136010075468589
386.98,124,386,980000000,,0.0006157481648969003,-0.00196921331750723,0.01188977514826859
386.99,125,386,990000000,,0.0002587116727021237,-0.0008218890562633477,0.012348891730915688
387.0,126,387,0,,-0.0004313087457448318,0.00020920275338966423,0.012792537086692257
387.01,127,387,10000000,,-0.0009643539393956272,0.00028652639468727874,0.013270640692242593
387.02,128,387,20000000,,-0.0010025857488733473,-0.0006906053661775185,0.013779018320812967
387.03,129,387,30000000,,-0.0005478125903934474,-0.0019763071055434738,0.014260746014390606
387.04,130,387,40000000,,9.685850648486932e-05,-0.0026166457997388645,0.014652235464778427
387.05,131,387,50000000,,0.0005014573222044301,-0.002120863644213895,0.014931199551515782
387.06,132,387,60000000,,0.00039191611922504083,-0.0007813817346446058,0.015136431340582346
387.07,133,387,70000000,,-0.0001443381799151643,0.00041824355094176546,0.015340941045371832
387.08,134,387,80000000,,-0.0006991422772228002,0.0005649184987339312,0.015588661781366678
387.09,135,387,90000000,,-0.0010589026122582094,-0.0006579971155514598,0.015851663510762733
387.1,136,387,100000000,,-0.0008529378412210427,-0.0021396608162212107,0.016059086583043856
387.11,137,387,110000000,,-0.0002408242259262181,-0.002877399672127307,0.016155789617366485
387.12,138,387,120000000,,0.0003223994401508831,-0.002435607481965304,0.01643442256089917
387.13,139,387,130000000,,0.0005932983267751938,-0.0009519552967762048,0.016388766311110532
387.14,140,387,140000000,,0.0002436737401020553,0.000616410501902268,0.01609766717395139
387.15,141,387,150000000,,-0.0004591261478193248,0.0006742838751728902,0.016156635895963826
387.16,142,387,160000000,,-0.0010818535489804555,-0.0005939923048470851,0.01621246620538411
387.17,143,387,170000000,,-0.0011754261947210121,-0.0022065877696521023,0.016189099759532546
387.18,144,387,180000000,,-0.0006123219024301589,-0.0030115999464585008,0.016061005403723707
387.19,145,387,190000000,,0.00024042302507343947,-0.002414548187418055,0.015878554381157605
387.2,146,387,200000000,,0.000786530159636963,-0.0008149609043643439,0.015731301687383088
387.21,147,387,210000000,,0.0006883050329906295,0.00046175825678966217,0.015665451765746668
387.22,148,387,220000000,,-0.00019746457650059008,0.0005900525115051157,0.01566262210826625
387.23,149,387,230000000,,-0.001136959533309364,-0.0006713493211909558,0.015622521998847847
387.24,150,387,240000000,,-0.0014915990741533709,-0.002246523278795372,0.015488415831342828
387.25,151,387,250000000,,-0.0010656439399035272,-0.00295570900165037,0.015288126098703725
387.26,152,387,260000000,,0.00016456861070205403,-0.002394677229034162,0.015080942335126598
387.27,153,387,270000000,,0.0010197924023665453,-0.0009059671685745052,0.014978924232271481
387.28,154,387,280000000,,0.0009389022091774492,0.0003808158242898297,0.014975893285008219
387.29,155,387,290000000,,-2.3688311026152015e-05,0.00035216670935178624,0.014993844794859677
387.3,156,387,300000000,,-0.0012294721796826666,-0.0008197485263442872,0.014942573236264568
387.31,157,387,310000000,,-0.0017446376562124599,-0.0022337963740406003,0.01479582977219836
387.32,158,387,320000000,,-0.0011351879898911087,-0.0028871099766891485,0.014620597392185415
387.33,159,387,330000000,,0.00015664744413412885,-0.002286837426015019,0.014522500355284924
387.34,160,387,340000000,,0.0011641999309824757,-0.000910755630321425,0.014550336391438105
387.35,161,387,350000000,,0.0011019115247702003,0.00011629879543885304,0.014652938981112052
387.36,162,387,360000000,,-4.329267571496422e-05,4.9705994185116786e-05,0.014725021427420704
387.37,163,387,370000000,,-0.001421099403095157,-0.0009582439849756628,0.014694499373733358
387.38,164,387,380000000,,-0.0019423947949162076,-0.002163056820865439,0.014585795921275615
387.39,165,387,390000000,,-0.0011771671890842231,-0.002706735420042706,0.014506141260204618
387.4,166,387,400000000,,0.0002925232640249599,-0.0021709472550984826,0.014550602881867037
387.41,167,387,410000000,,0.0013343465634007299,-0.0010141200500121221,0.014713638770031767
387.42,168,387,420000000,,0.0011180875155669468,-0.00017485053255543852,0.014896552277113548
387.43,169,387,430000000,,-0.0002675612391968087,-0.00016452951225248385,0.01499096085990541
387.44,170,387,440000000,,-0.0016341539823488869,-0.0010781852877310117,0.014966916440278526
387.45,171,387,450000000,,-0.0020580929436294923,-0.002048902575089396,0.014905208644781167
387.46,172,387,460000000,,-0.0012272161989514828,-0.002538606943548993,0.014926322845137913
387.47,173,387,470000000,,0.0005528578816363058,-0.0021137777372501336,0.015102691405737731
387.48,174,387,480000000,,0.0015244444796739009,-0.0011501106081998704,0.015348069105885903
387.49,175,387,490000000,,0.001025378821805844,-0.0004187544161309847,0.015541375335521393
387.5,176,387,500000000,,-0.0005255293237999733,-0.00035583570242966645,0.015600198376146032
387.51,177,387,510000000,,-0.0019211164305100083,-0.0009921140470458274,0.015556313767044134
387.52,178,387,520000000,,-0.0020849493477678735,-0.001874070368501101,0.015539118714052322
387.53,179,387,530000000,,-0.0007732136834176567,-0.0025022117329128934,0.01565952759227361
387.54,180,387,540000000,,0.0007538333672398717,-0.002118117993504431,0.015903581633326613
387.55,181,387,550000000,,0.0015212368501622089,-0.0014003580580506255,0.016150285830008625
387.56,182,387,560000000,,0.0008530949231550075,-0.0006261874925109399,0.01628847009846875
387.57,183,387,570000000,,-0.000975425252491582,-0.00033073830863980714,0.01625590883895394
387.58,184,387,580000000,,-0.0021653379626048546,-0.0008660673122223928,0.016190210700201605
387.59,185,387,590000000,,-0.0019352359343455486,-0.0018353918741839757,0.016225652148776904
387.6,186,387,600000000,,-0.0004906208757230778,-0.002478768992215143,0.016413593023088546
387.61,187,387,610000000,,0.0009617984459577453,-0.0022532224986115375,0.016664758000931746
387.62,188,387,620000000,,0.0013959850798926322,-0.0015225923173639642,0.016835906730207986
387.63,189,387,630000000,,0.0002921788868534811,-0.0005252898686928422,0.016847937081762764
387.64,190,387,640000000,,-0.00133736968721926,-0.00015856503716331488,0.016754218603303308
387.65,191,387,650000000,,-0.0022105807241487086,-0.0007487369508368854,0.01670471961631951
387.66,192,387,660000000,,-0.0016390092552603529,-0.0018914705730498963,0.016807145733118485
387.67,193,387,670000000,,-0.00012634940687736298,-0.002661226514125827,0.017023293734715693
387.68,194,387,680000000,,0.0010615144511712945,-0.0024072733884884824,0.017213659362021363
387.69,195,387,690000000,,0.0011194388667024218,-0.0014769446729044412,0.017261712972286767
387.7,196,387,700000000,,-0.0001711841437618156,-0.0002525380343920838,0.017169505233710136
387.71,197,387,710000000,,-0.001619419075846803,0.00010514185036751379,0.017063678199725332
387.72,198,387,720000000,,-0.0020919536372305675,-0.0007515963526267275,0.017083621652884632
387.73,199,387,730000000,,-0.0012982770670281667,-0.0020950771469361055,0.01724498948955298
387.74,200,387,740000000,,0.00020389559796450267,-0.002987917420609076,0.01743212321330856
387.75,201,387,750000000,,0.0010367370225804618,-0.0024840884261790996,0.017510909344670915
387.76,202,387,760000000,,0.0007877968088349438,-0.0012465367074732836,0.01745679580527036
387.77,203,387,770000000,,-0.00045484598426650147,0.0001604512013227572,0.01732389507432071
387.78,204,387,780000000,,-0.001677817225343102,0.00037130831741593283,0.01763366212371186
387.79,205,387,790000000,,-0.0019069338440225745,-0.001009924201156638,0.017379792314869653
387.8,206,387,800000000,,-0.0009558765319260152,-0.002585943926283541,0.017549525772436896
387.81,207,387,810000000,,0.0001641169949910152,-0.0031615594615850146,0.01765205099506475
387.82,208,387,820000000,,0.0008467213249614137,-0.0021915694044973865,0.017603138665472865
387.83,209,387,830000000,,0.0003174154110936984,-0.0004430228615413498,0.017484576021973668
387.84,210,387,840000000,,-0.0006977733880062457,0.0006533570578242302,0.017421101074832173
387.85,211,387,850000000,,-0.001659836398517585,0.00014580936869862266,0.017500286507398356
387.86,212,387,860000000,,-0.001639966629236746,-0.0014110934861907842,0.017649468847612305
387.87,213,387,870000000,,-0.0006708039866780358,-0.003112560958321336,0.017763971783858246
387.88,214,387,880000000,,0.0003200898205194392,-0.003096290426217581,0.017747846460199904
387.89,215,387,890000000,,0.0006380681861478008,-0.0015482688975222137,0.017649209404772367
387.9,216,387,900000000,,7.343098752360493e-05,0.00030298027596941437,0.0175913362059446
387.91,217,387,910000000,,-0.000891730756768616,0.0008280546894427796,0.017658588033735746
387.92,218,387,920000000,,-0.001542268710665691,-0.00044824278174043346,0.017810065385375766
387.93,219,387,930000000,,-0.0014638572323046036,-0.0021915427432709755,0.018285772017344055
387.94,220,387,940000000,,-0.0006572774787996448,-0.003368083558387031,0.017922172153666753
387.95,221,387,950000000,,0.00038473011885797203,-0.0025959451625117394,0.017820437488519313
387.96,222,387,960000000,,0.0006058904607381696,-0.000607670803030422,0.017767267855067544
387.97,223,387,970000000,,1.968841892835453e-05,0.0008334116634480252,0.017836874009069952
387.98,224,387,980000000,,-0.0009519017102601006,0.0004441180495014693,0.017992217018306486
387.99,225,387,990000000,,-0.0016024766196742256,-0.001358001817705209,0.018111472330818768
388.0,226,388,0,,-0.0013799852077961215,-0.003000749375940694,0.01810902425800959
388.01,227,388,10000000,,-0.0004182246502640652,-0.003127929486860027,0.01802029892499253
388.02,228,388,20000000,,0.0005076786652819034,-0.0015846996723191554,0.01797144815508472
388.03,229,388,30000000,,0.0006611165106415769,0.0003046542760333741,0.018052732383974625
388.04,230,388,40000000,,-0.00015915758437089702,0.0008985047283393352,0.01822434735381385
388.05,231,388,50000000,,-0.001220995505892051,-0.0004639473640346419,0.018719430189377557
388.06,232,388,60000000,,-0.0018514554949617497,-0.002219513423323355,0.018340074938767905
388.07,233,388,70000000,,-0.0012954626040141226,-0.00314156654813873,0.018235920430331128
388.08,234,388,80000000,,-3.454489136729879e-05,-0.0023588947968071388,0.018174998554955205
388.09,235,388,90000000,,0.0008865379979455534,-0.0005295152204892854,0.01825989431107825
388.1,236,388,100000000,,0.0006737300098828528,0.000674275726216015,0.018446633481217736
388.11,237,388,110000000,,-0.0004327814133449606,0.00037439147276156705,0.018594082460790234
388.12,238,388,120000000,,-0.0018904270342169542,-0.0013497981630366947,0.018581237583121656
388.13,239,388,130000000,,-0.0020266654484359186,-0.0027058390483626973,0.01845834007016243
388.14,240,388,140000000,,-0.0008462107829796539,-0.0027141965217954253,0.01838002999087055
388.15,241,388,150000000,,0.0006137781080050713,-0.0012835472255589124,0.01846545624093835
388.16,242,388,160000000,,0.001249089355420267,-6.406287243570212e-05,0.018658561270559
388.17,243,388,170000000,,0.00017248710959050814,0.00041496313998145434,0.019197048789313574
388.18,244,388,180000000,,-0.0015047419965557056,-0.0005347063186231958,0.01880721834935963
388.19,245,388,190000000,,-0.0023967401693351796,-0.0017905607449066698,0.018674677062132546
388.2,246,388,200000000,,-0.0016491507259242693,-0.0025894501212143763,0.018556128438124903
388.21,247,388,210000000,,0.00010577230563266658,-0.0019312155775328811,0.018631664672246445
388.22,248,388,220000000,,0.001319321749475288,-0.0006083137061836829,0.01884209433277669
388.23,249,388,230000000,,0.0008740188056235164,0.00018428648916555925,0.01901125460513136
388.24,250,388,240000000,,-0.0009021076254344766,-8.97896973542212e-05,0.01900017332396747
388.25,251,388,250000000,,-0.002428973257644974,-0.0011135861431412764,0.018839398080130316
388.26,252,388,260000000,,-0.002291765072026134,-0.002061977213918784,0.01871610947304329
388.27,253,388,270000000,,-0.000597098594027334,-0.0021148716044386852,0.01878394815922425
388.28,254,388,280000000,,0.0011225721423273832,-0.0012646040550240536,0.018999778326562935
388.29,255,388,290000000,,0.001298607519406157,-0.00030574883400845534,0.01917627372914527
388.3,256,388,300000000,,-0.0002691924291862791,5.2518907937907794e-05,0.01916522924773292
388.31,257,388,310000000,,-0.0021773608117061994,-0.00039221976151366015,0.018995683190806502
388.32,258,388,320000000,,-0.002700329924662215,-0.001216133020733341,0.019257615761539046
388.33,259,388,330000000,,-0.0012526066564482934,-0.001971161734656053,0.01891332955589203
388.34,260,388,340000000,,0.0006905600909534362,-0.001742963398519397,0.01950689149776263
388.35,261,388,350000000,,0.0014497817239710036,-0.0009175346202767805,0.019285179774108138
388.36,262,388,360000000,,0.00026886661919617484,-8.687718686156365e-05,0.01926324274543419
388.37,263,388,370000000,,-0.001756729392129229,0.00013742873161113798,0.019084106806214144
388.38,264,388,380000000,,-0.0027398792313191134,-0.0005078944278549711,0.018946807386247256
388.39,265,388,390000000,,-0.0017790178841502228,-0.0015173374735161886,0.019008964263047948
388.4,266,388,400000000,,0.00018439634973715482,-0.001971944043181035,0.0192161536254022
388.41,267,388,410000000,,0.0013261102115326316,-0.0014761213920003156,0.019374170905876942
388.42,268,388,420000000,,0.0006102352986862273,-0.00038240366248258893,0.01934427873796498
388.43,269,388,430000000,,-0.001289035714219339,0.00047390358519992906,0.019172710112311864
388.44,270,388,440000000,,-0.0025778978210614124,0.00026709391639657585,0.019055979584242506
388.45,271,388,450000000,,-0.0020713979786463462,-0.0009153392411857036,0.019133771228887188
388.46,272,388,460000000,,-0.0003494276182913069,-0.0018944081267420166,0.019335887908371308
388.47,273,388,470000000,,0.0010692800054894072,-0.002009075180360462,0.019472353864951934
388.48,274,388,480000000,,0.0007592512914960034,-0.000742321484221779,0.01942684485660743
388.49,275,388,490000000,,-0.000850521704344452,0.0006513966141316285,0.01926638576337754
388.5,276,388,500000000,,-0.0022780393670453446,0.0010099640810946314,0.019181814194135727
388.51,277,388,510000000,,-0.0020896836995421696,-0.00035235755361119066,0.019674725753641542
388.52,278,388,520000000,,-0.0007377914412746338,-0.0018120913451325422,0.019458678973475745
388.53,279,388,530000000,,0.0006350990009188132,-0.0022290459403377983,0.019557084267165133
388.54,280,388,540000000,,0.0008118142716978021,-0.0012517225731840393,0.01949887339548177
388.55,281,388,550000000,,-0.0004956391129050478,0.0007564754223484322,0.019335713113528042
388.56,282,388,560000000,,-0.001850776004829355,0.0015674221510555756,0.019290960037520313
388.57,283,388,570000000,,-0.0020457815702089165,0.0004579107063478921,0.01939855761345411
388.58,284,388,580000000,,-0.0010300003273690202,-0.0015865342053340181,0.019579267389777392
388.59,285,388,590000000,,0.00021220259321698905,-0.002405630089763293,0.019630812394711063
388.6,286,388,600000000,,0.0006077429876519554,-0.0015066889253959738,0.019943573414393595
388.61,287,388,610000000,,-0.00017859965868163158,0.0008068736965698275,0.019398045602459807
388.62,288,388,620000000,,-0.001207617752932712,0.001898418606874746,0.01939330293012597
388.63,289,388,630000000,,-0.0017913909699299446,0.0008309725850263155,0.019546119281246357
388.64,290,388,640000000,,-0.0012666830910688547,-0.0012828071284207978,0.019679174443685114
388.65,291,388,650000000,,-0.00034545986418440134,-0.0023948582272211643,0.019684119752465735
388.66,292,388,660000000,,0.00039410478781145647,-0.0014320052756819318,0.019548117926508013
388.67,293,388,670000000,,9.242715334322079e-05,0.0008332165361736337,0.019460320846489736
388.68,294,388,680000000,,-0.0007798057688187477,0.0021330749315301325,0.019524526573394665
388.69,295,388,690000000,,-0.0014438862896989184,0.0011684166784100036,0.019683252911291534
388.7,296,388,700000000,,-0.001385620848485043,-0.0010354574149106122,0.01977234664885978
388.71,297,388,710000000,,-0.0007373134713387079,-0.0022949830357931905,0.01971912132526696
388.72,298,388,720000000,,0.00016726308989975026,-0.001424353507027879,0.01956893017330948
388.73,299,388,730000000,,0.0003023235866123639,0.0008683338461443306,0.019531761907332808
388.74,300,388,740000000,,-0.0002979657295753476,0.0023088857111020667,0.01965206907415118
388.75,301,388,750000000,,-0.001127854327780306,0.0013891658024711912,0.019810296413576133
388.76,302,388,760000000,,-0.001503396559940355,-0.0008094448002815237,0.019840923476244204
388.77,303,388,770000000,,-0.001034358532779805,-0.0020481547801391117,0.019716141265009694
388.78,304,388,780000000,,-2.3257707609104294e-05,-0.0013579826237126945,0.019584649433412624
388.79,305,388,790000000,,0.0005028903051650156,0.0009688735540276868,0.019608961544652758
388.8,306,388,800000000,,0.00015200395254539938,0.0023043212024433947,0.01977498713457537
388.81,307,388,810000000,,-0.000867204853856009,0.001432165624891179,0.019909965619296453
388.82,308,388,820000000,,-0.0016371940316349854,-0.0006370677642578439,0.019869068497134042
388.83,309,388,830000000,,-0.0013338354091981936,-0.0018612611128824008,0.01969784014577021
388.84,310,388,840000000,,-0.0001825072720848078,-0.0010176541963167092,0.019595728121639545
388.85,311,388,850000000,,0.0007398326904922886,0.0010739810964423765,0.019687260716741137
388.86,312,388,860000000,,0.0005310084501952647,0.0022428056855751358,0.019877988835527695
388.87,313,388,870000000,,-0.0007107747988865844,0.0014087853749672936,0.019963705045324305
388.88,314,388,880000000,,-0.0018017910941429893,-0.0004477813987337652,0.019846828739144562
388.89,315,388,890000000,,-0.0016826086624988639,-0.0014771041176087805,0.019659646606306147
388.9,316,388,900000000,,-0.0003453180949896324,-0.0008212854509327522,0.01999872959974933
388.91,317,388,910000000,,0.0009852930409573635,0.0010224050238732772,0.01973098711329627
388.92,318,388,920000000,,0.0008390239609190194,0.0021798584941727464,0.01993048098314907
388.93,319,388,930000000,,-0.0006635782758485504,0.0014059593809681342,0.01994020925497868
388.94,320,388,940000000,,-0.0019753986988079396,-0.00018388072146872516,0.019753830564421856
388.95,321,388,950000000,,-0.0017173250693070393,-0.0009617365835642974,0.019571192646274174
388.96,322,388,960000000,,-6.072389653460244e-05,-0.00030608727098996514,0.019595583014662663
388.97,323,388,970000000,,0.0013047614511845287,0.001138825012851144,0.01979040017937979
388.98,324,388,980000000,,0.000949038367876688,0.0019664845940677205,0.019934351894825692
388.99,325,388,990000000,,-0.0007997576729703986,0.0013622434996822166,0.019861620733548694
389.0,326,389,0,,-0.002173701469896629,0.00011644159448444676,0.01963894811966684
389.01,327,389,10000000,,-0.001694726627447622,-0.0005534842777474027,0.01951162087239637
389.02,328,389,20000000,,0.00017448423713128065,3.399012548021819e-05,0.019616285756957594
389.03,329,389,30000000,,0.0015153335990174275,0.0012201030135585472,0.019821890822495185
389.04,330,389,40000000,,0.0009271044840587361,0.0018294256168128063,0.01989466548721342
389.05,331,389,50000000,,-0.0010258289257995858,0.0014480725023001389,0.01974391504830903
389.06,332,389,60000000,,-0.002310917916935514,0.0005859027446791768,0.019527049206414133
389.07,333,389,70000000,,-0.0014868977322216143,-0.00014284752079665627,0.019485229410281604
389.08,334,389,80000000,,0.0005155980074529879,0.0002957187373950853,0.01965097408866307
389.09,335,389,90000000,,0.0016669390087843824,0.0011900190359850316,0.019823090269939864
389.1,336,389,100000000,,0.0007436416109879095,0.0017918573416162735,0.01980333804365962
389.11,337,389,110000000,,-0.0011127596546119758,0.001744808385208558,0.019616739814693307
389.12,338,389,120000000,,-0.0023270772296002757,0.0010459990044616521,0.01943480040790367
389.13,339,389,130000000,,-0.001157442423067701,0.00033861722986878643,0.019888102905106834
389.14,340,389,140000000,,0.0008818723538751748,0.00042717903419502216,0.01966442904555726
389.15,341,389,150000000,,0.0016907425025935291,0.0011581659242580783,0.019757818254147862
389.16,342,389,160000000,,0.00042629467946260935,0.0019026791158031028,0.019643874641019885
389.17,343,389,170000000,,-0.0015582854814563715,0.002051749801123714,0.01943745466514208
389.18,344,389,180000000,,-0.002109429984997668,0.0014068095306368799,0.01936433945772428
389.19,345,389,190000000,,-0.0006584665812664695,0.0006186649292491362,0.019486643878470745
389.2,346,389,200000000,,0.0012192531540857433,0.0005908664230754088,0.019637477573770715
389.21,347,389,210000000,,0.0015924507091640392,0.0011909738114201976,0.019631349113498613
389.22,348,389,220000000,,0.00026680116021897686,0.00216226778713006,0.019475626758265974
389.23,349,389,230000000,,-0.0017161384228888195,0.0025186722742555926,0.019314565083022053
389.24,350,389,240000000,,-0.0017623017159036033,0.0017448280667422507,0.019345732939117653
389.25,351,389,250000000,,-0.00012484144090459814,0.0007409223748906404,0.01949205360426525
389.26,352,389,260000000,,0.001445477426840419,0.0005915319972354236,0.019562348248478124
389.27,353,389,270000000,,0.0013295960481763884,0.0015324435835279645,0.019463368167665047
389.28,354,389,280000000,,-0.0002960134365745753,0.002749923842216831,0.019298166183996004
389.29,355,389,290000000,,-0.0016067620535669261,0.002962421066403478,0.01925020176959351
389.3,356,389,300000000,,-0.0012064737821204869,0.0018878017053073075,0.01935466361832444
389.31,357,389,310000000,,0.00041186207371153723,0.0007203559697075518,0.019460119884582208
389.32,358,389,320000000,,0.0015436699165961665,0.000730898735348964,0.019424437067657504
389.33,359,389,330000000,,0.0010223576826550028,0.0020304768109877234,0.019275617296006103
389.34,360,389,340000000,,-0.0005097895632051282,0.0033648452761737,0.019177784092605225
389.35,361,389,350000000,,-0.0013315154909563267,0.0032518894642995476,0.019231779419676732
389.36,362,389,360000000,,-0.0006226781259179475,0.0018165415034344706,0.019345040789138037
389.37,363,389,370000000,,0.0008224761120617556,0.0006615309388755312,0.019354828085526115
389.38,364,389,380000000,,0.0014998947386359411,0.0010677588641613536,0.01922938980409226
389.39,365,389,390000000,,0.0008729369717529314,0.0025755999052079763,0.019100314619636388
389.4,366,389,400000000,,-0.0005671147742122022,0.003959857932680158,0.01910896382155993
389.41,367,389,410000000,,-0.0009435689380723983,0.0033164466655626603,0.019218971684333442
389.42,368,389,420000000,,-9.744273777032814e-05,0.001599508988367644,0.019267025173971518
389.43,369,389,430000000,,0.0010818035526586323,0.0007101314704181336,0.019165295870409292
389.44,370,389,440000000,,0.0013764114281259814,0.001687912146861329,0.0190116899255975
389.45,371,389,450000000,,0.0005552313021126439,0.0036042535624719392,0.019359454038548624
389.46,372,389,460000000,,-0.00029476396541184934,0.004361891434051382,0.01942839204818704
389.47,373,389,470000000,,-0.00047376995866275467,0.0030630219425450207,0.019133739042868227
389.48,374,389,480000000,,0.00033582283883048185,0.0012979532706373685,0.01905976126872053
389.49,375,389,490000000,,0.0012257933439285954,0.0009646121500286159,0.01887726598772461
389.5,376,389,500000000,,0.0012772265415673973,0.002549194395917955,0.018774635640921987
389.51,377,389,510000000,,0.0005549703447018415,0.004359497080774492,0.01884519782608487
389.52,378,389,520000000,,-0.00011038601355782219,0.004368126201371561,0.018968024348287867
389.53,379,389,530000000,,-7.219774989465001e-05,0.002658440299249495,0.01895361473121307
389.54,380,389,540000000,,0.0006500670784591324,0.0011590929223587797,0.018773092141468602
389.55,381,389,550000000,,0.0012870825309072417,0.001433301940683278,0.018604841673168455
389.56,382,389,560000000,,0.0012811800454615172,0.003590441239032598,0.018629089412933814
389.57,383,389,570000000,,0.0006856590426733945,0.004897075762602438,0.018778158563518655
389.58,384,389,580000000,,0.00015225295206243303,0.004114857884186891,0.018840078391192172
389.59,385,389,590000000,,0.00022466936016501921,0.0022116238026668026,0.01869641943297127
389.6,386,389,600000000,,0.0008877231768255426,0.0013119305961273341,0.018477335787624956
389.61,387,389,610000000,,0.0014648017838543486,0.0025151215325004126,0.018418144839569356
389.62,388,389,620000000,,0.0014183859320444766,0.004500386192521744,0.01855739230683328
389.63,389,389,630000000,,0.0009275142205775387,0.005089311404026512,0.01869184925821828
389.64,390,389,640000000,,0.0003540734638606595,0.003836922216246487,0.019007046244636283
389.65,391,389,650000000,,0.0004380444717878396,0.0018487534787818838,0.018371081315125198
389.66,392,389,660000000,,0.0011371230731087,0.0018055250632972514,0.01821362986961602
389.67,393,389,670000000,,0.0017061595554549308,0.0035766556099255547,0.018293839828413958
389.68,394,389,680000000,,0.0016010866671385422,0.005169508697221304,0.018471340180648547
389.69,395,389,690000000,,0.0010097572959082142,0.004967011512267559,0.01850460483880393
389.7,396,389,700000000,,0.00038688165332935204,0.00306935028067767,0.018281196464380183
389.71,397,389,710000000,,0.0006562291445715538,0.001880101881120943,0.018044253148120293
389.72,398,389,720000000,,0.0014907467327153984,0.0027161047321107258,0.018031483064607088
389.73,399,389,730000000,,0.0020344806065705633,0.004594058868125514,0.018210097080705638
389.74,400,389,740000000,,0.0018058433358497145,0.005427842454086002,0.01868001865792128
389.75,401,389,750000000,,0.0008566188681582603,0.0043433696522348466,0.018175879678370487
389.76,402,389,760000000,,0.00042547126779262967,0.0027192926896348287,0.017901987525655753
389.77,403,389,770000000,,0.0009953220723361933,0.0024060673939672777,0.01777896874021806
389.78,404,389,780000000,,0.0019823831384869904,0.0038370467215260366,0.017905556869336137
389.79,405,389,790000000,,0.0023474043001724034,0.00534107297233481,0.018073393956817858
389.8,406,389,800000000,,0.0016800863072766543,0.0053230968710365105,0.018036019350525536
389.81,407,389,810000000,,0.0007154467167658518,0.0038981572717786354,0.01778400853012545
389.82,408,389,820000000,,0.0006333931556660828,0.0027369290064964053,0.01757424143257349
389.83,409,389,830000000,,0.0015338465298915898,0.003305450402799301,0.017614792662804486
389.84,410,389,840000000,,0.0025434544143561567,0.004868813670196354,0.01779645955539441
389.85,411,389,850000000,,0.0024981964505343987,0.005687768105934732,0.017851701621051787
389.86,412,389,860000000,,0.0014491596914288807,0.0049537572231062475,0.017665457541788696
389.87,413,389,870000000,,0.0006165482322193584,0.0035815159220598347,0.01741074811726311
389.88,414,389,880000000,,0.0010413302120505143,0.003205853511654602,0.01735151367425831
389.89,415,389,890000000,,0.002288996292081567,0.004318401977140434,0.01749853141572249
389.9,416,389,900000000,,0.0029955405381635373,0.005599075804624472,0.017615694148791442
389.91,417,389,910000000,,0.0023675869631962702,0.005666359783470703,0.017514671439879163
389.92,418,389,920000000,,0.0011132516612279968,0.004581599050648217,0.01726432932923732
389.93,419,389,930000000,,0.0007533814710910781,0.0036450477269536373,0.017120483025800583
389.94,420,389,940000000,,0.0017724604351123257,0.004018816567668716,0.017198656838726383
389.95,421,389,950000000,,0.0030508394784919787,0.0052649328195496226,0.017335373468261226
389.96,422,389,960000000,,0.003245184608064493,0.0059465744916593405,0.017324406053290917
389.97,423,389,970000000,,0.0019656465875096873,0.005432960527202857,0.01710491076418294
389.98,424,389,980000000,,0.0008917296577942176,0.004406165169880812,0.01691199832205055
389.99,425,389,990000000,,0.00126874906965193,0.00412090124282649,0.01691051897589018
390.0,426,390,0,,0.002570878315986374,0.004843459117438156,0.017016410747745393
390.01,427,390,10000000,,0.0036323993507560246,0.005942649332656299,0.017056649607841038
390.02,428,390,20000000,,0.0029663582991216967,0.006004941249395375,0.016909052208607864
390.03,429,390,30000000,,0.0015199386237892197,0.005239907132292627,0.016707917316489546
390.04,430,390,40000000,,0.0010680287981775797,0.0045950266463623875,0.01664007884346571
390.05,431,390,50000000,,0.002198394153202203,0.004883864942939695,0.016710999058991868
390.06,432,390,60000000,,0.003656612609415793,0.005752237703856085,0.01675851573559052
390.07,433,390,70000000,,0.00378034560912484,0.006209343665470048,0.016665025858214232
390.08,434,390,80000000,,0.0024344845917713396,0.005881057062472993,0.01648608043825189
390.09,435,390,90000000,,0.0012717979384793071,0.005243595422649983,0.016379987179906304
390.1,436,390,100000000,,0.001730867734476635,0.005106864276986114,0.016399653523930847
390.11,437,390,110000000,,0.0033383866229469436,0.005658803338807934,0.01643559549566683
390.12,438,390,120000000,,0.004267388733590243,0.0062303627410624784,0.016374481755025743
390.13,439,390,130000000,,0.0034387603417464184,0.006272780048548599,0.01622967263272347
390.14,440,390,140000000,,0.00202111010637176,0.0059379061698582114,0.016111621953667603
390.15,441,390,150000000,,0.001522324886522849,0.005549823247975808,0.016097206464430917
390.16,442,390,160000000,,0.00284135962024526,0.0057508408239859,0.01610550431038357
390.17,443,390,170000000,,0.004356696945469218,0.006202297284293492,0.016049959070104664
390.18,444,390,180000000,,0.004297703308387853,0.006431839574613358,0.01593211866637302
390.19,445,390,190000000,,0.002789284106129037,0.0063358741406341415,0.015832002111160547
390.2,446,390,200000000,,0.0017174962321652542,0.0061181198136535655,0.015797731515438496
390.21,447,390,210000000,,0.0024183592355482386,0.006095178894985759,0.01577912785874181
390.22,448,390,220000000,,0.004039007215927261,0.006196607588117015,0.016028927271457594
390.23,449,390,230000000,,0.004852802320887945,0.006604019989050723,0.015586700341937201
390.24,450,390,240000000,,0.003810031676086684,0.006586649606280515,0.015502662633124964
390.25,451,390,250000000,,0.002287120303483533,0.00659509986924008,0.015473442553739931
390.26,452,390,260000000,,0.0022194902821017753,0.006569473237825091,0.015440679974607022
390.27,453,390,270000000,,0.003764614889321978,0.006549115537928798,0.01534352740672578
390.28,454,390,280000000,,0.005133156112972215,0.006537228231339725,0.015214114139235126
390.29,455,390,290000000,,0.004742730549919083,0.00651502962683411,0.01513868178552402
390.3,456,390,300000000,,0.0030280198551690964,0.00703236703602323,0.015133019492463222
390.31,457,390,310000000,,0.0023621614029744704,0.006924941110113973,0.015112840656027039
390.32,458,390,320000000,,0.003319913146440147,0.007132717343775521,0.015001012265545966
390.33,459,390,330000000,,0.004954442962216864,0.006754126844715197,0.014841597772398435
390.34,460,390,340000000,,0.005413148546271046,0.006658941362808791,0.014751023690926538
390.35,461,390,350000000,,0.004210907024923126,0.006960742993956366,0.014757512137011531
390.36,462,390,360000000,,0.002707691507737052,0.007439179090695002,0.014780609240491509
390.37,463,390,370000000,,0.003118799785071617,0.007520566627823313,0.01467351106133937
390.38,464,390,380000000,,0.004825110295985545,0.007104860224038199,0.014477087250166394
390.39,465,390,390000000,,0.005792254674519898,0.0067173525234821094,0.01434919912735603
390.4,466,390,400000000,,0.004895610795168045,0.006955594858384429,0.014371593636281954
390.41,467,390,410000000,,0.003366990380367086,0.007649765171510409,0.014427618686152768
390.42,468,390,420000000,,0.003129850379880482,0.008048602245961704,0.014349860682727256
390.43,469,390,430000000,,0.004545255467635448,0.007653301560307883,0.014129021841653235
390.44,470,390,440000000,,0.006009632555534799,0.006747523617499119,0.013943547563199281
390.45,471,390,450000000,,0.005589822880824283,0.007048275950447689,0.013943734253335865
390.46,472,390,460000000,,0.0041493648681190775,0.007648764550924303,0.014039757497335584
390.47,473,390,470000000,,0.0033762902602750846,0.008434272020700096,0.014014332896668213
390.48,474,390,480000000,,0.004329045732995406,0.008289696744446321,0.013793178000209077
390.49,475,390,490000000,,0.005929353253218598,0.007341263864665844,0.013545269685549297
390.5,476,390,500000000,,0.006229922868512918,0.006832073552997605,0.013492963741780677
390.51,477,390,510000000,,0.004952039200877365,0.007492480823101212,0.013610567622685747
390.52,478,390,520000000,,0.003808915408426404,0.008626395375988128,0.013651643504127127
390.53,479,390,530000000,,0.004250243717943687,0.008916383557404022,0.013461119657882964
390.54,480,390,540000000,,0.005806185529539113,0.00795060339937548,0.013163080217640118
390.55,481,390,550000000,,0.006602398662310893,0.006961158597542955,0.013033392125014044
390.56,482,390,560000000,,0.005703732661542116,0.007274977616885088,0.013142151679556164
390.57,483,390,570000000,,0.004379637064907977,0.008598835457569062,0.013250067822477323
390.58,484,390,580000000,,0.004342876042296146,0.009417477078049753,0.013120267791070355
390.59,485,390,590000000,,0.005685440752232526,0.008688616909640014,0.012799260787544026
390.6,486,390,600000000,,0.006813844151561389,0.007307129710678741,0.012580920094052556
390.61,487,390,610000000,,0.006354065481580588,0.007094949941004021,0.012644588452715178
390.62,488,390,620000000,,0.005012524035707344,0.008388730088538398,0.012803950652260886
390.63,489,390,630000000,,0.004582787465298254,0.009715704808414544,0.012756868223020518
390.64,490,390,640000000,,0.005629729891128815,0.009455748505712137,0.012449390754030914
390.65,491,390,650000000,,0.0069228868269464484,0.007882068213621604,0.012148932954512536
390.66,492,390,660000000,,0.0068866844746101885,0.007050469319356708,0.012133687467807318
390.67,493,390,670000000,,0.0056535149052863954,0.008068643889752052,0.012314762852670205
390.68,494,390,680000000,,0.004927647946156278,0.009777651867132222,0.012358780736161165
390.69,495,390,690000000,,0.0056641293669790664,0.01014116475825394,0.012102988262377433
390.7,496,390,700000000,,0.006992966239753079,0.00864524972379528,0.011744693541465135
390.71,497,390,710000000,,0.007313760210537035,0.007216210360866088,0.011627473413629583
390.72,498,390,720000000,,0.0062702465060290756,0.007730541974152626,0.011790813433126577
390.73,499,390,730000000,,0.005334726930170765,0.009616116691513,0.011917764604857103
390.74,500,390,740000000,,0.005778873106104974,0.010650838809394514,0.011745673056290639
390.75,501,390,750000000,,0.007071035330689167,0.009513476295789452,0.011367378375100434
390.76,502,390,760000000,,0.007676568175980563,0.00776621166369801,0.011126477775229687
390.77,503,390,770000000,,0.006860861994598456,0.0074490627884263,0.011247512844268188
390.78,504,390,780000000,,0.0057808000589749334,0.009261159548091214,0.011434117217828544
390.79,505,390,790000000,,0.00594689139293192,0.010912113854878322,0.011367274885605065
390.8,506,390,800000000,,0.007174133965077242,0.010371411186293221,0.0110158362569117
390.81,507,390,810000000,,0.007980001660269355,0.008279936002947167,0.010700510982235872
390.82,508,390,820000000,,0.007400400530841717,0.007370375075090129,0.0107130726933203
390.83,509,390,830000000,,0.006235772527078285,0.00884202449214274,0.010923681937919212
390.84,510,390,840000000,,0.0061359328303396445,0.010943586855219744,0.010967027382624315
390.85,511,390,850000000,,0.00729238994865015,0.011138161037459682,0.010686469320707702
390.86,512,390,860000000,,0.008284302916364386,0.009130761383288721,0.010314606651095562
390.87,513,390,870000000,,0.00793776007230842,0.007507973856912299,0.010215075001049609
390.88,514,390,880000000,,0.006725615481197898,0.008396238098964634,0.010405172025856224
390.89,515,390,890000000,,0.006340909077131016,0.010731401287073651,0.010544421358321503
390.9,516,390,900000000,,0.007397784662440163,0.01170849020589803,0.010368089617822445
390.91,517,390,910000000,,0.00858099201278676,0.010084739629435237,0.009985586424345393
390.92,518,390,920000000,,0.008478733259700078,0.00790782514759514,0.009772763423401675
390.93,519,390,930000000,,0.007256168266641047,0.008027209378702065,0.009896967752329086
390.94,520,390,940000000,,0.006567026123330637,0.010329420598842912,0.01009988497969525
390.95,521,390,950000000,,0.007462917685242614,0.012033288911894036,0.010044326827259914
390.96,522,390,960000000,,0.008848202488638516,0.011042866050870586,0.00970074055759486
390.97,523,390,970000000,,0.009099250512906163,0.008186203633175609,0.009394951077977085
390.98,524,390,980000000,,0.007745536965368334,0.008210514143232919,0.009415523565294388
390.99,525,390,990000000,,0.006846834085281716,0.009806417462866255,0.009636543573918056
391.0,526,391,0,,0.007374040501677266,0.011950470233059554,0.009709269918615683
391.01,527,391,10000000,,0.009060506934725744,0.01192970689614679,0.00943770538559808
391.02,528,391,20000000,,0.009636706055233727,0.009728289965464326,0.009081883509504294
391.03,529,391,30000000,,0.008537310158129927,0.007820435218387241,0.008975017032316793
391.04,530,391,40000000,,0.0072144312000349126,0.009200034534666482,0.009161661738611507
391.05,531,391,50000000,,0.007473073214525903,0.011862394314473874,0.009316755583311753
391.06,532,391,60000000,,0.00913787427250255,0.012569512126800719,0.009170859160686124
391.07,533,391,70000000,,0.010120182601696837,0.010441726293635892,0.008807410267726471
391.08,534,391,80000000,,0.009252910683160304,0.008155898353548553,0.008585869995678707
391.09,535,391,90000000,,0.007676525650965506,0.008654997817165666,0.008688832548563945
391.1,536,391,100000000,,0.007460318599917988,0.011405701307670619,0.0088957005371681
391.11,537,391,110000000,,0.009084701522626462,0.012989915193522385,0.00887563824741062
391.12,538,391,120000000,,0.010551193862782674,0.011487347094015757,0.008563860704373911
391.13,539,391,130000000,,0.010121930076511425,0.008307812578274197,0.008251350483723803
391.14,540,391,140000000,,0.008182393300021676,0.008783655779536837,0.008235496681356824
391.15,541,391,150000000,,0.00753172060453291,0.010812582301952577,0.008441395283740437
391.16,542,391,160000000,,0.008930227397308829,0.013132704910548711,0.008535993597217526
391.17,543,391,170000000,,0.010842002102157976,0.012480835384613918,0.008322720215642948
391.18,544,391,180000000,,0.010892425442053023,0.009632400465964542,0.007967544940240698
391.19,545,391,190000000,,0.009090530336473984,0.008192981628185063,0.007820914226968703
391.2,546,391,200000000,,0.00773183247295819,0.010079331490427635,0.007969032817402064
391.21,547,391,210000000,,0.008660422254253165,0.012960299386936026,0.008144437431673804
391.22,548,391,220000000,,0.010893735401274803,0.013313152580766792,0.008057921642028924
391.23,549,391,230000000,,0.011659254687703976,0.010712786832626974,0.00772180803384712
391.24,550,391,240000000,,0.010053941156834976,0.008388156975328204,0.007458370320483888
391.25,551,391,250000000,,0.008144997011618573,0.00935789155045027,0.007500775575069387
391.26,552,391,260000000,,0.0084030529921337,0.012464793221030149,0.0077049740239928015
391.27,553,391,270000000,,0.010779622732920645,0.013364369028873094,0.007748895290770701
391.28,554,391,280000000,,0.012147943878701922,0.012413291449600987,0.0074907377221845334
391.29,555,391,290000000,,0.011152179106247533,0.008946878498654899,0.007153749866165464
391.3,556,391,300000000,,0.008840760314776003,0.008763646705523655,0.00706197049207857
391.31,557,391,310000000,,0.00825700124183302,0.011689667355144437,0.007233646174597606
391.32,558,391,320000000,,0.010383127892667517,0.013550060948789093,0.00738228775045373
391.33,559,391,330000000,,0.012365137599422893,0.01383806705760086,0.007269559754408717
391.34,560,391,340000000,,0.012310527370397215,0.009822105038691978,0.006899960146389831
391.35,561,391,350000000,,0.009841729981932772,0.008429768869767986,0.006674735598996435
391.36,562,391,360000000,,0.008357562802712087,0.010384037651263821,0.006727529875095716
391.37,563,391,370000000,,0.009750506997537496,0.01390998356562012,0.006957550574487494
391.38,564,391,380000000,,0.012333432844630765,0.014230316133843257,0.006980534380804659
391.39,565,391,390000000,,0.013307343635569,0.011051489754522853,0.00667861151091277
391.4,566,391,400000000,,0.011120865348413991,0.008525646171469777,0.006353600606010127
391.41,567,391,410000000,,0.008757108250370047,0.009735423115043768,0.006299009365315934
391.42,568,391,420000000,,0.009261554814843935,0.013215719562327262,0.0064892300785394045
391.43,569,391,430000000,,0.012171405920593866,0.014678874610531061,0.006622750138125915
391.44,570,391,440000000,,0.013994489657600145,0.012377555337425518,0.006456867926723299
391.45,571,391,450000000,,0.012462854875510762,0.009123442887056738,0.006098090412706603
391.46,572,391,460000000,,0.009828399828513485,0.008863523215492969,0.006030650382193325
391.47,573,391,470000000,,0.008885262476532452,0.011596914474510478,0.0060029495311066505
391.48,574,391,480000000,,0.011264389929057057,0.015513866472605456,0.006210633393667247
391.49,575,391,490000000,,0.014229305022608454,0.013756527334449502,0.00619764674471475
391.5,576,391,500000000,,0.013873978086457983,0.010176127523061438,0.005883918736263722
391.51,577,391,510000000,,0.010786960415864964,0.008543488654323562,0.005561797517648428
391.52,578,391,520000000,,0.008926590802746399,0.010331785924201411,0.0055340312738982175
391.53,579,391,530000000,,0.010417467657030168,0.015178052756681562,0.005745848121728308
391.54,580,391,540000000,,0.013972008390898773,0.014892942288728755,0.005879860241443057
391.55,581,391,550000000,,0.015052002496301408,0.0116153552442004,0.0056888866489186
391.56,582,391,560000000,,0.012432155854070405,0.008685607426468036,0.005312646112072204
391.57,583,391,570000000,,0.009403332399828842,0.009706409095073863,0.00512296135028692
391.58,584,391,580000000,,0.009518781400387356,0.013193303890350337,0.00523065845285956
391.59,585,391,590000000,,0.013148283264671892,0.015620888560509602,0.00549096418540081
391.6,586,391,600000000,,0.01567950877308441,0.013338656026149486,0.0054695624946569585
391.61,587,391,610000000,,0.014288828265890766,0.00886516671695087,0.005131898138758797
391.62,588,391,620000000,,0.010470951179220736,0.009505738542429674,0.00480002445259838
391.63,589,391,630000000,,0.009294010657255852,0.012137871162842411,0.004791215873815063
391.64,590,391,640000000,,0.01163653400867574,0.015325623559420012,0.005012941585243252
391.65,591,391,650000000,,0.015662502323916895,0.014897344626561568,0.005183606821798642
391.66,592,391,660000000,,0.015952311177549187,0.010285133872340346,0.0049751138825704705
391.67,593,391,670000000,,0.012282772645221346,0.009227656326133375,0.004572035833575604
391.68,594,391,680000000,,0.009507590553909016,0.010496478427494583,0.004382507097414295
391.69,595,391,690000000,,0.010764284836688873,0.014641302782198344,0.004545324018335264
391.7,596,391,700000000,,0.014858721106108506,0.015218240781680497,0.004807907643520369
391.71,597,391,710000000,,0.016784471004022885,0.013560138157441625,0.004785457418857962
391.72,598,391,720000000,,0.014544068251508278,0.009022914036221987,0.0044194588224931814
391.73,599,391,730000000,,0.01055383775287942,0.009052164746203017,0.0040671596076182395
391.74,600,391,740000000,,0.009815863369081641,0.013035089605084479,0.004064814781609184
391.75,601,391,750000000,,0.013321822467179665,0.016219172651059696,0.0043426521693987795
391.76,602,391,760000000,,0.017052759374771385,0.01476697072518047,0.004515064528627333
391.77,603,391,770000000,,0.016592953379227525,0.01044182659633786,0.0042935340405030045
391.78,604,391,780000000,,0.012447011406460451,0.008350098767261985,0.0038592470741829117
391.79,605,391,790000000,,0.009718426569974783,0.010616775969848816,0.0036299991488357203
391.8,606,391,800000000,,0.011570384504108244,0.015492897801436832,0.0038321591368295177
391.81,607,391,810000000,,0.016117065898929087,0.01632532017347394,0.004132415079223305
391.82,608,391,820000000,,0.018002030867682255,0.012598332854718036,0.004130149574706524
391.83,609,391,830000000,,0.014951777549030331,0.008717047973112148,0.0037401954911054306
391.84,610,391,840000000,,0.010622194898015018,0.00922317019946871,0.003350547047243259
391.85,611,391,850000000,,0.010254410707503048,0.013643097532723138,0.0033376811190600456
391.86,612,391,860000000,,0.014377290285395214,0.016786270082453043,0.0036473720357738586
391.87,613,391,870000000,,0.01836122163075419,0.014076708130381796,0.0038657956633430537
391.88,614,391,880000000,,0.01732457823316079,0.011043356112139502,0.0036491377455174496
391.89,615,391,890000000,,0.012836434652128895,0.007377875095838541,0.0031809673629025407
391.9,616,391,900000000,,0.009762559896614544,0.012073184053360008,0.0029293380409683113
391.91,617,391,910000000,,0.01226020374028071,0.01591381671749944,0.003113480199804881
391.92,618,391,920000000,,0.0172680221670636,0.016657615421885832,0.0034621134670038555
391.93,619,391,930000000,,0.019179763446889674,0.01261397787793853,0.0035059064644636425
391.94,620,391,940000000,,0.015722400317301957,0.008479588512072414,0.003108020894904823
391.95,621,391,950000000,,0.01092623108875653,0.009022373623370291,0.0026650538281684233
391.96,622,391,960000000,,0.010490530915270812,0.013744960118137804,0.0026135557985881947
391.97,623,391,970000000,,0.015001351868719193,0.017209381739021472,0.0029456329315933664
391.98,624,391,980000000,,0.0193810511595521,0.015320217143312312,0.0032298733335462963
391.99,625,391,990000000,,0.018605109476862274,0.010296792247973459,0.0030584450086209537
392.0,626,392,0,,0.013500979800468993,0.007896238380050068,0.0025547101096838522
392.01,627,392,10000000,,0.01006031348655015,0.010902512775728035,0.002235606416517209
392.02,628,392,20000000,,0.012358636717927366,0.0159953058591874,0.0023901389224232567
392.03,629,392,30000000,,0.017853613293031718,0.01725601391311667,0.0027907704270699525
392.04,630,392,40000000,,0.02041807966509838,0.01372363137932779,0.0029436528033373417
392.05,631,392,50000000,,0.017019951136918562,0.008415991546898986,0.0025475350007091984
392.06,632,392,60000000,,0.011575638279454183,0.008385131925362799,0.002037604379444798
392.07,633,392,70000000,,0.010437410735252966,0.013181531321938812,0.0019038725168107225
392.08,634,392,80000000,,0.01498119527018267,0.01740777150886335,0.0022310887928993044
392.09,635,392,90000000,,0.02014134178548728,0.01616152731478159,0.002605628785917917
392.1,636,392,100000000,,0.020109737557399067,0.0108979180706561,0.002529701033701915
392.11,637,392,110000000,,0.01483796082945901,0.007576417261826818,0.0020152470454819576
392.12,638,392,120000000,,0.010376579005030797,0.009929909741220436,0.0015915119302619565
392.13,639,392,130000000,,0.011909534843480368,0.015453551245940686,0.00166482765681212
392.14,640,392,140000000,,0.017784620424271518,0.017876878495814475,0.002101523970642117
392.15,641,392,150000000,,0.02150550027949839,0.014384680091360498,0.0023637313915904883
392.16,642,392,160000000,,0.018867631806779056,0.008959390829371054,0.002075694184367082
392.17,643,392,170000000,,0.01278441592285281,0.007618841323528708,0.0015027367345406776
392.18,644,392,180000000,,0.010217802410911634,0.01191374806601543,0.0012315775425595756
392.19,645,392,190000000,,0.014146120506036697,0.01716426731223922,0.0014974124552153197
392.2,646,392,200000000,,0.020267746784742264,0.017384946709071872,0.001965574597964714
392.21,647,392,210000000,,0.021844032524813338,0.012313764044748227,0.0020548422913760026
392.22,648,392,220000000,,0.017077748261812034,0.006626879032546828,0.0015915185605384935
392.23,649,392,230000000,,0.011134491297067074,0.008473115759848823,0.0010408371602052956
392.24,650,392,240000000,,0.01089086693976539,0.015026984239594286,0.0009534474245758885
392.25,651,392,250000000,,0.016756384589656958,0.01814109552663521,0.001372377411166215
392.26,652,392,260000000,,0.022174451614394877,0.016165708839249695,0.0017960399808800798
392.27,653,392,270000000,,0.021336167994963573,0.010302073326964869,0.0016862651558216663
392.28,654,392,280000000,,0.015120488788056196,0.005918148851630738,0.0011025170357031647
392.29,655,392,290000000,,0.010248713603432965,0.01081618691345628,0.0006381992362269664
392.3,656,392,300000000,,0.01259788767693964,0.015815595063879275,0.0007897721354499338
392.31,657,392,310000000,,0.019212819869959777,0.01840304697222984,0.0012611383295777598
392.32,658,392,320000000,,0.02322627997907791,0.014633265576156573,0.0015795731419134373
392.33,659,392,330000000,,0.020161949717634107,0.00866104153788463,0.0012757042312324478
392.34,660,392,340000000,,0.013293034699163712,0.006903277923916444,0.0006312434891340574
392.35,661,392,350000000,,0.01022598920202382,0.011303794459189971,0.00030393387311994
392.36,662,392,360000000,,0.014399602917402311,0.01724517672701668,0.0005873154893660303
392.37,663,392,370000000,,0.021351056395163933,0.01815163925459154,0.0011429683570684847
392.38,664,392,380000000,,0.023633367953506346,0.01300997058478948,0.0013185766125449715
392.39,665,392,390000000,,0.018713846430745525,0.007427485045726375,0.00084878647683383
392.4,666,392,400000000,,0.011893198404557291,0.007284147169985521,0.00020329815935946245
392.41,667,392,410000000,,0.010667888053941706,0.01284075544418516,2.8797058719156188e-05
392.42,668,392,420000000,,0.015737817540363016,0.017897954520387765,0.00041615870448256123
392.43,669,392,430000000,,0.023150688260465853,0.01761372258668083,0.0010081441148663823
392.44,670,392,440000000,,0.023610589335594324,0.01155204857774788,0.0010264832593451843
392.45,671,392,450000000,,0.01729380467159128,0.006614279887898628,0.000428785188491461
392.46,672,392,460000000,,0.010986074199175978,0.007915619297922585,-0.00017635654494311487
392.47,673,392,470000000,,0.011537989181149176,0.014209663819310681,-0.0001963200424142398
392.48,674,392,480000000,,0.01766483705570463,0.018634816901126585,0.00029679323743039945
392.49,675,392,490000000,,0.024478486185612047,0.01676374910134009,0.0008542735261655839
392.5,676,392,500000000,,0.02322134969357217,0.010186310373705229,0.0007184336934051794
392.51,677,392,510000000,,0.015965662267239732,0.006046395994685924,2.978023676577404e-05
392.52,678,392,520000000,,0.0104439142847432,0.008586570995111155,-0.0005107862541682262
392.53,679,392,530000000,,0.012576041658843325,0.015315840784290565,-0.00038726309083575124
392.54,680,392,540000000,,0.020152202987144388,0.019093406312184272,0.0002374538351722759
392.55,681,392,550000000,,0.02528741152409929,0.01581033236107202,0.0006812082889559911
392.56,682,392,560000000,,0.022579369907165588,0.009008030879895232,0.00040726871615832206
392.57,683,392,570000000,,0.014907433645659,0.005761138173927846,-0.00030178884821330807
392.58,684,392,580000000,,0.01014059372915572,0.007952112105802923,-0.0008087718751658044
392.59,685,392,590000000,,0.013415804359948727,0.017359438820031863,-0.0005688831790672301
392.6,686,392,600000000,,0.02156923300522081,0.01920279702143861,0.00011351264276919821
392.61,687,392,610000000,,0.025929694058928084,0.01505130016788463,0.0004909540254359362
392.62,688,392,620000000,,0.022063159508370685,0.008134795389739208,0.00010146426665009655
392.63,689,392,630000000,,0.013947996535085133,0.005357930508621896,-0.0006889262674964361
392.64,690,392,640000000,,0.010040603005566346,0.009573220161377363,-0.0010921126972264516
392.65,691,392,650000000,,0.014434835622841945,0.016689393678202304,-0.0007446724963920883
392.66,692,392,660000000,,0.02265784087176276,0.019246175857469926,-2.2631224419509988e-05
392.67,693,392,670000000,,0.026342423549315958,0.014570189023346402,0.000299363347196353
392.68,694,392,680000000,,0.02167177211063028,0.007549087226372439,-0.0001799814741173352
392.69,695,392,690000000,,0.013385556783880247,0.005100868260419281,-0.0010004298478718072
392.7,696,392,700000000,,0.010027205535342367,0.009741065529398107,-0.0013529054619502716
392.71,697,392,710000000,,0.015139702618625944,0.01696657702373488,-0.0009362645520035557
392.72,698,392,720000000,,0.023446046038995236,0.01930388740963715,-0.00016935653335181132
392.73,699,392,730000000,,0.026727117410033387,0.01431686062666618,0.00011751059339064362
392.74,700,392,740000000,,0.021544511858953223,0.007162323197106274,-0.0004260275913951125
392.75,701,392,750000000,,0.013110130015598496,0.004766193033582599,-0.001275747486897977
392.76,702,392,760000000,,0.009868138813618525,0.008868622286106752,-0.001646410460264662
392.77,703,392,770000000,,0.01535783669724955,0.017156782942350478,-0.0011209403775923406
392.78,704,392,780000000,,0.023917089196488918,0.01954047943193917,-0.00032614113005108514
392.79,705,392,790000000,,0.027132100159439117,0.014449419225346724,-4.6207545554505976e-05
392.8,706,392,800000000,,0.022689095235023042,0.007612672336459068,-0.0005546697367695698
392.81,707,392,810000000,,0.013139378146102419,0.004151817572354419,-0.0015144083769689641
392.82,708,392,820000000,,0.009916805852045614,0.00891581964303935,-0.0018452293868938402
392.83,709,392,830000000,,0.015348061104953155,0.01535431298153939,-0.001332447537145429
392.84,710,392,840000000,,0.023929623369023444,0.02092619141158676,-0.0005038289569360708
392.85,711,392,850000000,,0.02762367001322344,0.014937026227376853,-0.00019125289770322352
392.86,712,392,860000000,,0.022363105368585264,0.0072016308386349,-0.0007815191753403995
392.87,713,392,870000000,,0.013533133077827242,0.003909428913616123,-0.0017091491272484942
392.88,714,392,880000000,,0.009900346140288853,0.008215465194082004,-0.002083284801448593
392.89,715,392,890000000,,0.015027655659839427,0.016171743851211805,-0.0015791758823957877
392.9,716,392,900000000,,0.023932449162934865,0.01976919591303137,-0.0006950191586028815
392.91,717,392,910000000,,0.02802576340420732,0.016168400064803648,-0.0002752225592524335
392.92,718,392,920000000,,0.023204637515615176,0.007492093070771582,-0.000882464267228242
392.93,719,392,930000000,,0.014195298470200133,0.0033401685660878143,-0.0018596540018559402
392.94,720,392,940000000,,0.009778366157874462,0.006902781225913689,-0.002319330436579586
392.95,721,392,950000000,,0.014222947389222668,0.015075826084267748,-0.0018590273892622625
392.96,722,392,960000000,,0.023260910602228003,0.019802643917241607,-0.0009296906232746935
392.97,723,392,970000000,,0.028231342765575238,0.016482829074124426,-0.00044276504547660476
392.98,724,392,980000000,,0.02428939119690986,0.00710980817072791,-0.0009240690210273162
392.99,725,392,990000000,,0.015169318534075917,0.004685755955361416,-0.0019537528371594915
393.0,726,393,0,,0.009851497290099155,0.005459780399561928,-0.002539578720351718
393.01,727,393,10000000,,0.013185747061742793,0.013478244756938481,-0.0021751231677423727
393.02,728,393,20000000,,0.02126662050888462,0.019269740454309726,-0.001272240229088751
393.03,729,393,30000000,,0.028384965356375143,0.017878993680542618,-0.0005759840095892361
393.04,730,393,40000000,,0.025869203805440888,0.010095202849556685,-0.0009245918225632338
393.05,731,393,50000000,,0.01703989173547032,0.0034068872303553944,-0.001963315426854075
393.06,732,393,60000000,,0.010286753702088383,0.003818284239765729,-0.00271695871022336
393.07,733,393,70000000,,0.011916880394885563,0.011304011735767672,-0.002512563122131919
393.08,734,393,80000000,,0.020394267626649545,0.018797254043460197,-0.0015588743975627868
393.09,735,393,90000000,,0.027830952475145887,0.01902195887842734,-0.0007463661426355685
393.1,736,393,100000000,,0.027234981272152535,0.012038386407243903,-0.0008836796551156315
393.11,737,393,110000000,,0.01916335212557506,0.004204850268203702,-0.0018866410053359533
393.12,738,393,120000000,,0.011200349920305745,0.002346207281759534,-0.002824705053613117
393.13,739,393,130000000,,0.010245535627010369,0.006143765326537808,-0.002928615136536547
393.14,740,393,140000000,,0.01794668108596009,0.018908384554595963,-0.0019795553520827024
393.15,741,393,150000000,,0.026669981957945597,0.020131297267728113,-0.0009925813707276055
393.16,742,393,160000000,,0.02851202795316588,0.014603958255305251,-0.000842539965805309
393.17,743,393,170000000,,0.021869635147967543,0.005986520755987861,-0.0017172602283230792
