Time,header.seq,header.stamp.secs,header.stamp.nsecs,header.frame_id,position_controller_output.thrust.num,position_controller_output.orientation_set_point.w,position_controller_output.orientation_set_point.x,position_controller_output.orientation_set_point.y,position_controller_output.orientation_set_point.z,position_controller_output.euler_set_point.phi,position_controller_output.euler_set_point.theta,position_controller_output.euler_set_point.psi
35.047,1,35,47000000,,10.06000075199056,0.9999999999973606,1.6551133819287532e-10,-1.1487394841201168e-09,2.297588935107342e-06,3.3101739772262087e-10,-2.2974795399477443e-09,4.5951778702183465e-06
35.047,2,35,47000000,,10.060006067171932,0.9999999999578608,1.3208713043267878e-09,-9.19072431772321e-09,9.180332199321128e-06,2.6415738607374773e-09,-1.8381472788320252e-08,1.8360664398875882e-05
35.057,3,35,57000000,,10.060020653678714,0.999999999787135,4.45537044304943e-09,-3.1029098854560394e-08,2.0633195163100016e-05,8.909460425297291e-09,-6.205838154471621e-08,4.126639032885165e-05
35.067,4,35,67000000,,10.060049375369607,0.9999999993287105,1.055578622911401e-08,-7.35748489038095e-08,3.6641144106397304e-05,2.1106180710773694e-08,-1.4715047136348858e-07,7.328228822763973e-05
35.077,5,35,77000000,,10.06009724773578,0.9999999983646906,2.0606295668182034e-08,-1.4374550890793518e-07,5.7189139624824144e-05,4.119614990501169e-08,-2.8749337421807297e-07,0.00011437827930607524
35.087,6,35,87000000,,10.060169436090204,0.9999999966164373,3.5587841768191756e-08,-2.4846323847689346e-07,8.226215140893795e-05,7.113480505447869e-08,-4.969323303960493e-07,0.00016452430298576412
35.097,7,35,97000000,,10.06027125251431,0.9999999937452518,5.6477545439330164e-08,-3.946530096459652e-07,0.00011184514733030503,1.1286681012417367e-07,-7.893186477758718e-07,0.00022369029508245342
35.107,8,35,107000000,,10.06040815307594,0.9999999893530488,8.424811415581171e-08,-5.89240436522995e-07,0.00014592308434655164,1.683242589539317e-07,-1.1785054478963275e-06,0.00029184616962970927
35.117,9,35,117000000,,10.060585735066168,0.999999982983032,1.1986721739953701e-07,-8.391499631583517e-07,0.00018448094488114942,2.3942481636365947e-07,-1.6783441241230435e-06,0.00036896189165434
35.127,10,35,127000000,,10.060809734254985,0.9999999741203645,1.6429687728545774e-07,-1.1513025178474935e-06,0.0002275036677018132,3.280698949770152e-07,-2.3026797324465775e-06,0.00045500733895125324
35.137,11,35,137000000,,10.061086022165773,0.9999999621928365,2.1849288489073262e-07,-1.5326135078334515e-06,0.00027497622068007124,4.3614288872204115e-07,-3.065347060404733e-06,0.0005499524476228286
35.147,12,35,147000000,,10.06142060336852,0.9999999465715321,2.8340409883381706e-07,-1.9899905290183923e-06,0.0003268836007912559,5.655071768491179e-07,-3.980166125572282e-06,0.0006537672121012446
35.157,13,35,157000000,,10.06181961279171,0.9999999265714911,3.599719037616056e-07,-2.5303307907306644e-06,0.00038321074680300066,7.180044547641187e-07,-5.060937100065388e-06,0.0007664215105498435
35.167,14,35,167000000,,10.06228931305288,0.9999999014523695,4.4912948017459516e-07,-3.1605189374839405e-06,0.0004439426411386311,8.954526935969586e-07,-6.3214360275232195e-06,0.0008878853086163409
35.177,15,35,177000000,,10.062836091807734,0.999999870419097,5.518011915936975e-07,-3.887424472059703e-06,0.0005090642371175686,1.0996443426686215e-06,-7.775409741173078e-06,0.0010181285139419648
35.187,16,35,187000000,,10.063466459117846,0.9999998326225311,6.689019482215182e-07,-4.7178990639054035e-06,0.0005785604589553057,1.3323444928890866e-06,-9.436570548970735e-06,0.0011571209761916498
35.197,17,35,197000000,,10.064187044836801,0.9999997871601098,8.013365585319555e-07,-5.65877385671496e-06,0.0006524163181786975,1.5952890232439964e-06,-1.1318590914966009e-05,0.00130483271991686
35.207,18,35,207000000,,10.065004596014795,0.9999997330765001,9.499990323714401e-07,-6.7168567747439026e-06,0.0007306167972106015,1.8901826609922922e-06,-1.343509813467314e-05,0.0014612337117587597
35.217,19,35,217000000,,10.065925974321624,0.9999996693642456,1.115771855165967e-06,-7.898930055611262e-06,0.0008131468202660033,2.2186969930660944e-06,-1.5799669461191712e-05,0.0016262938022761192
35.227,20,35,227000000,,10.066958153487985,0.999999594964409,1.299525444286034e-06,-9.21174619053431e-06,0.0008999913697672853,2.582468852161279e-06,-1.842582404343318e-05,0.0017999829588134938
35.237,21,35,237000000,,10.068108216765097,0.9999995087672151,1.5021172061447386e-06,-1.0662026136380922e-05,0.000991135369928842,2.983097914756138e-06,-2.132701940249504e-05,0.0019822710327094236
35.247,22,35,247000000,,10.069383354402406,0.9999994096126885,1.724391230753872e-06,-1.2256455254251636e-05,0.0010865639195876521,3.422145582302865e-06,-2.4516643361227608e-05,0.002173128224999085
35.257,23,35,257000000,,10.070790861143847,0.9999992962912899,1.967177249947606e-06,-1.400167969973635e-05,0.0011862617683342464,3.901132418155178e-06,-2.800800687108307e-05,0.002372524038717066
35.267,24,35,267000000,,10.07233813374173,0.999999167544549,2.2312902830222695e-06,-1.5904304632409754e-05,0.0012902140150045421,4.421536939925789e-06,-3.181434047494491e-05,0.0025804286759273584
35.277,25,35,277000000,,10.074032668489073,0.9999990220656969,2.5175291494709433e-06,-1.7970891513133467e-05,0.001398405642018449,4.984792186059129e-06,-3.594878893897757e-05,0.002796812106444817
35.287,26,35,287000000,,10.075882058769828,0.9999988585002932,2.8266770582424543e-06,-2.020794903519482e-05,0.0015108215153797444,5.592286459413117e-06,-4.042439315576907e-05,0.0030216440678816365
35.297,27,35,297000000,,10.077893992627082,0.999998675446852,3.1594997677985933e-06,-2.2621936784651284e-05,0.0016274467339219018,6.245359177911762e-06,-4.525409749200904e-05,0.003254894764189852
35.307,28,35,307000000,,10.080076250349189,0.999998471457466,3.5167449584980956e-06,-2.5219257076760138e-05,0.001748266047231328,6.945299233134985e-06,-5.0450733489082467e-05,0.003496533701553971
35.317,29,35,317000000,,10.082436702073771,0.9999982450384272,3.899142674308926e-06,-2.8006251341379085e-05,0.0018732646705544444,7.693345432692481e-06,-5.6027012664605635e-05,0.0037465313182630734
35.327,30,35,327000000,,10.084983305409567,0.9999979946508446,4.307402670074841e-06,-3.098919831819184e-05,0.002002427353474922,8.490680844126606e-06,-6.199552290953037e-05,0.004004857122110393
35.337,31,35,337000000,,10.087724103075999,0.9999977187112615,4.742216222722288e-06,-3.4174312260308744e-05,0.002135739194820728,9.338435994375852e-06,-6.836872492499424e-05,0.004271481320269363
35.347,32,35,347000000,,10.090667220560505,0.9999974155922687,5.204251689666419e-06,-3.75677283913642e-05,0.0022731851770026084,1.0237679701984878e-05,-7.515892312826011e-05,0.0045463738880223365
35.357,33,35,357000000,,10.093820863793502,0.999997083623116,5.694158416039684e-06,-4.11755120184686e-05,0.0024147499331831977,1.1189426527864883e-05,-8.237828390078583e-05,0.0048295041031505654
35.367,34,35,367000000,,10.097193316840972,0.9999967210903206,6.212562914747712e-06,-4.500364581660525e-05,0.002560418795014639,1.2194628777177129e-05,-9.003881015456905e-05,0.005120842641485064
35.377,35,35,377000000,,10.1007929396146,0.9999963262382762,6.760067401935812e-06,-4.905802981988324e-05,0.002710176628485078,1.3254173346635776e-05,-9.815234129550987e-05,0.005420359248641486
35.387,36,35,387000000,,10.10462816614727,0.9999958972696602,7.337631363081183e-06,-5.33480550494442e-05,0.002864008299579074,1.436962405501135e-05,-0.00010673770263025517,0.005728023671318267
35.397,37,35,397000000,,10.108705840351858,0.9999954323471929,7.945995758689011e-06,-5.78653489095256e-05,0.0030218989071112362,1.554219256381383e-05,-0.00011577819345176543,0.006043806123377872
35.407,38,35,407000000,,10.113039515476135,0.9999949295920648,8.594499570474164e-06,-6.26237846734098e-05,0.0031838333170584256,1.679014473413947e-05,-0.00012530166152657785,0.0063676763529256965
35.417,39,35,417000000,,10.117638461480515,0.9999943870858777,9.263780301271565e-06,-6.763657533529486e-05,0.003349796395393531,1.8074319262930126e-05,-0.00013533445536273447,0.006699604112928909
35.427,40,35,427000000,,10.12250044693311,0.9999938028703953,9.97391996664936e-06,-7.291980730839339e-05,0.0035197732409128087,1.9434394149052928e-05,-0.00014590892322052795,0.007039559618405444
35.437,41,35,437000000,,10.127639945462898,0.999993174951964,1.0712547213749721e-05,-7.845039319223575e-05,0.0036937487195876574,2.0845396379740416e-05,-0.00015697885508902942,0.007387512625187676
35.447,42,35,447000000,,10.133072680458886,0.9999925012954004,1.1487802042647144e-05,-8.425293868589601e-05,0.003871707930202198,2.232302657542673e-05,-0.00016859356942311443,0.007743433352561455
35.457,43,35,457000000,,10.138799676846972,0.9999917798307227,1.229501978641084e-05,-9.032019357583984e-05,0.004053635505882561,2.3857587543313832e-05,-0.00018073858229872286,0.008107291092672376
35.467,44,35,467000000,,10.144830170752822,0.9999910084486484,1.3138213552479533e-05,-9.667319471064572e-05,0.004239516778230301,2.545649605626083e-05,-0.00019345605149756473,0.00847905653431368
35.477,45,35,477000000,,10.151177445751033,0.9999901850079277,1.4010665366223787e-05,-0.00010328943926286436,0.004429336613196142,2.710604889551778e-05,-0.00020670096833375062,0.008858699439768825
35.487,46,35,487000000,,10.157846332605587,0.9999893073271272,1.4916575080410566e-05,-0.00011019343005848932,0.0046230796438733734,2.8813965862522432e-05,-0.00022052242640890896,0.009246189104314826
35.497,47,35,497000000,,10.164845942202868,0.999988373191828,1.585812593017372e-05,-0.00011738790178177005,0.004820731434677904,3.058409285396988e-05,-0.00023492597156349326,0.009641496688616781
35.507,48,35,507000000,,10.172192424668872,0.9999873803532844,1.683582397497048e-05,-0.0001248752049737397,0.005022276153033518,3.241690851557825e-05,-0.0002499163691016548,0.010044590561588818
35.517,49,35,517000000,,10.179883916927187,0.9999863265285232,1.7841012695939305e-05,-0.00013266218393668346,0.005227699363336514,3.4294502681215576e-05,-0.00026550727798890783,0.010455441890539952
35.527,50,35,527000000,,10.18794233160959,0.9999852094001963,1.8882296971578903e-05,-0.00014076074736552233,0.005436985232982982,3.623340861835066e-05,-0.0002817226601254941,0.01087401904633928
35.537,51,35,537000000,,10.196367687677807,0.9999840266218474,1.995443739591747e-05,-0.00014915851915764034,0.005650119792022392,3.8222712022406395e-05,-0.0002985377675421841,0.011300294131930642
35.547,52,35,547000000,,10.205167670282934,0.9999827758129701,2.1065874488217688e-05,-0.00015785702436408176,0.005867087207838068,4.0278703456047166e-05,-0.00031595580671273105,0.011734235522718179
35.557,53,35,557000000,,10.21435782908653,0.999981454561491,2.2223726086584812e-05,-0.00016685834132300318,0.006087873044784991,4.241500545707672e-05,-0.0003339810903786322,0.012175814390416378
35.567,54,35,567000000,,10.223947313474492,0.9999800604192908,2.3401718178129558e-05,-0.0001761978732382847,0.006312461470189435,4.457802133067831e-05,-0.0003526841720531415,0.01262499912490702
35.577,55,35,577000000,,10.233945988252925,0.999978590917534,2.4620026672945775e-05,-0.0001858467800758583,0.006540838048406613,4.680781503689328e-05,-0.000372007682328368,0.013081760900002945
35.587,56,35,587000000,,10.24435802311249,0.9999770435499662,2.5881259016885307e-05,-0.00019582298020722125,0.006772987412407534,4.910872038272525e-05,-0.0003919875665348016,0.013546069032785947
35.597,57,35,597000000,,10.255193001781366,0.9999754157851842,2.716746477566487e-05,-0.0002061240530070005,0.007008894195173997,5.144419481452505e-05,-0.0004126188106987616,0.014017892852119433
35.607,58,35,607000000,,10.266466254354983,0.9999737050613897,2.8497611516595836e-05,-0.00021675188953610263,0.007248543960982988,5.385145824288662e-05,-0.0004339055261119995,0.014497203537691213
35.617,59,35,617000000,,10.278184856391826,0.9999719087867848,2.9861818499131174e-05,-0.00022771992762500766,0.0074919218084187065,5.630984538582907e-05,-0.00045587452200046563,0.014983971351576194
35.627,60,35,627000000,,10.290360285770115,0.9999700243495786,3.124742500333419e-05,-0.00023900832296879266,0.007739011439119902,5.879360715612646e-05,-0.00047848598369482076,0.015478163768477066
35.637,61,35,637000000,,10.302995643268147,0.9999680491012988,3.2678307119223825e-05,-0.00025063526031953023,0.007989799348602061,6.13494829183776e-05,-0.0005017767118853378,0.01597975383534987
35.647,62,35,647000000,,10.316106290866871,0.9999659803738897,3.41395247931318e-05,-0.000262594355928356,0.00824426923844544,6.394693849790758e-05,-0.0005257337802195838,0.016488709033299166
35.657,63,35,657000000,,10.329699269865674,0.9999638154670784,3.5629944809468726e-05,-0.0002749021330810184,0.008502406672803433,6.658266178588456e-05,-0.0005503902801005101,0.01700500056469452
35.667,64,35,667000000,,10.343785849508553,0.9999615516683199,3.716921179187112e-05,-0.00028752434866268926,0.008764195818934485,6.929573754453901e-05,-0.000575678135960711,0.017528596832159387
35.677,65,35,677000000,,10.358375218569247,0.9999591862214003,3.8730707363461584e-05,-0.00030050122144837293,0.009029622706558714,7.203144102935983e-05,-0.0006016773973682721,0.01805946998854689
35.687,66,35,687000000,,10.373477347301101,0.9999567163558678,4.0337174962633584e-05,-0.0003138287550436239,0.009298671502810291,7.483449188734162e-05,-0.0006283805484155192,0.018597588438805827
35.697,67,35,697000000,,10.389100389420133,0.9999541392827862,4.19874107183607e-05,-0.00032749049610736813,0.009571328237493975,7.770194901003826e-05,-0.0006557547518935003,0.019142924331323915
35.707,68,35,707000000,,10.405255590923495,0.9999514521964358,4.369494086532315e-05,-0.0003414521781183047,0.009847576146490039,8.066070543649431e-05,-0.0006837318345176424,0.019695444220850667
35.717,69,35,717000000,,10.421950648548455,0.9999486522854754,4.5655115595658726e-05,-0.0003556140423431855,0.010127400328482528,8.4102672504941e-05,-0.0007121163602019642,0.020255118265671022
35.727,70,35,727000000,,10.439183868630355,0.9999457367031049,4.792148200410406e-05,-0.00036994227997080425,0.01041078774466638,8.813500644431938e-05,-0.0007408422798893533,0.020821920432128098
35.737,71,35,737000000,,10.45693150675613,0.9999427024964611,5.031205484690879e-05,-0.00038465774677013255,0.01069772069870947,9.238844944919699e-05,-0.0007703479384961742,0.021395815529564356
35.747,72,35,747000000,,10.475145822206404,0.9999395467373203,5.2733958108066834e-05,-0.0003998272341472422,0.010988186151284761,9.667481932789395e-05,-0.000800765113247337,0.021976777645742865
35.757,73,35,757000000,,10.493774047754957,0.9999362665130296,5.5170052306304926e-05,-0.0004154127162629803,0.011282167338122925,0.00010095959581076636,-0.0008320174526428303,0.022564773377193963
35.767,74,35,767000000,,10.512767430608406,0.9999328588905967,5.7614355965544605e-05,-0.00043138122458170094,0.011579650288899526,0.00010523052737866115,-0.0008640389380325519,0.023159774906031355
35.777,75,35,777000000,,10.532081604878064,0.9999293209129594,6.006658202608807e-05,-0.0004477141131502064,0.011880619170570584,0.00010948647564380845,-0.0008967923148281987,0.023761750687299913
35.787,76,35,787000000,,10.55167633949289,0.9999256496012189,6.252804259718561e-05,-0.00046440157451782657,0.012185060012675485,0.00011372931456830975,-0.0009302580422250184,0.024370672904294566
35.797,77,35,797000000,,10.571515271968831,0.9999218419593843,6.49979975963323e-05,-0.00048143281694944175,0.012492956982094298,0.00011795685114565585,-0.0009644145620828493,0.0249865100206444
35.807,78,35,807000000,,10.5915656574546,0.9999178949787779,6.747240888909072e-05,-0.0004987887690191816,0.012804294245743393,0.0001221605230903604,-0.0009992236713458613,0.025609230508789743
35.817,79,35,817000000,,10.611798171333602,0.9999138056388251,6.994464879330887e-05,-0.0005164431020800973,0.01311905783323097,0.00012632681402063295,-0.0010346325755685726,0.026238806576180936
35.827,80,35,827000000,,10.632186751567525,0.9999095709034937,7.24080292083341e-05,-0.0005343707878943397,0.01343723284284259,0.000130442108552659,-0.0010705910620623094,0.026875208573022877
35.837,81,35,837000000,,10.652708423066498,0.9999051877162232,7.485865624620167e-05,-0.0005525578302178947,0.013758802510143367,0.00013449813215565793,-0.0011070710389697869,0.027518403124743678
35.847,82,35,847000000,,10.673343074340856,0.9999006529979783,7.729605993218586e-05,-0.0005710036652380627,0.014083753795870372,0.0001384931026046973,-0.0011440713624055743,0.028168364309317965
35.857,83,35,857000000,,10.694073197614,0.999895963650593,7.972119027031853e-05,-0.0005897146178509084,0.01441206993538211,0.00014242787601835032,-0.0011816047018859965,0.028825058754392893
35.867,84,35,867000000,,10.714883624941058,0.9998911165646075,8.213397231461419e-05,-0.000608691119924679,0.014743736026693677,0.00014630140552401706,-0.0012196719126993383,0.029488456820612116
35.877,85,35,877000000,,10.735761331142502,0.9998861086267431,8.453179798716949e-05,-0.0006279173814444283,0.015078738099263892,0.00015010805699075392,-0.0012582413318309449,0.030158530742191894
35.887,86,35,887000000,,10.756695353996486,0.9998809367205325,8.690906736141971e-05,-0.0006473642316147165,0.01541706032004656,0.00015383666260023726,-0.0012972544371319117,0.030835249038155876
35.897,87,35,897000000,,10.77767675649442,0.9998755977185451,8.925886289899983e-05,-0.0006670029361537697,0.015758687787344433,0.00015747347706267952,-0.0013366535220591391,0.03151858209874908
35.907,88,35,907000000,,10.79869850829136,0.9998700884724421,9.157592676371295e-05,-0.0006868204952048053,0.016103604667999684,0.00016100764173604127,-0.0013764123782584736,0.03220849845294295
35.917,89,35,917000000,,10.81975526486026,0.9998644058088406,9.385808302618207e-05,-0.0007068233378267327,0.01645179605994771,0.00016443385173913302,-0.0014165437351953969,0.03290496849205851
35.927,90,35,927000000,,10.840843097030845,0.9998585465344255,9.610550554900544e-05,-0.0007270287573716698,0.01680324706094913,0.00016775111338525298,-0.0014570821179615834,0.03360796260803111
35.937,91,35,937000000,,10.861959242020589,0.9998525074510538,9.831876374779918e-05,-0.0007474439829922953,0.01715794276882479,0.00017095951541967925,-0.0014980419368908482,0.034317451198870065
35.947,92,35,947000000,,10.883101985766734,0.9998462853696602,0.0001004965628798555,-0.0007680500725012427,0.017515868281700844,0.00017405630947834366,-0.0015393852010348041,0.035033404674598964
35.957,93,35,957000000,,10.904270714917294,0.9998398771102884,0.00010263410819222106,-0.0007888064781144412,0.017877006835390587,0.00017703257282745047,-0.0015810305842633987,0.03575578973278754
35.967,94,35,967000000,,10.925465989677699,0.9998332794847581,0.00010472390065884857,-0.0008096757382503334,0.01824134539103779,0.00017987397032716718,-0.00162290281947719,0.036484580535565525
35.977,95,35,977000000,,10.946695584201608,0.9998264892788392,0.00010675859142422802,-0.0008306447165523338,0.01860886718420045,0.00018256567497606377,-0.0016649752637323267,0.0372197437940149
35.987,96,35,987000000,,10.967957729217463,0.999819503243601,0.00010873331601706415,-0.000851732273710416,0.0189795591752245,0.00018509664465060505,-0.0017072853278123912,0.03796125367132047
35.997,97,35,997000000,,10.989252806411894,0.999812318108657,0.00011064670366496437,-0.0008729703712631109,0.01935340459886389,0.00018746226508456061,-0.0017498967349833805,0.03870907687449678
36.007,98,36,7000000,,11.010584307103194,0.9998049306104483,0.00011250012800498007,-0.000894371752557967,0.0197303866900923,0.0001896640702535966,-0.0017928348785070103,0.03946318011418654
36.017,99,36,17000000,,11.031956050948263,0.9997973375143214,0.00011429499370364839,-0.0009159085266302151,0.020110494272496827,0.00019170523873318578,-0.0018360439018636487,0.04022354129515566
36.027,100,36,27000000,,11.053372364162172,0.9997895356082692,0.00011602921562607781,-0.0009375247851890116,0.02049370871969742,0.00019358321458044035,-0.0018794117835128077,0.04099012342892316
36.037,101,36,37000000,,11.074838224470142,0.9997815216717023,0.00011769586580747323,-0.0009591728387908183,0.020880015130608102,0.00019528557910746813,-0.0019228427284376792,0.041762896996130054
36.047,102,36,47000000,,11.096359182866243,0.9997732924442557,0.00011928481022557911,-0.0009808444491066315,0.021269400466115244,0.00019679196985919104,-0.001966319668414762,0.04254183621252124
36.057,103,36,57000000,,11.117941101334125,0.9997648446174592,0.00012078633509530963,-0.0010025750348473714,0.021661849823532496,0.00019808100478758034,-0.002009912812023229,0.043326911566367046
36.067,104,36,67000000,,11.139589852137687,0.9997561748605995,0.00012219563514759992,-0.001024413906667677,0.022057344574432335,0.00019914040178722225,-0.002053720323753172,0.044118086085449336
36.077,105,36,77000000,,11.161311145964227,0.9997472798691129,0.00012351517413522757,-0.0010463760638257855,0.022455873541551586,0.00019997378293587408,-0.002097772067913839,0.04491533770623271
36.087,106,36,87000000,,11.183110625454143,0.9997381563951944,0.00012475170779704332,-0.0010684182666998291,0.02285741809838667,0.00020059598018936888,-0.002141981658238201,0.04571862945857567
36.097,107,36,97000000,,11.204994141482642,0.9997288012284277,0.0001259092714627302,-0.001090463801453455,0.023261965207363077,0.00020101806975902545,-0.0021861956736730637,0.04652793557224209
36.107,108,36,107000000,,11.226967921280192,0.999719211139698,0.0001269829806706713,-0.0011124572877219002,0.023669499968004094,0.00020123253690474338,-0.002230302940543716,0.04734322657071308
36.117,109,36,117000000,,11.249038454861202,0.9997093828371254,0.00012795794932194936,-0.0011344020159825441,0.02408000561582839,0.00020120923299355762,-0.0022743090954873146,0.04816446926969561
36.127,110,36,127000000,,11.27121219091331,0.9996993129631615,0.00012881562012666625,-0.0011563567079413634,0.02449346724743272,0.000200907944831328,-0.002318330371987587,0.048991634222385866
36.137,111,36,137000000,,11.293495239398926,0.9996889981439433,0.00012954562304497044,-0.0011783873625392492,0.024909869958933586,0.00020030427663524897,-0.002362497890684434,0.049824691971562474
36.147,112,36,147000000,,11.315893282926847,0.9996784350645613,0.00013015319268055246,-0.0012005036456053152,0.02532919884783001,0.00019940766773002784,-0.0024068308873803623,0.05066361303908008
36.157,113,36,157000000,,11.338411789984985,0.9996676205006276,0.0001306551963873533,-0.0012226385538420359,0.025751439013929765,0.00019825473113796119,-0.0024511959209576606,0.05150836793419472
36.167,114,36,167000000,,11.361056343952999,0.9996565512717185,0.00013106602284423884,-0.0012446946474854112,0.026176573695668278,0.0001968789486893067,-0.0024953986260083383,0.052358923449750676
36.177,115,36,177000000,,11.383832773414207,0.9996452241562479,0.0001313824965561993,-0.0012666161967442384,0.02660458985585917,0.0001952767924328459,-0.002539327147705217,0.05321525387832627
36.187,116,36,187000000,,11.403705554903224,0.9996336367364138,0.00013136200576298928,-0.001287751359462099,0.027035472616516967,0.0001929984702330221,-0.0025816648849574797,0.05407733048227328
36.197,117,36,197000000,,11.429808039176347,0.9996217829172265,0.00013162654073846548,-0.0013102146796680812,0.027469203274812188,0.00019117306858023158,-0.0026266726410097974,0.05494511449897114
36.207,118,36,207000000,,11.453025478496814,0.9996096620034877,0.0001315049403524607,-0.0013320543815867156,0.02790576886166273,0.0001885638880383693,-0.0026704115270619333,0.05581858221203422
36.217,119,36,217000000,,11.473100221589009,0.9995972708238369,0.00013096514742412204,-0.0013532140771706517,0.028345154479605946,0.00018511136593684236,-0.0027127659786816416,0.056697704318460496
36.227,120,36,227000000,,11.499924820769522,0.9995846031658598,0.00013083260914168357,-0.001375773141808214,0.028787345143749178,0.00018234750533323567,-0.002757939443204238,0.05758244893759318
36.237,121,36,237000000,,11.523623985286742,0.9995716589517082,0.00013034327009259566,-0.001397439705782434,0.029232324180676734,0.00017887475923146373,-0.0028013063872287525,0.05847278525080984
36.247,122,36,247000000,,11.547487926850655,0.9995584339498671,0.0001297559863694455,-0.001418899146917192,0.02968007852454036,0.00017517201430999933,-0.002844251389066077,0.05936868680118456
36.257,123,36,257000000,,11.571521015813511,0.9995449248194738,0.00012902773429798896,-0.0014402067639843691,0.03013058954660044,0.00017115019024678085,-0.002886882096586829,0.060270116844944946
36.267,124,36,267000000,,11.595727595570786,0.9995311281331477,0.0001281072846395828,-0.0014614773943475781,0.030583844203159585,0.00016669995964715774,-0.002929424513717249,0.06117704986318864
36.277,125,36,277000000,,11.620111415683587,0.9995170405149647,0.00012697530853711947,-0.0014827847298709588,0.031039827589052382,0.00016177791967272344,-0.0029720241684898507,0.062089456533216354
36.287,126,36,287000000,,11.640774312920039,0.9995026601662236,0.00012529819060911164,-0.0015031781605681985,0.03149852671110545,0.00015577666237108983,-0.003012759114849217,0.06300731228611384
36.297,127,36,297000000,,11.669428480558421,0.9994879797827988,0.00012423110488343932,-0.001525253374639917,0.03195992095206192,0.00015084174286931907,-0.003056890421625047,0.06393057291907224
36.307,128,36,307000000,,11.694378464677872,0.9994730005255819,0.0001227185714819884,-0.0015461693975310196,0.03242399741216145,0.0001450425094703462,-0.003098672146217396,0.06485921614807348
36.317,129,36,317000000,,11.719518130314494,0.9994577177701784,0.00012110674736400155,-0.001566823358600459,0.03289074114661799,0.0001390148693609723,-0.003139919137085112,0.06579321150676805
36.327,130,36,327000000,,11.744850356865479,0.9994421281485711,0.00011932258801637219,-0.0015873101714453197,0.033360137249794815,0.00013260694347113977,-0.0031808159110846557,0.06673252986427217
36.337,131,36,337000000,,11.770377985306581,0.9994262282311143,0.00011729520151965104,-0.0016077624293026737,0.03383217081349189,0.00012566826789363333,-0.003221622156591719,0.06767714210385718
36.347,132,36,347000000,,11.796103344896645,0.9994100147130325,0.00011501520595819844,-0.0016282287427065677,0.03430682320788202,0.00011817661530108526,-0.003262433623350658,0.06862701146783487
36.357,133,36,357000000,,11.822028546651238,0.9993934845078948,0.0001125479820361893,-0.0016486223874852633,0.03478408326088206,0.00011026840485480167,-0.003303080707975914,0.06958211588775691
36.367,134,36,367000000,,11.848155777528937,0.999376634649461,0.00010998468182380494,-0.001668792665293961,0.03526393607932283,0.00010213641759992962,-0.003343268009310618,0.07054242573725414
36.377,135,36,377000000,,11.874487351626138,0.9993594621055845,0.00010736531165119026,-0.0016886434742357152,0.035746363042552985,9.386789206226191e-05,-0.003382805958800583,0.07150790408469256
36.387,136,36,387000000,,11.901025501699834,0.999341963655742,0.00010463620880003414,-0.001708205274486308,0.03623134924838007,8.535404474979677e-05,-0.003421751325906053,0.07247852178352435
36.397,137,36,397000000,,11.927772087370805,0.9993241359107679,0.00010168510342782529,-0.0017276127474786555,0.03671888351330276,7.636119102741021e-05,-0.0034603646648621034,0.0734542573767859
36.407,138,36,407000000,,11.954728485423031,0.9993059754892545,9.843195846032449e-05,-0.0017469932873960556,0.03720894720277218,6.67201350000457e-05,-0.0034988939006159736,0.07443507439368642
36.417,139,36,417000000,,11.981895782021292,0.9992874792237015,9.490068198872111e-05,-0.0017663470003993734,0.03770152541479925,5.6478527289616975e-05,-0.003537340060859817,0.07542094347596254
36.427,140,36,427000000,,12.009275069848645,0.99926864418342,9.120728923415496e-05,-0.0017855426470437061,0.038196599530746216,4.587814690201478e-05,-0.0035754487946741964,0.0764118274602098
36.437,141,36,437000000,,12.03686756391773,0.9992494674939385,8.746732288249519e-05,-0.0018044302007159778,0.038694162110020136,3.516175171608997e-05,-0.003612928644006308,0.07740771156465065
36.447,142,36,447000000,,12.064674469938177,0.9992299461373015,8.369429685473165e-05,-0.001822956505837529,0.03919419080535312,2.4361247486616998e-05,-0.0036496742251033165,0.07840855150455298
36.457,143,36,457000000,,12.087223740542838,0.9992100794717517,7.914560123353082e-05,-0.0018398172814414096,0.03969667453949647,1.2096991375592495e-05,-0.0036830199048165646,0.07941432801475073
36.467,144,36,467000000,,12.120941040232928,0.9991898563247509,7.556421738296582e-05,-0.0018593286108503709,0.040201594365468954,1.5100602674317354e-06,-0.0037217287708730673,0.08042499852270261
36.477,145,36,477000000,,12.149415365573757,0.9991692812470118,7.099594662825784e-05,-0.001877417425508411,0.04070893941059071,-1.0981484041854162e-05,-0.0037575048206011097,0.08144054791285608
36.487,146,36,487000000,,12.17810464581718,0.9991483486531763,6.616188489147562e-05,-0.0018954147353542415,0.04121869094848282,-2.404212527852156e-05,-0.003793064313598382,0.08246093700126289
36.497,147,36,497000000,,12.207008775088559,0.9991270557699208,6.123447013033344e-05,-0.0019131616326645542,0.04173083408984163,-3.7313903067917165e-05,-0.0038281031792750664,0.0834861358652787
36.507,148,36,507000000,,12.236128308192669,0.9991053997779451,5.63253525737731e-05,-0.0019305389246891279,0.042245353943451906,-5.0563049721241884e-05,-0.0038623923004230676,0.08451611479699828
36.517,149,36,517000000,,12.265463559379633,0.9990833776451923,5.137998484946093e-05,-0.0019475537074764705,0.04276223560888557,-6.389820836441659e-05,-0.0038959411741146255,0.08555084474761655
36.527,150,36,527000000,,12.295014503658267,0.9990609861229747,4.621450863082779e-05,-0.001964332744018407,0.04328146417573351,-7.769676922463405e-05,-0.003928986988405603,0.08659029721912558
36.537,151,36,537000000,,12.324780900403782,0.9990382219339834,4.066848717145129e-05,-0.001981018249720274,0.043803024731229254,-9.229116097026843e-05,-0.00396179906909766,0.0876344436636483
36.547,152,36,547000000,,12.35479539048621,0.9990150820408804,3.4748737257103755e-05,-0.001997629370530338,0.04432690237203168,-0.00010766927812000213,-0.0039944149687833885,0.08868325486809298
36.557,153,36,557000000,,12.385099534019226,0.998991563694702,2.8635308513803357e-05,-0.0020140467906096483,0.044853074756404,-0.00012346052044792105,-0.004026611149644088,0.08973668594198049
36.567,154,36,567000000,,12.415610531306795,0.9989676641994437,2.253467105253705e-05,-0.0020301387804892773,0.04538153817120544,-0.00013923997269601904,-0.0040581424457522,0.09079472922194101
36.577,155,36,577000000,,12.446325304054689,0.9989433807450244,1.6497215310550288e-05,-0.002045844003241281,0.04591226654619184,-0.00015490039781682638,-0.004088890892947283,0.09185733283715196
36.587,156,36,587000000,,12.477243957510566,0.998918710288519,1.0363461173466191e-05,-0.0020612268900652314,0.04644525242624533,-0.0001707653453179685,-0.00411897052742205,0.09292448318740903
36.597,157,36,597000000,,12.50836638743153,0.9988936496394214,3.8936874879069196e-06,-0.0020764260782384805,0.04698047717244084,-0.00018732582966932233,-0.004148635402060341,0.09399614464065642
36.607,158,36,607000000,,12.539692609394443,0.998868195716278,-3.0205085377152694e-06,-0.00209152977407969,0.047517922149640755,-0.00020480626677207866,-0.0041780502422670285,0.0950722810400024
36.617,159,36,617000000,,12.571222909397603,0.9988423457274418,-1.0252688607302184e-05,-0.0021064941313965555,0.048057579911263866,-0.00022294963413098216,-0.004207138051179893,0.09615287764034011
36.627,160,36,627000000,,12.602966158634866,0.9988160970816321,-1.7537156584724548e-05,-0.002121191896114495,0.04859942811867807,-0.00024121238086876717,-0.004235669295385991,0.0972378891557142
36.637,161,36,637000000,,12.63491630548485,0.9987894471496459,-2.4700828724036325e-05,-0.0021355293528579023,0.04914345560693457,-0.00025923879704843546,-0.0042634735115938405,0.098327293103272
36.647,162,36,647000000,,12.667084948420948,0.9987623931233958,-3.182230046956768e-05,-0.002149504600304694,0.04968964375118037,-0.00027718462445837545,-0.004290539403596361,0.09942105314572366
36.657,163,36,657000000,,12.699470283505802,0.9987349319991004,-3.9172996538983614e-05,-0.0021632110081218165,0.05023798136638503,-0.00029560034751470427,-0.004317026262838031,0.10051914879291712
36.667,164,36,667000000,,12.732056698512885,0.9987070607463945,-4.697877354258338e-05,-0.0021767574278536606,0.050788446088922974,-0.00031494729582014035,-0.004343127721526452,0.10162153697151492
36.677,165,36,677000000,,12.764840435799268,0.9986787765517673,-5.5214479547354616e-05,-0.0021901627795563984,0.05134103046591163,-0.0003351766907975809,-0.004368882531948115,0.10272820341964341
36.687,166,36,687000000,,12.797821862476818,0.9986500768436776,-6.361293594583785e-05,-0.002203351830717808,0.051895715880073,-0.0003557466099230144,-0.004394166613347128,0.10383911033043638
36.697,167,36,697000000,,12.831000927819135,0.9986209591136481,-7.189413153416998e-05,-0.0022162356830155955,0.052452483716784896,-0.00037608778594412125,-0.004418831135648338,0.10495421980222638
36.707,168,36,707000000,,12.864376694018897,0.9985914207596059,-8.001679954068662e-05,-0.002228774701051308,0.05301132653171474,-0.00039611270564679664,-0.004442801612856595,0.10607351743364186
36.717,169,36,717000000,,12.897947710424312,0.998561459016043,-8.822489932247904e-05,-0.0022410007707243385,0.053572218244490134,-0.00041631089705571576,-0.004466116038405632,0.10719695272660025
36.727,170,36,727000000,,12.93171288623344,0.9985310710153634,-9.683377607511232e-05,-0.0022529942966864436,0.054135155119580815,-0.00043731987971824045,-0.0044889004685253475,0.10832452045687684
36.737,171,36,737000000,,12.965671879051639,0.9985002539864652,-0.00010594218891464786,-0.0022648046362051264,0.054700111073437224,-0.0004593414256403765,-0.004511241211545114,0.10945616955135695
36.747,172,36,747000000,,12.999824791722595,0.9984690053663849,-0.00011533398978345983,-0.0022764132415724857,0.05526707865895262,-0.000481941217895365,-0.004533123310192844,0.1105918849035935
36.757,173,36,757000000,,13.034171396117518,0.998437322707753,-0.00012466058714958624,-0.0022877705124359988,0.05583603925855389,-0.0005044169070819692,-0.004554485569792988,0.11173162831926757
36.767,174,36,767000000,,13.068747285415133,0.9984052035726974,-0.00013375414101556287,-0.0022988295515916322,0.0564069779795829,-0.0005264272507101013,-0.004575253401334356,0.11287536988329061
36.777,175,36,777000000,,13.103596897258278,0.9983726454544887,-0.0001427851094615147,-0.0023095646439096136,0.056979876199212284,-0.0005483087267618943,-0.0045953567446292976,0.11402307374057703
36.787,176,36,787000000,,13.138625211134691,0.9983396456918081,-0.000152113512229398,-0.002320012219062792,0.057554722735065185,-0.0005707833286903839,-0.004614827031543811,0.11517471994330945
36.797,177,36,797000000,,13.173828373289629,0.9983062016443967,-0.00016195781864764805,-0.002330213321758411,0.05813150267907103,-0.0005942910085226161,-0.004633719699818961,0.1163302804467114
36.807,178,36,807000000,,13.209207306636468,0.9982723107875376,-0.00017218969962528582,-0.0023401901716339477,0.05871019740299625,-0.0006185772056002752,-0.00465209229817698,0.11748971812526489
36.817,179,36,817000000,,13.244762683591816,0.9982379706990591,-0.00018243897998467323,-0.002349951427938478,0.059290795733761,-0.0006429030693016867,-0.00467000455936617,0.1186530096971549
36.827,180,36,827000000,,13.280493867617123,0.9982031790163444,-0.0001924289689181737,-0.002359489570640464,0.05987327532467253,-0.0006667145284393124,-0.004687474441103401,0.11982010981274994
36.837,181,36,837000000,,13.316398847344681,0.9981679334217954,-0.00020223300531981592,-0.0023687632348805975,0.060457628731591814,-0.0006901523102154957,-0.00470441130252941,0.12099100466566233
36.847,182,36,847000000,,13.352475730402796,0.9981322315681852,-0.00021220918466071737,-0.0023777274563298576,0.061043833606173555,-0.0007139248679815133,-0.004720682233034346,0.12216565181848021
36.857,183,36,857000000,,13.388724009181889,0.998096071039236,-0.0002226685037465291,-0.002386376425162326,0.06163187877021441,-0.0007386511943797009,-0.004736236618633205,0.1233440311468387
36.867,184,36,867000000,,13.42514425874563,0.99805944940833,-0.00023358312101770976,-0.0023947454782135714,0.06222174931789794,-0.0007642788885320278,-0.004751146681014173,0.1245261135075048
36.877,185,36,877000000,,13.461736976870494,0.9980223642753979,-0.00024460235291902133,-0.002402903400471478,0.06281342661799211,-0.0007901154842618894,-0.004765592080271386,0.12571186078619803
36.887,186,36,887000000,,13.49850125466756,0.9979848133154843,-0.00025537336561100196,-0.0024109029229576326,0.06340689949275694,-0.0008154626451405715,-0.0047797223396921495,0.12690124982259837
36.897,187,36,897000000,,13.535434383762107,0.997946794367318,-0.0002658696305558455,-0.0024187099727797975,0.06400214559735588,-0.0008402624991132745,-0.004793473630967382,0.12809423640983184
36.907,188,36,907000000,,13.572533498594233,0.9979083053722183,-0.0002764152752696306,-0.002426219539438969,0.06459915749325139,-0.0008651477759432593,-0.004806595378385348,0.12929080790200945
36.917,189,36,917000000,,13.609797426694293,0.9978693442046185,-0.00028737936651620556,-0.00243335601930494,0.06519791283511094,-0.0008908440485516783,-0.00481888833105204,0.13049092192430226
36.927,190,36,927000000,,13.647226520512774,0.9978299086051022,-0.00029882478232297035,-0.002440140565405281,0.06579840416832797,-0.0009174781530470033,-0.004830384871350457,0.13169456476087457
36.937,191,36,937000000,,13.684821234719873,0.9977899962153096,-0.000310445662567607,-0.0024466910535504136,0.06640060912860801,-0.0009444539143649597,-0.004841359064484019,0.13290169107529576
36.947,192,36,947000000,,13.722580529612946,0.9977496047184449,-0.0003218497354022024,-0.0024531358839920943,0.06700451280267679,-0.0009710048248167993,-0.00485211898664617,0.1341122701340349
36.957,193,36,957000000,,13.760501180270536,0.9977087320637134,-0.00033292738173832217,-0.0024594732587021233,0.06761010029295242,-0.0009969115305834722,-0.004862676549109546,0.1353262723901508
36.967,194,36,967000000,,13.798579485396647,0.9976673764674763,-0.00034395097983091366,-0.0024655532416809154,0.06821736416888939,-0.0010226967493740823,-0.004872696492030704,0.1365436849330573
36.977,195,36,977000000,,13.836813694278915,0.9976255361383677,-0.00035531104732088026,-0.002471219626784769,0.06882627464650054,-0.001049117123406523,-0.004881813529342249,0.13776445039228513
36.987,196,36,987000000,,13.875204042094419,0.9975832090481279,-0.0003671425295008908,-0.002476455782382889,0.0694368317261853,-0.001076438010058057,-0.004889974472862546,0.13898857038129211
36.997,197,36,997000000,,13.913751025731118,0.9975403929081171,-0.00037919189023052165,-0.0024814181244003034,0.07004900558578911,-0.0011041736650069499,-0.004897525170341366,0.14021598487105397
37.007,198,37,7000000,,13.952453530372836,0.9974970853991574,-0.00039105959017666635,-0.002486313976207495,0.07066278874987503,-0.001131555214513284,-0.004904934834335295,0.14144667824469764
37.017,199,37,17000000,,13.991307923066696,0.9974532845540682,-0.0004025809001146825,-0.0024911880789163275,0.07127816631462285,-0.0011582601525099944,-0.004912316763184599,0.14268062078660035
37.027,200,37,27000000,,14.03030981572337,0.9974089888500414,-0.00041397471027464856,-0.0024958581109937442,0.07189512340602455,-0.0011846988596805272,-0.004919276944308493,0.14391778428911625
37.037,201,37,37000000,,14.069457002945606,0.9973641968497781,-0.00042562376382262253,-0.0025000884235136037,0.07251363770451139,-0.001211599811260791,-0.004925290223646961,0.14515812621897445
37.047,202,37,47000000,,14.108749691135547,0.9973189067942196,-0.0004377030519005113,-0.0025038147205680913,0.07313369431636497,-0.001239300878215601,-0.00493020181042092,0.1464016183052096
37.057,203,37,57000000,,14.148188462319789,0.9972731164957516,-0.00045001208483904764,-0.0025072204120376606,0.07375528576470579,-0.0012674271937226974,-0.004934405512366569,0.14764824588467934
37.067,204,37,67000000,,14.187772112503271,0.9972268236383215,-0.0004621698616574763,-0.002510588128521765,0.07437839710930672,-0.0012952595650202365,-0.004938520816964553,0.14889797859488707
37.077,205,37,77000000,,14.227537533057049,0.9971800263457999,-0.00047398287142330186,-0.0025140076131403987,0.0750029985382625,-0.0013224252624802386,-0.0049427562085069265,0.15015075663680227
37.087,206,37,87000000,,14.267531319998499,0.997132723373204,-0.00048562236916666654,-0.0025172621834336543,0.07562909008709709,-0.0013492333246700517,-0.004946654810593865,0.15140658155745412
37.097,207,37,97000000,,14.307647665736923,0.9970849136022517,-0.0004974455577967583,-0.0025200588208110996,0.07625664944816989,-0.0013763506998608367,-0.004949578409574107,0.152665410571537
37.107,208,37,107000000,,14.34788350892521,0.9970365955571563,-0.0005096389076360288,-0.002522287187572092,0.07688566173585494,-0.0014041303944605276,-0.004951277641903173,0.15392721538510573
37.117,209,37,117000000,,14.388240635297981,0.9969877671620938,-0.0005220433195007433,-0.0025241563980653472,0.07751611946643783,-0.0014322852772518553,-0.004952192799321908,0.15519198163697503
37.127,210,37,127000000,,14.415534907468786,0.9969384306702802,-0.0005361751651231174,-0.002523814901122726,0.07814799314024393,-0.0014635478356213238,-0.0049483943022754495,0.15645965416887891
37.137,211,37,137000000,,14.469327864143972,0.9968885706327705,-0.000546261282340882,-0.002528007043414078,0.0787812667670639,-0.0014874612553469346,-0.0049542326109366375,0.15773018863492902
37.147,212,37,147000000,,14.51008069457878,0.9968381997213501,-0.0005580222071198662,-0.0025298828780335302,0.07941594145999421,-0.0015143609360378973,-0.004955156347196565,0.15900360111342512
37.157,213,37,157000000,,14.550941353705511,0.9967873126426569,-0.0005699058393575844,-0.002531280284095245,0.08005198712090898,-0.0015414373871755769,-0.0049550722307749595,0.1602798284448904
37.167,214,37,167000000,,14.591909946699083,0.996735908199981,-0.0005820861266291708,-0.002532052857610577,0.0806893963226061,-0.0015690118157370605,-0.0049536599123600755,0.1615588572334017
37.177,215,37,177000000,,14.63298825790751,0.9966839844203255,-0.0005944338448399407,-0.0025324428750883358,0.08132815412199396,-0.0015968634482284218,-0.004951422327390764,0.1628406583422671
37.187,216,37,187000000,,14.674175635706504,0.9966315390379044,-0.0006066541630757672,-0.002532863380327064,0.08196823809722789,-0.0016244706517028803,-0.004949230517164782,0.16412518716878707
37.197,217,37,197000000,,14.715468176388102,0.996578570399697,-0.0006185820911162545,-0.0025334710051887707,0.08260963332280451,-0.0016515304966086633,-0.004947424328545003,0.16541241430799006
37.207,218,37,207000000,,14.756861316311827,0.9965250778157004,-0.0006303308999041957,-0.0025339888607479903,0.08325233240067435,-0.0016782233741594833,-0.004945434016729866,0.16670232586390143
37.217,219,37,217000000,,14.798353495262234,0.9964710609191951,-0.0006421559231084358,-0.002533986862006169,0.08389631305771844,-0.0017049855478517267,-0.004942360245848931,0.16799487815627728
37.227,220,37,227000000,,14.83994606631316,0.9964165187357422,-0.0006541945676014783,-0.0025333147471277508,0.08454156041935881,-0.001732063292907582,-0.004937880129681771,0.16929004253663438
37.237,221,37,237000000,,14.88164026989771,0.9963614493673137,-0.0006663412735880649,-0.002532262340437933,0.08518805952989593,-0.0017592928539113164,-0.00493258851320566,0.17058779013345535
37.247,222,37,247000000,,14.923434557768639,0.9963058506140805,-0.0006783627019878228,-0.0025312894728577915,0.08583580285348413,-0.0017862866211021025,-0.004927441347934547,0.1718881069462845
37.257,223,37,257000000,,14.965324194903705,0.9962497210338714,-0.0006901328625923388,-0.0025305444990512877,0.08648476056275493,-0.001812819372221765,-0.004922756434335929,0.17319093365996235
37.267,224,37,267000000,,15.007304363976559,0.9961930602850476,-0.0007017414421972468,-0.0025296961378764005,0.08713492527448524,-0.0018390129526412388,-0.004917858921430263,0.17449625611031433
37.277,225,37,277000000,,15.04937359598311,0.9961358683212476,-0.0007133770474154178,-0.0025282792671865568,0.087786282179904,-0.0018651609839988234,-0.004911789638802899,0.17580404519165685
37.287,226,37,287000000,,15.091533100075102,0.9960781443344051,-0.0007251357775497034,-0.0025261668999923765,0.0884388089516995,-0.0018914300570793648,-0.0049042786466102495,0.17711425701098865
37.297,227,37,297000000,,15.13378346566653,0.9960198864705525,-0.0007369393460717468,-0.0025237109068783205,0.08909249806762487,-0.0019177240662923817,-0.004896040528023171,0.17842687810553773
37.307,228,37,307000000,,15.176122151755859,0.9959610926437337,-0.0007486249723843555,-0.00252139683026925,0.08974733452858018,-0.0019438044264693186,-0.0048880715577515055,0.17974187990745813
37.317,229,37,317000000,,15.218543787056475,0.9959017617204632,-0.0007601099034452829,-0.0025193256935385406,0.09040329596521746,-0.0019695250069242335,-0.004880588287978771,0.18105921828045068
37.327,230,37,327000000,,15.261043739481147,0.9958418937563814,-0.0007714522711703844,-0.00251709699839575,0.09106037501426502,-0.00199492958154679,-0.004872783100281497,0.18237887870297392
37.337,231,37,337000000,,15.303620905216329,0.9957814889721581,-0.0007827663642079612,-0.002514238663210288,0.09171854942580714,-0.002020158425493109,-0.004863695423965586,0.18370081652696435
37.347,232,37,347000000,,15.34627631141255,0.9957205466318925,-0.0007941106575707518,-0.002510688815540076,0.09237780431131931,-0.002045313949346395,-0.004853191533370493,0.18502500288794466
37.357,233,37,357000000,,15.389009700483099,0.9956590649031931,-0.0008054456961660291,-0.0025068685780139997,0.09303813212727056,-0.0020703931077149604,-0.004842117443679461,0.18635142476499703
37.367,234,37,367000000,,15.431817484381417,0.99559704189861,-0.000816683955212626,-0.0025032552521025418,0.09369950296710779,-0.002095309794123135,-0.004831440083396865,0.18768002382901275
37.377,235,37,377000000,,15.474693994190453,0.9955344769084594,-0.0008277744785933277,-0.002499859014438337,0.09436191683165757,-0.002119965267885911,-0.004821189576720064,0.1890108011498465
37.387,236,37,387000000,,15.51763519637199,0.9954713703969262,-0.0008387277166936884,-0.0024962135081604653,0.09502534402812442,-0.0021442924067652685,-0.0048104359363561056,0.19034369646316518
37.397,237,37,397000000,,15.560640465437702,0.9954077227645584,-0.0008495837508044995,-0.002491879314490108,0.09568978465938083,-0.0021682859032604337,-0.004798297267722296,0.1916787100560979
37.407,238,37,407000000,,15.603710434449129,0.9953435332501192,-0.0008603831978431372,-0.002486897221289638,0.0963552089128806,-0.002192031555194516,-0.004784847586563945,0.19301578303346373
37.417,239,37,417000000,,15.646843732382825,0.9952788000452053,-0.0008711437235436099,-0.0024817539223895447,0.09702160922166086,-0.002215656308341966,-0.004771052700436984,0.19435490289510055
37.427,240,37,427000000,,15.690035815439895,0.9952135215826275,-0.000881847840881503,-0.002476869932880482,0.09768896313434676,-0.002239206716332678,-0.004757753243940233,0.19569602663688468
37.437,241,37,437000000,,15.733281197073026,0.9951476976847637,-0.0008924490677548106,-0.002472129718926079,0.09835726323153311,-0.002262568495506054,-0.0047447285031350095,0.1970391399291236
37.447,242,37,447000000,,15.776576790361506,0.9950813292046675,-0.000902889643618084,-0.0024670181670644583,0.09902649474296975,-0.002285525143560688,-0.004730965088695749,0.19838421217950503
37.457,243,37,457000000,,15.81992232829634,0.9950144165925491,-0.0009131504874599149,-0.0024611812835535042,0.09969663540729459,-0.00230796649695094,-0.004715763134028661,0.19973119824444138
37.467,244,37,467000000,,15.863360285769803,0.9949469589937674,-0.0009232875408283722,-0.002454783965038077,0.10036767773120464,-0.002330034031196741,-0.0046994405269358275,0.20108008496783628
37.477,245,37,477000000,,15.906941395905266,0.994878954711087,-0.0009333883924621818,-0.0024483400379047234,0.10103959922959696,-0.0023520034876472733,-0.004683002693933513,0.20243083008162352
37.487,246,37,487000000,,15.950552786116187,0.994810402617433,-0.0009434864107313739,-0.002442170032305305,0.10171237746809463,-0.002374006117332029,-0.004667080757069675,0.20378339055879777
37.497,247,37,497000000,,15.994186393854104,0.9947413031344564,-0.000953497954383067,-0.0024360195144467584,0.10238601996778067,-0.0023958244876438003,-0.004651185501569399,0.2051377817629945
37.507,248,37,507000000,,16.037841436426454,0.9946716573977831,-0.0009632885299611411,-0.002429373574734148,0.10306048961831002,-0.002417084766714118,-0.004634320693433169,0.20649392728276988
37.517,249,37,517000000,,16.081518772608227,0.9946014657655406,-0.000972817617595302,-0.002422013897007131,0.10373577903021233,-0.0024376590385668862,-0.004616061550478889,0.20785181246160306
37.527,250,37,527000000,,16.125218167081336,0.9945307272254644,-0.0009822043168187604,-0.0024142425242865014,0.10441187321706653,-0.002457844360188802,-0.00459698535232822,0.20921140970875288
37.537,251,37,537000000,,16.168936735329243,0.9944594402915137,-0.0009916107740591063,-0.0024065585132866277,0.10508875713594812,-0.002478066381483596,-0.00457805136822631,0.2105726922109719
37.547,252,37,547000000,,16.212670372082304,0.9943876045311947,-0.0010010618568364312,-0.0023990982645031977,0.10576641584809264,-0.0024984036221275844,-0.0045595255014556635,0.211935631519095
37.557,253,37,557000000,,16.256416462651863,0.994315220957905,-0.0010103923333564153,-0.0023914869490025484,0.10644482711381674,-0.002518448406824183,-0.0045406972770301035,0.21330018170206297
37.567,254,37,567000000,,16.300174502036523,0.9942422908198949,-0.0010194072966594947,-0.002383278342352431,0.10712398361854585,-0.0025377168873383068,-0.004520721694686758,0.21466632676908723
37.577,255,37,577000000,,16.34394421323869,0.9941688142440552,-0.0010281054788605715,-0.0023744299916330005,0.10780387047475919,-0.0025561949558010125,-0.0044995161814060936,0.21603403759973086
37.587,256,37,587000000,,16.387723454696516,0.9940947901359858,-0.0010367009875777017,-0.0023653403634929285,0.10848446520706226,-0.002574392123144935,-0.004477828124158423,0.217403272149651
37.597,257,37,597000000,,16.431508250141576,0.9940202174597383,-0.0010453949258960034,-0.002356408437665386,0.10916575278945859,-0.002592794235952938,-0.004456407357540382,0.21877400347996306
37.607,258,37,607000000,,16.47529502565433,0.9939450965547818,-0.0010541401839132044,-0.0023475750333180312,0.1098477257909404,-0.0026112951412037527,-0.004435146122844458,0.22014621739038942
37.617,259,37,617000000,,16.519082125741157,0.9938694288933504,-0.0010626684356097207,-0.002338411673886828,0.11053036200145701,-0.0026292669541946854,-0.004413251821919761,0.22151986729615736
37.627,260,37,627000000,,16.562868757876732,0.9937932156204689,-0.0010707800806662156,-0.0023286133010463816,0.11121364662399291,-0.0026462437023470823,-0.004390163588076534,0.2228949224316412
37.637,261,37,637000000,,16.586791412342684,0.9937164588421252,-0.0010806943655177347,-0.0023163454102842957,0.11189757241834279,-0.0026662229335732337,-0.004361740795252533,0.2242713721813214
37.647,262,37,647000000,,16.650450192473237,0.9936391507682178,-0.0010863855863557032,-0.002307930033538724,0.11258210867196053,-0.0026786422147304606,-0.004341897759115199,0.22564915267328386
37.657,263,37,657000000,,16.694295415399854,0.9935612978715235,-0.0010943537805248118,-0.0022976806670912324,0.11326724862275214,-0.00269514744679748,-0.0043178777050205674,0.22702825848101904
37.667,264,37,667000000,,16.738137611587824,0.9934828989691856,-0.001102301276022881,-0.002287350442613475,0.11395298464299444,-0.0027115640717292116,-0.004293679249419924,0.22840867199204126
37.677,265,37,677000000,,16.781970505755186,0.9934039557495644,-0.0011098847549997565,-0.002276550078084005,0.11463928707556943,-0.0027271201936986482,-0.0042686078750111545,0.22979033121406073
37.687,266,37,687000000,,16.825780946777915,0.9933244690599966,-0.00111699393858884,-0.002265164312432105,0.11532614851620367,-0.0027415682801277927,-0.004242461784554452,0.2311732215154766
37.697,267,37,697000000,,16.869603353702505,0.99324443854011,-0.0011238897223160558,-0.002253448793021073,0.11601355396531962,-0.0027554836109056767,-0.004215690567401786,0.23255731571628885
37.707,268,37,707000000,,16.913486747114273,0.9931638636061418,-0.0011309181566362503,-0.0022417361902025497,0.11670148093930723,-0.002769629798011657,-0.004188875354422805,0.23394257198860258
37.717,269,37,717000000,,16.957323202676857,0.9930827447325145,-0.001138115905544277,-0.002230061025254931,0.11738992197274287,-0.002784087624876624,-0.004162075589574377,0.23532897672614186
37.727,270,37,727000000,,16.980104745153923,0.9930010853161506,-0.0011472585259666977,-0.002216250232085818,0.11807885504141054,-0.0028018700705998954,-0.004130555570782901,0.23671648525470382
37.737,271,37,737000000,,17.044864876698508,0.9929188818438269,-0.0011516579229472268,-0.002205660504506485,0.11876827219853162,-0.002810958171791809,-0.0041065346222137755,0.23810507600886555
37.747,272,37,747000000,,17.088613385648646,0.9928361399488934,-0.0011577416377678805,-0.0021927322810821955,0.11945815167999436,-0.0028228021824223343,-0.004077455653819229,0.23949471082124923
37.757,273,37,757000000,,17.132300949320605,0.992752857563545,-0.0011637925432083946,-0.0021796336609185636,0.1201484856996603,-0.002834503132632347,-0.004048030322699514,0.24088537644243052
37.767,274,37,767000000,,17.17592427758295,0.992669034779884,-0.0011700852728135595,-0.002166542333175364,0.12083925182022592,-0.002846648375276345,-0.004018545331210044,0.24227703016548038
37.777,275,37,777000000,,17.219484326862396,0.9925846729447332,-0.0011764323590063627,-0.002153322400088594,0.12153043520152694,-0.002858832510027454,-0.003988775524436772,0.24366964175122338
37.787,276,37,787000000,,17.26298206631116,0.9924997740009689,-0.0011823936424014579,-0.0021397142591256875,0.12222202107314777,-0.0028701176735225447,-0.003958313092487842,0.24506317965572885
37.797,277,37,797000000,,17.3064156777635,0.9924143392531212,-0.0011877900993262115,-0.0021256328498274117,0.12291399458349547,-0.0028801260922256787,-0.003927035082164965,0.24645761388791504
37.807,278,37,807000000,,17.34978112109454,0.9923283689720515,-0.0011929197507881493,-0.002111235684298816,0.12360634074814858,-0.002889486397034089,-0.003895183085734555,0.24785291696042655
37.817,279,37,817000000,,17.393075570098343,0.9922418632027634,-0.001198217994594018,-0.0020967309981768786,0.12429904454723582,-0.0028991131236045854,-0.0038630634489995597,0.2492490619909459
37.827,280,37,827000000,,17.43629900877828,0.9921548229032009,-0.0012037403703944677,-0.002082126906965687,0.12499209106794311,-0.00290911786753041,-0.003830677821901274,0.25064602005687087
37.837,281,37,837000000,,17.47945253956888,0.992067250001133,-0.0012090856745327664,-0.002067245132186669,0.12568546551480198,-0.0029186591256084838,-0.003797772524285259,0.25204376003775436
37.847,282,37,847000000,,17.522534760355494,0.9919791463503946,-0.0012138689862203488,-0.0020519531026365317,0.12637914562944508,-0.0029269385165410387,-0.003764182812596273,0.25344223581395114
37.857,283,37,857000000,,17.565540597222583,0.9918905129232095,-0.001218177999465154,-0.0020362922793481174,0.12707312393839798,-0.0029341390647265246,-0.0037299712680183283,0.25484143397547543
37.867,284,37,867000000,,17.60850556584948,0.9918013500780734,-0.0012224734755643238,-0.0020204051274280987,0.12776738543262398,-0.0029412097703519287,-0.0036953049967729523,0.25624132741751277
37.877,285,37,877000000,,17.651478714317214,0.9917116585818866,-0.0012270411576257904,-0.0020043574392726474,0.1284619151481455,-0.002948733259532831,-0.0036602413397626155,0.2576418881324832
37.887,286,37,887000000,,17.694359144003236,0.9916214401394636,-0.001231650859957494,-0.0019880792437953244,0.12915668333518776,-0.0029562339676999618,-0.0036247000626410397,0.2590430554041813
37.897,287,37,897000000,,17.73714347772891,0.9915306968701454,-0.0012358211110860596,-0.001971467629034388,0.12985169009618258,-0.00296272935358187,-0.003588602126654905,0.26044482869486674
37.907,288,37,907000000,,17.77982803382209,0.9914394303525519,-0.0012394024363142726,-0.0019545097804186027,0.1305469205579534,-0.002967918436351141,-0.003551963252699908,0.2618471783572248
37.917,289,37,917000000,,17.822407332286446,0.9913476414323886,-0.001242755998857125,-0.0019372684336017576,0.13124235974531026,-0.002972532556764093,-0.0035148157621498477,0.2632500765981058
37.927,290,37,927000000,,17.86487952978528,0.9912553309137893,-0.0012463241363002892,-0.0019197976297056604,0.13193797776917662,-0.002977461721199676,-0.0034771513038582835,0.2646534652085961
37.937,291,37,937000000,,17.907246589567507,0.9911625003487002,-0.0012500926040285867,-0.001902075231518946,0.13263377463528261,-0.0029826707166479066,-0.0034389290614740275,0.26605734538844594
37.947,292,37,947000000,,17.949510292098516,0.9910691519154173,-0.0012536066184936222,-0.0018840590481595024,0.13332972062585327,-0.002987245540493408,-0.0034001861173376113,0.26746165581241094
37.957,293,37,957000000,,17.991667616338724,0.9909752876166315,-0.0012565258087202913,-0.0018657478342463518,0.13402581579772288,-0.002990510148898793,-0.0033610125280452152,0.2688663968521799
37.967,294,37,967000000,,18.03371148751449,0.9908809088255454,-0.0012590324986158584,-0.001847153926637667,0.13472203031535324,-0.00299282816315702,-0.0033213864009435934,0.270271509312756
37.977,295,37,977000000,,18.075637554835073,0.9907860166129461,-0.0012616100195613918,-0.0018282700504560468,0.13541836409762506,-0.002995154411488253,-0.0032811643587327133,0.2716769959378573
37.987,296,37,987000000,,18.117446683045713,0.9906906124753393,-0.001264453644444721,-0.0018090740909647437,0.1361148022132721,-0.002997868463094852,-0.0032402493929493126,0.2730828279366349
37.997,297,37,997000000,,18.15914120880989,0.9905946985585762,-0.00126723008589393,-0.001789572282512584,0.1368113149131342,-0.0030003101349776636,-0.003198744257695063,0.27448894448482586
38.007,298,38,7000000,,18.200719484539317,0.9904982771148352,-0.0012694946011171256,-0.0017698171167562483,0.13750788735919445,-0.003001611519947043,-0.003156875812180715,0.2758953152650682
38.017,299,38,17000000,,18.242174055733898,0.9904013499706729,-0.0012712324500247071,-0.0017498223373057875,0.13820451955058077,-0.003001746448239483,-0.003114677706192337,0.2773019416882677
38.027,300,38,27000000,,18.28349815758009,0.9903039185745733,-0.0012728697914137868,-0.0017295228458242594,0.1389011816251799,-0.0030015400874775027,-0.003071905098191552,0.2787087647770931
38.037,301,38,37000000,,18.324691073679276,0.9902059845265528,-0.0012747492482828974,-0.0017088464568747598,0.13959785863616841,-0.0030016495521177156,-0.0030283200743970173,0.2801157558571161
38.047,302,38,47000000,,18.365755375062705,0.9901075499508352,-0.0012767066600327195,-0.00168781039491182,0.14029455060521326,-0.003001752880131006,-0.002984002083918025,0.2815229158699453
38.057,303,38,57000000,,18.40669094114417,0.9900086172301278,-0.0012782843693858765,-0.0016665274178358671,0.14099122778297518,-0.0030009740432933507,-0.0029393034759770398,0.28293018404863557
38.067,304,38,67000000,,18.447491038482724,0.9899091885322852,-0.0012793011790312343,-0.0016450602517266845,0.1416878752855178,-0.0029989712249884138,-0.0028944016272682838,0.28433753085646774
38.077,305,38,77000000,,18.48814708771682,0.9898092656988491,-0.0012800661493240185,-0.001623317336178542,0.14238449307735462,-0.002996329746683765,-0.002849029795731095,0.2857449581262223
