Time,header.seq,header.stamp.secs,header.stamp.nsecs,header.frame_id,torques.x,torques.y,torques.z
57.074,83,57,73000000,,-0.002141257452443113,-0.004465094713496745,0.02113223464495793
57.084,84,57,83000000,,0.003476170242803078,-0.0011111815591067311,0.017052505859910732
57.094,85,57,93000000,,0.002897185626385183,-0.005558750204970275,0.017576537954436918
57.104,86,57,103000000,,0.0029897758535523235,-0.000745543186353294,0.017274120326539712
57.116,87,57,114000000,,0.0031558259195620104,-0.0019240072437309791,0.019527753380023997
57.126,88,57,124000000,,0.0010473015664810288,-0.001604646950467938,0.0203639656589164
57.139,89,57,133000000,,0.00020465175773355735,-0.001918039353339424,0.017377298841675427
57.146,90,57,144000000,,-0.0006615546800339759,-0.0020411042224238425,0.013008980008255448
57.153,91,57,153000000,,-0.0009027803318560194,-0.0015900237457312214,0.011105628351285268
57.167,92,57,167000000,,-0.00021781062995671627,-0.000701373698226195,0.010445587615714376
57.178,93,57,178000000,,0.0011524748644759406,-0.00027174559261420185,0.011970161114298623
57.184,94,57,183000000,,0.001653362109270373,-0.0010685054773100476,0.01428279907506407
57.194,95,57,194000000,,0.0006056756408920946,-0.001480270043150079,0.014525543784464662
57.209,96,57,208000000,,-0.0009553982515646778,-0.00029447394202323737,0.011145564954917028
57.216,97,57,215000000,,-0.0016435396460890363,-0.0001666864009858542,0.01056889785437815
57.221,98,57,223000000,,-0.0011316230870005125,-0.00016403852639680768,0.008756898398928376
57.235,99,57,234000000,,-1.5127178673227966e-05,-0.0003813890581038755,0.0092724762185264
57.247,100,57,247000000,,0.0007800612081269344,-0.0012528955866927026,0.011558312518876988
57.255,101,57,255000000,,0.001242678015460926,-0.0017573951149062613,0.014119469450648278
57.265,102,57,265000000,,0.0006414346997889065,-0.001609269362260976,0.01476616150348159
57.274,103,57,274000000,,-0.0005203639311245414,-0.0009043956694807688,0.013491561135846243
57.284,104,57,284000000,,-0.001094385729680554,1.7593785624728784e-05,0.010915592627403107
57.295,105,57,295000000,,-0.0008470705377925403,-8.148537648055719e-05,0.009701502893877405
57.305,106,57,305000000,,-0.000833117844994165,-0.0006631774537679345,0.009956965831099729
57.317,107,57,317000000,,0.0005709068903097082,-0.0007164942939802471,0.011563638942165444
57.324,108,57,324000000,,0.001553493773330527,-0.0015422477876763487,0.014315992640336096
57.336,109,57,336000000,,0.00021178036285368016,-0.002000806533174482,0.014425450066555505
57.348,110,57,347000000,,-0.0009303404456994879,-0.0005748144267248639,0.012663702174392676
57.357,111,57,354000000,,-0.0011007100615776622,-0.00024620592033946804,0.011902028889161044
57.365,112,57,365000000,,-0.0003285590983490037,0.00030269031851800797,0.01072009861073539
57.373,113,57,373000000,,0.00016535790074881517,-0.0006158315830940586,0.011150907700647993
57.386,114,57,386000000,,0.00018791823063640635,-0.0013796493330660417,0.012444103053205766
57.394,115,57,394000000,,0.0005155158012721215,-0.0019891999640087206,0.014178925327792066
57.405,116,57,405000000,,0.00012630049571133855,-0.002418563608908438,0.014696634604746983
57.414,117,57,413000000,,-0.0005131427841426017,-0.0005020472840983681,0.013301721172498983
57.425,118,57,425000000,,-0.0005469250414960278,9.064439645416894e-05,0.012404829443591173
57.435,119,57,435000000,,-0.00012032640861499159,0.00012347182891438353,0.011864607115125061
57.444,120,57,443000000,,0.0002797617922091892,-0.0007691827021196176,0.01208753773744356
57.454,121,57,453000000,,0.00014313704548341076,-0.0016792820342091217,0.012915701763160115
57.464,122,57,463000000,,-0.00011785464476513622,-0.0020706319768513974,0.013623655092815108
57.475,123,57,473000000,,-0.00031996211433794994,-0.0021392965699975263,0.014255137742101713
57.487,124,57,487000000,,-0.00045393297201778396,-0.0004020004335049842,0.013092520625928143
57.495,125,57,494000000,,-0.00018279962942670077,0.0007602768117490016,0.012794175039796088
57.508,126,57,508000000,,0.00023940189980170518,8.4819671127326e-05,0.013051146230539866
57.514,127,57,514000000,,0.0003966312509227222,-0.0012071216781620998,0.013430512339574607
57.524,128,57,524000000,,-5.050168810374645e-05,-0.001969085507771198,0.013510128671174267
57.535,129,57,535000000,,-0.000533790361540048,-0.0019582265415257435,0.013036763783478228
57.544,130,57,544000000,,-0.0006937444896200232,-0.0013776980334710032,0.012910625274634224
57.558,131,57,556000000,,-0.00017626693587455028,-0.0003417181613845292,0.013118331979265322
57.564,132,57,563000000,,0.0002863670423998581,-0.00011355012365988043,0.014217834636694042
57.579,133,57,576000000,,0.00047232842445411383,-0.00046684691504986355,0.014903119254370526
57.584,134,57,584000000,,0.000272102886122365,-0.0011775386279015993,0.014882626567569144
57.594,135,57,593000000,,-0.00020910933195645548,-0.0019050793698273975,0.014392769883542992
57.604,136,57,603000000,,-0.0009674231485383813,-0.001573785956814323,0.012001357047566538
57.615,137,57,615000000,,-0.0006761011768573702,-0.0010853995863051706,0.011987103543069302
57.627,138,57,624000000,,-4.002384955958629e-05,-0.0005606705796820141,0.013492330874171522
57.634,139,57,633000000,,0.0006612186559466797,-0.00028486624983841097,0.015592258812141
57.647,140,57,644000000,,0.0007904625646011796,-0.0009620981992230176,0.017164361397163354
57.655,141,57,655000000,,0.0002376457358625562,-0.0006628478179705733,0.016644915190909042
57.664,142,57,663000000,,-0.0008002760472496928,-0.0019460096436657074,0.013391522535546813
57.675,143,57,675000000,,-0.0010132172931262909,-0.0017344797052498066,0.012125882862716523
57.684,144,57,684000000,,-0.0006873311200271044,-0.0007993675517673664,0.01167827210253918
57.697,145,57,695000000,,0.0001507139520273971,-0.0005735339985473962,0.013971347829966747
57.704,146,57,704000000,,0.0008442988492656576,-0.0005325562588815152,0.01693124048405661
57.714,147,57,713000000,,0.0006413146871285557,-0.0011511435764863663,0.017902219960107775
57.724,148,57,723000000,,-0.00017244926958786172,-0.0015639429438977029,0.016552452190981216
57.734,149,57,734000000,,-0.001079241445615938,-0.0013961905972244971,0.012671452281552292
57.743,150,57,743000000,,-0.0010444500261478796,-0.0011928863697624852,0.011062747231836338
57.754,151,57,753000000,,-0.0004770502032082208,-0.0007368674723311776,0.01151789314021236
57.764,152,57,763000000,,0.00033989811085493476,-0.0007535822143313588,0.014748158711728666
57.774,153,57,774000000,,0.0007669677503159027,-0.0011237874159416514,0.018318137128867207
57.786,154,57,785000000,,0.0006101784998476964,-0.0015959788767638088,0.019322025767264626
57.796,155,57,793000000,,-0.0006092164851568422,-0.0013727643204574124,0.016515529511747132
57.804,156,57,803000000,,-0.0013954891552727462,-0.0011450201194052121,0.011916062453064761
57.816,157,57,815000000,,-0.0010065846885859613,-0.0006694336663771799,0.009450596427862808
57.825,158,57,823000000,,-7.212528167842062e-05,-0.0006178619567990835,0.011609459778097455
57.834,159,57,833000000,,0.00056508255391857,-0.001073337568621365,0.015984501868046758
57.845,160,57,845000000,,0.0006399735303381269,-0.0016319354028257287,0.019810621931361794
57.855,161,57,854000000,,0.0003811954955706281,-0.0018970365121420587,0.020504538191008663
57.867,162,57,866000000,,-0.0006501366791493572,-0.001542131559166075,0.01714135194886235
57.874,163,57,874000000,,-0.0015981631473405598,-0.000248024211973493,0.009545571547128748
57.888,164,57,883000000,,-0.0009174070198275298,-0.0003111081556302041,0.009094051361707711
57.895,165,57,895000000,,0.00023226539603311505,-0.0009041662900898166,0.01211035966990967
57.904,166,57,904000000,,0.0008261875126572123,-0.0015780231729484464,0.018102601989163615
57.913,167,57,913000000,,0.00041382621904730976,-0.0020364712829885052,0.021095607638883743
57.924,168,57,923000000,,-1.8310203629741127e-05,-0.0022783436277134346,0.021937537023809156
57.934,169,57,933000000,,-0.0012747454878594489,-0.0005236360289306728,0.014237913787963158
57.943,170,57,943000000,,-0.00095717570225552,-0.00017566585467094706,0.009839231557142166
57.954,171,57,953000000,,-0.0002751458920988416,-0.0005122222829837368,0.010553338107557413
57.964,172,57,963000000,,0.00026519130917464456,-0.0013348517376548892,0.015094521984708545
57.974,173,57,973000000,,0.000362550959274123,-0.002033815862276236,0.019803142759845172
57.984,174,57,983000000,,-6.015709293067272e-05,-0.002040715982877317,0.02109663427140544
57.994,175,57,993000000,,-0.0006652621206158016,-0.001300868807881732,0.01793927205130375
58.004,176,58,4000000,,-0.0008541499823393875,-0.00046718424918485194,0.013835169679411287
58.014,177,58,13000000,,-0.0005744884532064491,-4.756746406798249e-05,0.01044172122371978
58.024,178,58,24000000,,4.8674452828035406e-05,-0.0008293727820643475,0.012099019618294293
58.036,179,58,35000000,,0.00013620877620991445,-0.0012259670956242545,0.015430797157197215
58.05,180,58,50000000,,6.551489407931144e-05,-0.0028394762881585123,0.022314012882000134
58.054,181,58,54000000,,-0.00039647028511720383,-0.0026255539115503925,0.022479568987345273
58.068,182,58,68000000,,-0.0007135376605738567,-0.0013499551177615149,0.01898340034146221
58.076,183,58,75000000,,-0.0007519152167803839,0.0006726828370153463,0.011388850676562333
58.084,184,58,84000000,,-0.00027640102560632003,0.000516390127940778,0.010488945542286151
58.096,185,58,96000000,,8.924904231957047e-05,-0.001270791037828034,0.01451537379250922
58.104,186,58,103000000,,0.00013726488889078265,-0.0027385531045119923,0.018842012924818498
58.117,187,58,115000000,,-0.00035548034186916766,-0.0025874755241325105,0.020981843568081984
58.125,188,58,125000000,,-0.0010344514513392408,-0.0010357415213270852,0.01922778360034579
58.134,189,58,134000000,,-0.0007483114579599698,-0.0009412483845646641,0.018098796375174992
58.144,190,58,143000000,,-0.0002904615163976943,0.001013396319443686,0.011090403363347705
58.154,191,58,154000000,,0.0002622261569934405,-0.00038705517407839945,0.01275484790551916
58.167,192,58,167000000,,0.00012131873079271907,-0.0020796428132069857,0.01625054326036435
58.179,193,58,177000000,,-0.0004931206451856339,-0.003081025103661169,0.020029868750462552
58.184,194,58,184000000,,-0.0010659670025745499,-0.0025296671094389277,0.02105909645979741
58.196,195,58,196000000,,-0.0008187186841798374,-0.0005973474294766715,0.017838915393407893
58.205,196,58,205000000,,-0.00020108184074303276,0.0006487023248136863,0.015064226787926665
58.216,197,58,214000000,,0.00046219448274699404,0.00011845821702244634,0.014325203296536358
58.225,198,58,225000000,,4.098172719706675e-05,-0.0008182997147645332,0.014970495920136093
58.234,199,58,233000000,,-0.00048366793756842916,-0.002812954223383243,0.017841623500177144
58.247,200,58,246000000,,-0.0010494370100200467,-0.002544494585068664,0.018883646577637477
58.257,201,58,254000000,,-0.0009845381951305312,-0.0013473052615192674,0.01841010933515879
58.264,202,58,263000000,,-0.0004596357662206401,7.253672911067916e-05,0.017058689061321103
58.274,203,58,274000000,,0.0003317803027999796,-0.0001349990512123201,0.016664152957236025
58.284,204,58,283000000,,0.000300111294395533,-0.0001721857372344182,0.015559729415969782
58.296,205,58,295000000,,-0.00010622787013007431,-0.0012954474844705988,0.01635828522968046
58.304,206,58,303000000,,-0.000928031165614706,-0.0034609289717496784,0.01799264465901449
58.314,207,58,313000000,,-0.0014864140260214776,-0.0018571948519028316,0.01777658776384563
58.324,208,58,323000000,,-0.0006660972708733891,-0.0003714662483939987,0.017390223781991506
58.334,209,58,333000000,,0.00040611499214636345,0.00015497931625345807,0.017417659124911014
58.343,210,58,343000000,,0.0007067197196381285,-0.0003286563042954276,0.01786831776709405
58.354,211,58,353000000,,-4.566256380282262e-05,-0.0016487605728040492,0.017676061607283834
58.365,212,58,364000000,,-0.001219886681982917,-0.0021790002177506313,0.017047875635416293
58.374,213,58,373000000,,-0.001607191315456005,-0.0021847392965697373,0.016406582225990445
58.383,214,58,383000000,,-0.0010138993019326473,-0.0007916326362572548,0.01654764086901193
58.394,215,58,394000000,,0.00020301003587551515,-5.3859873955375585e-05,0.017985918040617672
58.405,216,58,403000000,,0.0009230478522398985,-0.0001782434364323188,0.01947730978612292
58.416,217,58,415000000,,0.0008607574217857687,-0.0011796111517258605,0.020091966947041018
58.424,218,58,423000000,,-0.0011887534744763405,-0.0020004086472934415,0.01730567020078144
58.434,219,58,434000000,,-0.0017774634355386218,-0.0022443786018143674,0.015631932467250403
58.444,220,58,443000000,,-0.0016135415242513145,-0.0009543649204426361,0.014895213062753264
58.453,221,58,453000000,,-0.0004644256149164665,-0.0006515868650273453,0.016685750149668405
58.464,222,58,464000000,,0.0010032177382748855,0.00013467310416396573,0.020578809769455607
58.474,223,58,473000000,,0.001008511855385808,-0.0009791754929895499,0.02156102493824849
58.484,224,58,484000000,,-0.0005840491859377215,-0.0019071379977925987,0.019132849942504956
58.493,225,58,493000000,,-0.0018215104334006668,-0.0020787549411613363,0.015200311196324739
58.505,226,58,504000000,,-0.002097000891247685,-0.0011802567958232274,0.012775542517387556
58.514,227,58,513000000,,-0.0007810653663960874,-7.057088623784445e-05,0.015189491846269462
58.524,228,58,524000000,,0.0008328292776393375,-0.0004593536260732449,0.02000378452873744
58.534,229,58,533000000,,0.0012031022909493507,-0.0011029899401895115,0.022947262486329983
58.545,230,58,543000000,,6.726101579024389e-05,-0.0017788903936629286,0.02196214651910795
58.554,231,58,553000000,,-0.0016332742871383009,-0.0017467484256035646,0.01687008266683119
58.568,232,58,564000000,,-0.0021823109500246365,-0.0009004332577205853,0.012627369919457435
58.574,233,58,574000000,,-0.0011351570882063003,2.4098461189890922e-05,0.012915331085841012
58.586,234,58,584000000,,0.0007792706936178192,-0.000580323195622267,0.01939654768647851
58.594,235,58,594000000,,0.0013969940713557108,-0.001387951434806804,0.02345868169738546
58.605,236,58,604000000,,0.00015569515811224025,-0.0017866783138806735,0.023352016303463445
58.614,237,58,613000000,,-0.001334306854625723,-0.0015624745128195625,0.019245752296621038
58.624,238,58,623000000,,-0.002194297150233272,-0.00038626076062340457,0.012313279717235516
58.637,239,58,636000000,,-0.00124801476703953,-0.00020441031199757266,0.01167588564070704
58.644,240,58,643000000,,0.0003390004138196995,-0.0002893478017813475,0.016552716717386732
58.654,241,58,653000000,,0.001184322988837319,-0.0014271490333940752,0.0235079421883978
58.664,242,58,663000000,,0.00042073252824359036,-0.0019927078596100782,0.02473269468786367
58.674,243,58,673000000,,-0.001113657636707859,-0.0014918530110562198,0.02025082707610911
58.684,244,58,684000000,,-0.0019590700398472607,-0.00034545201586223134,0.013740542774668634
58.694,245,58,694000000,,-0.00162110023202157,0.0005026291937708762,0.010137422068583323
58.706,246,58,706000000,,5.576473220421008e-05,-0.00025806105388294733,0.01597229052368451
58.714,247,58,714000000,,0.0012301875820140945,-0.0018237081017529202,0.022590029821367107
58.724,248,58,723000000,,0.0004191306276985121,-0.0020099947606388776,0.025408536575913382
58.734,249,58,733000000,,-0.0009082283618875456,-0.0017810081794121526,0.022214732281237257
58.745,250,58,744000000,,-0.0019439224959698555,-0.00031233818255448206,0.015944556881474257
58.755,251,58,754000000,,-0.0015939140092173783,0.0008830814130664048,0.010297261357287778
58.766,252,58,766000000,,-0.00033336893809739914,0.0002472730161328701,0.013247058859813544
58.778,253,58,778000000,,0.0009869320367471763,-0.0015578220280929342,0.02293467568330365
58.784,254,58,784000000,,0.0012070467353628954,-0.0033966561058513737,0.02605359035314481
58.794,255,58,793000000,,-0.0006956377215030687,-0.0019117996296056363,0.02413293124918859
58.804,256,58,803000000,,-0.0020170552498975235,0.00019768982709224823,0.016791990018349953
58.819,257,58,819000000,,-0.0016340587709674408,0.0009529848769931635,0.013172740978603357
58.824,258,58,823000000,,-2.1237979785763983e-05,0.0008376323117350426,0.012559069746463137
58.834,259,58,833000000,,0.0006836371390260584,-0.0015214891571003462,0.019302577456561446
58.845,260,58,843000000,,0.0009450804328384687,-0.003148653208103168,0.0220689922086338
58.854,261,58,853000000,,-0.0012521530665887683,-0.0012104252359304785,0.02457607080577586
58.864,262,58,863000000,,-0.001560113197863799,-0.00017575862220572426,0.018382929850179815
58.874,263,58,873000000,,-0.000962624104384173,0.001050963575873939,0.014004022521505498
58.884,264,58,884000000,,-4.559944448419322e-05,0.0004889580359918946,0.014361793821158387
58.896,265,58,895000000,,0.0002984405271206534,-0.001079106559667553,0.018431773249512732
58.904,266,58,904000000,,0.00019393991784526077,-0.003189622435416365,0.023753279866945008
58.916,267,58,915000000,,-0.0012018669842921072,-0.001462547191155478,0.023005107585517052
58.924,268,58,923000000,,-0.0013467683772444843,-0.00046564331522227207,0.020073216159637912
58.934,269,58,933000000,,-0.0007632357768564895,0.0015511791670939773,0.015304530124834787
58.945,270,58,944000000,,1.0693202442398254e-05,0.0009324907351758215,0.015520467139261295
58.954,271,58,953000000,,0.0006517460291677381,-0.0012958036725250748,0.01778893962227972
58.964,272,58,963000000,,-0.0005071733148801595,-0.002110843865064789,0.022237678796808005
58.974,273,58,973000000,,-0.0011774824524145165,-0.0020719244122828972,0.022153575636423416
58.989,274,58,989000000,,-0.0007182340659338394,-0.0015069272077845549,0.019502506556155628
58.995,275,58,995000000,,-0.0008003765846817552,0.003140420768329355,0.016590655846109668
59.004,276,59,3000000,,0.0002560979761928694,0.0014072971930826554,0.01676130427383542
59.016,277,59,16000000,,0.0003306852044453292,-0.001502751348995145,0.018729193462670504
59.024,278,59,24000000,,-0.0004656692957043282,-0.0035323066335290107,0.02062568013349485
59.033,279,59,33000000,,-0.0014388150348417623,-0.0018095782347633063,0.020476739747035646
59.045,280,59,44000000,,-0.0011995438949446047,0.0002627167392851902,0.01968203477076542
59.055,281,59,55000000,,-0.00012564509614101862,0.001770285102102474,0.01878132809143396
59.064,282,59,63000000,,0.0007222088164011253,0.0008495115761346865,0.018732643331611766
59.075,283,59,75000000,,0.00023968586060842166,-0.0011394287873196843,0.01913868222143442
59.085,284,59,83000000,,-0.0008013017607771274,-0.0028705419450565815,0.019265060239873837
59.094,285,59,93000000,,-0.0018496105366391032,-0.0017459619331475285,0.018652292098358052
59.106,286,59,103000000,,-0.0009891473492002457,0.0005949805825983866,0.019109906684296945
59.114,287,59,114000000,,0.0004045477216979785,0.0018512828341627013,0.020294968380131034
59.125,288,59,124000000,,0.0009462983253294734,0.00080457666186289,0.02116118731131613
59.134,289,59,133000000,,-7.827029379960714e-05,-0.0012936103891002223,0.01953811108440098
59.143,290,59,143000000,,-0.0013322550954950158,-0.0023596871178252054,0.017585305111315983
59.154,291,59,153000000,,-0.0017275045770992366,-0.0008313933435235106,0.016981613832166925
59.164,292,59,163000000,,-0.0005451960962885414,0.0005334208568109915,0.018973025860542034
59.173,293,59,173000000,,0.0007237108068533115,0.0013575865249457197,0.021791465422799347
59.184,294,59,183000000,,0.0009034743515640503,0.0002228062107908714,0.022466630851284503
59.194,295,59,194000000,,-0.00028345822109791157,-0.0013807025919362623,0.01995835146027853
59.204,296,59,203000000,,-0.0016387483567304787,-0.002065205724117579,0.016094619295189776
59.214,297,59,214000000,,-0.0017806330485984304,-0.0002039165231308062,0.015422037802289897
59.224,298,59,223000000,,-0.0003123868837695137,0.001045872676828249,0.01896588640888272
59.235,299,59,234000000,,0.001093506970373403,0.001039060321898573,0.02311430728057495
59.244,300,59,243000000,,0.0010592703025915108,-5.9690481893580425e-05,0.024217587759848298
59.254,301,59,254000000,,9.831929357189426e-05,-0.0013424481596801291,0.022114449279764532
59.268,302,59,266000000,,-0.002594613740458852,-0.00043857408659802406,0.011445659638327128
59.274,303,59,274000000,,-0.002277416760421131,-0.00041262474026282727,0.01272363137402083
59.284,304,59,283000000,,-0.00016897523567536716,0.0010072392643728789,0.018189779273730368
59.294,305,59,293000000,,0.0017516528689896752,0.00126146537152665,0.025430179392742648
59.304,306,59,303000000,,0.0011790910462877923,-0.00013835621084149873,0.025242120897773515
59.314,307,59,313000000,,-0.0009279347621655607,-0.0012846451514451893,0.019188691014039198
59.325,308,59,324000000,,-0.002071881988150602,-0.0007566739015228826,0.013773320282636798
59.334,309,59,334000000,,-0.0014089889897206914,0.0009148722096051273,0.012865273198590498
59.344,310,59,344000000,,0.0003620746750175637,0.0009608817100063659,0.019250787292942717
59.356,311,59,354000000,,0.0014976873552383944,0.0004700009384420717,0.025731296158380774
59.364,312,59,363000000,,0.0006870078866283451,-0.0005221790535657334,0.02572371099170235
59.374,313,59,373000000,,-0.0011018070728602016,-0.0010168650208871677,0.018498938584687017
59.384,314,59,384000000,,-0.0019289571888697012,0.00046004669130144565,0.012436352353357293
59.395,315,59,393000000,,-0.0007847681655482256,0.0009336310712757667,0.013759659681310581
59.405,316,59,403000000,,0.0009888360090121295,0.0009366958358704877,0.021582808214146113
59.414,317,59,413000000,,0.0014942969824147106,-8.147784532025416e-05,0.027052319283290945
59.427,318,59,427000000,,0.00018206146229423308,-0.0009150674381623283,0.024627818582251354
59.435,319,59,435000000,,-0.0016009038476239637,-0.00031006405521083745,0.017400955406126767
59.444,320,59,444000000,,-0.0018266252285184489,0.0011268731950575656,0.010659201967661666
59.455,321,59,455000000,,-0.0005579600221592151,0.0009605470110496116,0.013103419502577141
59.466,322,59,466000000,,0.0015679960262512805,0.0005625173254282973,0.025112492095333443
59.475,323,59,475000000,,0.0015015884144036144,-0.00039261436339804674,0.027754864609371217
59.488,324,59,488000000,,-0.000234719889439128,-0.0006240929916291006,0.02363781193719965
59.495,325,59,495000000,,-0.00185154506408433,0.0003226743635548632,0.014841997573332657
59.504,326,59,504000000,,-0.0013032628682160814,0.0015496659625686953,0.011161376147979421
59.514,327,59,514000000,,0.0003372660194895828,0.0012861708476588469,0.01624335816628441
59.524,328,59,523000000,,0.0012809809718876883,0.0002073382106064813,0.023954043196341045
59.534,329,59,534000000,,0.0008830756239371151,-0.0008676507675129295,0.026363812867763358
59.544,330,59,543000000,,-0.000764334942539593,-0.00012398065270849174,0.02128094565598187
59.554,331,59,553000000,,-0.0013258837972063696,0.0013254548210752232,0.014301334321537228
59.564,332,59,564000000,,-0.0005315797292973253,0.0019951247396535563,0.01219189784762292
59.574,333,59,574000000,,0.00068371012218179,0.0011195384548988762,0.01733558703337198
59.584,334,59,583000000,,0.0012852414715172561,-0.00044001738506992117,0.025184336154621963
59.594,335,59,593000000,,0.0009262307308152715,-0.0013291501915311558,0.026218924151951633
59.604,336,59,603000000,,-0.0011877152494131535,0.001227453724776152,0.01988925921414502
59.613,337,59,613000000,,-0.001098825289487999,0.0018681711772367802,0.013900086984059687
59.624,338,59,623000000,,0.00013063497320525024,0.0019284110222726645,0.013507421534273485
59.633,339,59,633000000,,0.0010978747448359878,0.0006510968074856921,0.019377367441763105
59.644,340,59,644000000,,0.0011231206930756809,-0.0006789603431157803,0.023745040071337983
59.656,341,59,656000000,,-6.376074487665325e-05,-0.00034122635439128935,0.024243160714029717
59.664,342,59,663000000,,-0.0012240500243186703,0.0017734529858022558,0.017696760145795475
59.674,343,59,674000000,,-0.0004227732162893612,0.0022698503987051252,0.014928744916727806
59.686,344,59,685000000,,0.0007531711242187491,0.0016597511426106608,0.016245723816126968
59.695,345,59,695000000,,0.0013818191199386773,0.00015567811710346519,0.02057642031028841
59.704,346,59,704000000,,0.0006078463780808722,-0.0006735621184652289,0.024614314206469503
59.715,347,59,714000000,,-0.00043885444547719937,0.0005680030266366563,0.021356314275508426
59.726,348,59,725000000,,-0.0003099086359963488,0.002357805067317118,0.0165871326398356
59.734,349,59,733000000,,0.0003225254260992768,0.0022011250277972085,0.01643446622710517
59.746,350,59,745000000,,0.0009603157937452937,0.0013234434959837145,0.01809568885734441
59.754,351,59,753000000,,0.0010019203988389921,-5.8722978883634996e-05,0.021216307387160713
59.768,352,59,767000000,,-0.00015935475703160635,-0.00015486333980509767,0.02103393605633992
59.774,353,59,773000000,,-0.0005945596694457093,0.0014329249180589903,0.020087983407997438
59.784,354,59,783000000,,9.780749296245948e-05,0.0024120316880252343,0.018210241139899223
59.794,355,59,794000000,,0.00100640453900726,0.0021233499281484705,0.018090494352978603
59.807,356,59,806000000,,0.0011050490186170557,0.0004753917363995925,0.019371290855841973
59.816,357,59,815000000,,0.000545014034333423,-0.00028625965231597454,0.01984191254177876
59.825,358,59,824000000,,-0.0002576088722002654,0.0005514568769968786,0.019515983785745147
59.835,359,59,834000000,,-0.00011079346421491909,0.0022345555192014787,0.01915537500943241
59.844,360,59,844000000,,0.0006829481269375362,0.0026648715619802137,0.019529228317550343
59.855,361,59,855000000,,0.0012494718330993415,0.0014787873984019439,0.019284270950319905
59.865,362,59,863000000,,0.0008728300735489883,0.0002780239529989888,0.018685005378235843
59.875,363,59,873000000,,0.00010577106870898094,0.000498024084715504,0.017998277670522554
59.884,364,59,883000000,,-0.00020293351378308235,0.0016070230225015134,0.018156440341823763
59.896,365,59,894000000,,0.0005035426146271116,0.0025335774620506442,0.02012215415593942
59.907,366,59,906000000,,0.0013020018564807118,0.0024162901754398824,0.021325983436073163
59.914,367,59,914000000,,0.001388824053634224,0.0012997913755877558,0.020028913566082895
59.924,368,59,923000000,,0.000478938568777409,0.0006340495917185364,0.01669661170976903
59.936,369,59,933000000,,-4.106894730361121e-06,0.0011944585514845568,0.01619366823831629
59.946,370,59,945000000,,0.00039451248288066326,0.0024251589878318074,0.01928365795262748
59.954,371,59,953000000,,0.001059279718720038,0.0026201178646891076,0.021824242677634494
59.963,372,59,963000000,,0.001465760895926832,0.0016936376819000913,0.022319074075174774
59.978,373,59,976000000,,0.0008778999328331058,0.0013100159905035627,0.017531041614697575
59.985,374,59,984000000,,0.00024002961254528154,0.0010636220453306092,0.013592910836414708
59.993,375,59,993000000,,0.0002369264855405799,0.0019532213829481153,0.015211700997366785
60.005,376,60,4000000,,0.0009597545653310315,0.0025532944946156885,0.021093243994667436
60.017,377,60,16000000,,0.0014766209307068964,0.002284256940149299,0.02369252798181208
60.025,378,60,25000000,,0.0014399105811632575,0.0015698569970447383,0.02138051591426794
60.034,379,60,33000000,,0.000713791227255017,0.0013935872701349992,0.014750101914903875
60.044,380,60,43000000,,0.0004200139133357135,0.0020376117203853967,0.013345450786763177
60.054,381,60,53000000,,0.0007203217589254174,0.0024987211695711585,0.01741460329278849
60.065,382,60,64000000,,0.0013729450605871546,0.0025274155527458394,0.023769810147863238
60.074,383,60,74000000,,0.0015870989563702433,0.0018865572145765576,0.024094649175073483
60.087,384,60,84000000,,0.00116946667740575,0.001674497417252104,0.018285962368558638
60.097,385,60,96000000,,0.0006065016038919995,0.002201798434732827,0.010532825891065897
60.107,386,60,107000000,,0.0007067120426100566,0.0024773497088164593,0.012262162248279513
60.114,387,60,114000000,,0.0012365868930203753,0.0026746137420758194,0.021270744132204627
60.126,388,60,126000000,,0.001543479675677435,0.0022940957583366083,0.024307023343534323
60.134,389,60,134000000,,0.0015418851505906558,0.0019520714848612756,0.023200083321407088
60.152,390,60,152000000,,0.0011605698982487555,0.0021455468126206677,0.01434205332665437
60.155,391,60,154000000,,0.0010123953337519897,0.002381857478708764,0.007406317994276258
60.164,392,60,164000000,,0.0009551785958728327,0.003081110005099995,0.014793959152535839
60.174,393,60,174000000,,0.00146077988195914,0.0024422983004391274,0.022976112938587576
60.184,394,60,184000000,,0.0015713703835618749,0.0021558359971424797,0.024053590638932677
60.195,395,60,194000000,,0.001451414068525311,0.0022899182045510447,0.016912629460730407
60.204,396,60,204000000,,0.0014150769827846427,0.00273303049850234,0.011178906241025454
60.214,397,60,214000000,,0.0014302413478812753,0.0030064311771189414,0.012316512865908062
60.226,398,60,226000000,,0.001440263591371478,0.002724083337756934,0.021218323555355526
60.236,399,60,236000000,,0.0015180333396401491,0.0024562989194159613,0.025828238064453363
60.244,400,60,243000000,,0.0015569452868460982,0.0023289294316370932,0.02292940668959044
60.256,401,60,256000000,,0.0017501756961299448,0.0027194452838630355,0.01547898413023467
60.265,402,60,264000000,,0.0018775077871613882,0.003200176423010786,0.009959349451654102
60.274,403,60,273000000,,0.0020659682602095536,0.0034402504722868456,0.01092994682662969
60.284,404,60,283000000,,0.0011124797364023328,0.0023044366841287523,0.025444574361207
60.294,405,60,293000000,,0.0014555189478641498,0.002602586998122776,0.023894710833070407
60.305,406,60,305000000,,0.0018853205878857004,0.0029388980357126743,0.017691355727202734
60.314,407,60,313000000,,0.0022671174108131226,0.003230063566903685,0.010154216368115662
60.326,408,60,326000000,,0.0019706533578025395,0.00318327414380234,0.013870255304370402
60.334,409,60,333000000,,0.0015517706633258015,0.0030377671213644014,0.020295124628105742
60.346,410,60,345000000,,0.0013767848024650356,0.0029165176509049653,0.02426986798516107
60.354,411,60,353000000,,0.001644027518334677,0.0029672474254000595,0.022663917392560805
60.364,412,60,363000000,,0.0026361191472871136,0.003243140027658262,0.01164319039510706
60.374,413,60,373000000,,0.0026359251210268664,0.0032893717527580427,0.010870355340225853
60.384,414,60,383000000,,0.0018290559583427944,0.0032551081380980014,0.01738061263672801
60.399,415,60,399000000,,0.0014139726425576372,0.003362311093745291,0.022028459096110398
60.408,416,60,406000000,,0.0015887316713615218,0.0030604592700075204,0.022899790047039268
60.414,417,60,413000000,,0.002566639655791452,0.0034306721570704435,0.017517560633317764
60.426,418,60,424000000,,0.0030847348399667476,0.0034384276955673003,0.013225556436243013
60.434,419,60,434000000,,0.00240566236118249,0.003119839595797114,0.013666167541959297
60.446,420,60,442000000,,0.0017053887067916614,0.00366411410363916,0.018880056691260947
60.455,421,60,454000000,,0.0013335135940097972,0.0036101717376047678,0.022845474794468204
60.464,422,60,463000000,,0.002354283824493451,0.003758366240613464,0.019092672396469227
60.474,423,60,473000000,,0.0034145849146112006,0.0032090613469946995,0.012846448239420698
60.484,424,60,483000000,,0.0031335385191460867,0.0032009469833284196,0.01293220464071722
60.494,425,60,493000000,,0.0018349548928248485,0.0037961739089608787,0.017835540586624978
60.506,426,60,506000000,,0.001526614901972949,0.004695992912905583,0.02080939557529095
60.514,427,60,513000000,,0.002191835756679639,0.0035357480868157204,0.019516471254464828
60.523,428,60,523000000,,0.0031146448905595794,0.004168658572278673,0.017775553587219904
60.534,429,60,533000000,,0.0036619541069904935,0.0023849178208369803,0.011805780412575313
60.545,430,60,545000000,,0.0033231786839704467,0.0036515221113784862,0.013781552700020013
60.556,431,60,555000000,,0.0014661018721430505,0.004518418132386541,0.018591877252000934
60.569,432,60,569000000,,0.001238322994040743,0.004787284186159469,0.020849776895869566
60.575,433,60,575000000,,0.0032452703478380016,0.003817445497509387,0.01718765640865247
60.584,434,60,584000000,,0.004153020829810676,0.003072763634716944,0.014420185604600604
60.595,435,60,593000000,,0.003341664520701784,0.0032878637282640986,0.01476664214430566
60.604,436,60,604000000,,0.001942089047133716,0.004659702615894974,0.017229755622813522
60.614,437,60,613000000,,0.0018407732603484056,0.005496321430954869,0.01846662070511356
60.624,438,60,623000000,,0.0031926844064072853,0.004493362054460119,0.016981188089781475
60.636,439,60,634000000,,0.004152608523708973,0.003872624684455124,0.015880617664943572
60.647,440,60,646000000,,0.004224512329978863,0.0027963979105224655,0.014460909782344631
60.654,441,60,653000000,,0.0023950159712684007,0.0032879199614630934,0.01568246215330523
60.664,442,60,663000000,,0.0018021991572387574,0.005764604845140013,0.016662027547445314
60.674,443,60,673000000,,0.0027850635699569175,0.005290345820151179,0.016475576486692563
60.685,444,60,685000000,,0.004239756759780592,0.0037873155020354274,0.015653807928226515
60.694,445,60,693000000,,0.004436712441616537,0.0023994571380931535,0.015376847964200253
60.705,446,60,703000000,,0.002995384933571466,0.003938781379670809,0.01579102946252712
60.714,447,60,713000000,,0.0021595732055581973,0.0063243625319610195,0.01578237404429895
60.727,448,60,726000000,,0.003086904399292359,0.007642807586786573,0.015317720232508197
60.733,449,60,733000000,,0.004089046184682853,0.003184673871290905,0.015549941745614354
60.749,450,60,747000000,,0.004711047525225742,0.0020936033730502607,0.01608425364607826
60.754,451,60,753000000,,0.004353737009287356,0.003064324966085905,0.016528021573497705
60.764,452,60,763000000,,0.002394046347114503,0.004965140250857326,0.015400106038539191
60.774,453,60,774000000,,0.0026061828398041068,0.008038086691842923,0.014750725930589645
60.784,454,60,783000000,,0.0041038477918112146,0.004680820527010224,0.014232331300957359
60.796,455,60,793000000,,0.004918181781476333,0.0043805122874590145,0.015339356925314546
60.803,456,60,803000000,,0.004021893653771381,0.0011727538763078727,0.017236217990428158
60.815,457,60,815000000,,0.0029184702404759493,0.0049709773428920825,0.01553852639821495
60.824,458,60,823000000,,0.0030407193762980456,0.00834373928687269,0.013552471500137699
60.834,459,60,833000000,,0.00414856814418569,0.0072109089793910425,0.012938442452190748
60.848,460,60,844000000,,0.005010823126663198,0.00485400682815112,0.014769184238597573
60.856,461,60,854000000,,0.0048955191795490675,0.0005859703834082517,0.01777123382888769
60.864,462,60,863000000,,0.0035121972535956843,0.0027511779797596845,0.01715039891415905
60.875,463,60,875000000,,0.0031242534202492117,0.007642083587504806,0.013577232981202718
60.884,464,60,884000000,,0.003936741982256226,0.008882851544938678,0.011421814676913054
60.894,465,60,894000000,,0.005066738170583773,0.004628743486288528,0.014032212621726721
60.905,466,60,905000000,,0.0044821224620124524,0.0018672485614756576,0.01683343348295732
60.914,467,60,914000000,,0.003292248985640138,0.0029622058497149072,0.017237769570305747
60.924,468,60,924000000,,0.0036190648858160286,0.0076877783159741385,0.013621333047144576
60.934,469,60,934000000,,0.0049252367176190704,0.009182986265307485,0.010561601318791108
60.95,470,60,950000000,,0.005500675535593955,0.005757665130044241,0.012071713261832668
60.954,471,60,954000000,,0.005383079982803928,0.0016797715579083277,0.016394871799006002
60.964,472,60,964000000,,0.0034181560396489997,0.001672163133962951,0.01840159207015407
60.974,473,60,974000000,,0.0033377862840945818,0.005722016531907303,0.015978622585418743
60.984,474,60,983000000,,0.004752560100351215,0.00946580732092936,0.010449998614101851
60.994,475,60,993000000,,0.006037133323887278,0.007785520601277048,0.010026983523567495
61.005,476,61,3000000,,0.004989740926312976,0.0030827273325352207,0.014717633751581844
61.014,477,61,13000000,,0.0033705886700584184,0.001656951340080402,0.01803267563281701
61.024,478,61,24000000,,0.00349891900167836,0.005355744653088084,0.016753025492227975
61.034,479,61,33000000,,0.005189502743158976,0.009218144495144989,0.010241228380778181
61.045,480,61,44000000,,0.006856498132908382,0.012423201661669627,0.009262213347256543
61.056,481,61,53000000,,0.005739467382002501,0.0013390807974943625,0.012437931967958005
61.065,482,61,63000000,,0.00514787575810293,0.0014893686799259975,0.01621246120371377
61.073,483,61,73000000,,0.002148682453373771,0.002100828319558469,0.018170819775405148
61.085,484,61,83000000,,0.003879264833111227,0.008559034458244909,0.015189757549139588
61.094,485,61,93000000,,0.006632780022954847,0.010534007971115105,0.007501661814104301
61.105,486,61,104000000,,0.007788230730211257,0.009735209532075934,0.007885182988344902
61.114,487,61,113000000,,0.004566199663784646,0.0008511154578101218,0.015315405787906385
61.126,488,61,126000000,,0.003268194341325374,0.0023175589460333553,0.017708892016790163
61.136,489,61,136000000,,0.004584432801911494,0.007564366381713577,0.011555274421113697
61.144,490,61,143000000,,0.007622183552647984,0.01288821317758672,0.008659722558255185
61.154,491,61,154000000,,0.007995619976958726,0.007868439400796129,0.008603582109514922
61.164,492,61,163000000,,0.0051012275703873015,0.0026667130374834055,0.013541579669620867
61.174,493,61,173000000,,0.00221826106674909,0.0017235927052930778,0.017806218201237747
61.186,494,61,186000000,,0.00340624092447074,0.006376555439825198,0.01574554048706771
61.194,495,61,193000000,,0.007440564299967425,0.011435741351790367,0.009257708403453626
61.204,496,61,204000000,,0.009343361592498512,0.009169737557069329,0.006771536692761752
61.214,497,61,213000000,,0.005794542781858343,0.0035054833197803556,0.011577516601112206
61.224,498,61,224000000,,0.002488043570500761,0.002723724096878366,0.016214226804833292
61.235,499,61,235000000,,0.0029917779646730014,0.006022009124451885,0.015864811453983448
61.244,500,61,243000000,,0.007694169335716052,0.010508740844930023,0.01026532301055912
61.256,501,61,255000000,,0.01031980743995377,0.009946234280169983,0.006841301441438696
61.264,502,61,264000000,,0.007618997678800107,0.005132451848156366,0.009045573547262903
61.277,503,61,273000000,,0.0029714441189631706,0.002670514684801912,0.014202391272612616
61.284,504,61,283000000,,0.0014306485696438875,0.0044294799936497745,0.016984435778672393
61.295,505,61,294000000,,0.00455346943268694,0.009291916170900087,0.01469436619236095
61.305,506,61,303000000,,0.011026232238999647,0.0091421186513445,0.0054097575285879
61.316,507,61,314000000,,0.009278202633277206,0.007437574017885905,0.006978112043428058
61.324,508,61,323000000,,0.004610396196345912,0.004704569796056504,0.01166895012435692
61.336,509,61,335000000,,0.0016916718239649304,0.005205508858900625,0.01583030590304571
61.346,510,61,343000000,,0.0039120313586761025,0.006632557507201795,0.014557435031699352
61.354,511,61,353000000,,0.011191984734736966,0.010492734137817894,0.007274772887013994
61.365,512,61,364000000,,0.011222439781064394,0.008308756860994715,0.006123475676078991
61.374,513,61,373000000,,0.005293562951214834,0.004148832297831263,0.01059614023500646
61.384,514,61,383000000,,0.0008466412420244773,0.004278139836190751,0.014948900053859066
61.394,515,61,393000000,,0.003231001543219234,0.007810059202066091,0.014288030082043187
61.405,516,61,403000000,,0.010922432293186915,0.01115117737779168,0.008653247302482344
61.414,517,61,413000000,,0.013307946011364655,0.0089696190240395,0.005355417645651875
61.427,518,61,425000000,,0.011248075149585727,0.008479909101676264,0.00661804305934297
61.44,519,61,435000000,,-0.000974705550413756,-0.0009181719532905547,0.015070261451376169
61.444,520,61,443000000,,5.019371084747287e-05,0.005200545795635906,0.01567338771143495
61.456,521,61,455000000,,0.007402353831250522,0.011250026060408922,0.0114912474262856
61.464,522,61,464000000,,0.014033839166866712,0.011270000753792359,0.006013133095777074
61.476,523,61,475000000,,0.011484585734912872,0.006616862872899467,0.006027636814116699
61.484,524,61,484000000,,0.0023864310373957333,0.002643067249628681,0.011606624278910576
61.494,525,61,494000000,,0.0010582179623342368,0.006873495639690835,0.013052823357283116
61.505,526,61,504000000,,0.005684685669827674,0.00744299309086593,0.012356360996434073
61.514,527,61,513000000,,0.01362369565909101,0.01038761761438166,0.00712383841092473
61.525,528,61,523000000,,0.015206632207138037,0.012431171659880308,0.005940455698020942
61.537,529,61,532000000,,0.00495631518676598,0.001442346648617603,0.008896060894384557
61.548,530,61,548000000,,-0.0010388243249009632,0.0044275082012632475,0.013733733424032436
61.556,531,61,556000000,,0.0005681272042825209,0.010570655598165,0.015105006544541217
61.564,532,61,563000000,,0.01220101276310489,0.009769682994089087,0.008095209163670875
61.577,533,61,576000000,,0.016878739583083408,0.01350136964248062,0.005688474240125238
61.584,534,61,583000000,,0.007219756583828121,0.0006691291691055474,0.007060557491098088
61.594,535,61,593000000,,0.0026546295027395335,0.006977044049706787,0.010189776556002034
61.604,536,61,603000000,,0.0006911909937908012,0.008783096289171179,0.013428126795244407
61.615,537,61,614000000,,0.009969704519458184,0.011541422430354442,0.010094546085567207
61.625,538,61,624000000,,0.017196533240959926,0.007894359897407886,0.004641371196327236
61.635,539,61,634000000,,0.014126187101365414,0.007958313829722813,0.0051948480077936895
61.644,540,61,643000000,,0.001841060361305154,0.004191607691993756,0.009599713130214777
61.659,541,61,657000000,,-0.0008049285241041343,0.008675349442757909,0.012455261286834992
61.665,542,61,664000000,,0.004592034735174207,0.015946591069966567,0.012710655771868237
61.674,543,61,673000000,,0.016122611196298604,0.005432685198695703,0.006440019036715819
61.685,544,61,684000000,,0.017429294024348077,0.005892750508634265,0.004508135342717708
61.694,545,61,693000000,,0.0038433025681576614,0.007056204041061048,0.00786545366083825
61.706,546,61,704000000,,-0.0010255733056038024,0.009349898438138878,0.011318803101764226
61.715,547,61,714000000,,0.005273410749549739,0.010896448246583756,0.011297552057799863
61.726,548,61,725000000,,0.015696626736376902,0.01217915583454515,0.00796635140817136
61.734,549,61,733000000,,0.017542310902554762,0.0036528241826778956,0.004177672964017283
61.745,550,61,744000000,,0.011022074468229445,0.006716638667240159,0.005313064319586842
61.756,551,61,755000000,,-0.002671494762537132,0.006412311639289708,0.010306730146134039
61.766,552,61,766000000,,-5.9027177604174114e-05,0.012579000623922972,0.01180842581050765
61.774,553,61,773000000,,0.013230208954077173,0.012199693760491258,0.008902852536223617
61.785,554,61,784000000,,0.019167824093520205,0.010214448741227792,0.0063591640490528924
61.795,555,61,794000000,,0.015142926444630242,0.0017516845088400282,0.004194691099315379
61.808,556,61,808000000,,0.00032591235019107626,0.006556342188012241,0.007879943832072134
61.814,557,61,814000000,,-0.0050751955892570436,0.010476733740346135,0.011449049403276958
61.824,558,61,823000000,,0.006680360403091468,0.014573629175796321,0.010212360046507045
61.835,559,61,833000000,,0.01860219914023925,0.00900829982726976,0.006426782717009626
61.844,560,61,844000000,,0.016191427849194064,0.0028097498532660093,0.003961781135966829
61.86,561,61,859000000,,0.0035413319170348205,0.008503595994348152,0.0066300783767531506
61.864,562,61,863000000,,-3.221871434304119e-05,0.01373200258769014,0.008395076252739667
61.874,563,61,874000000,,0.002155332847482781,0.020009796651205173,0.008395497545096001
61.885,564,61,885000000,,-0.002379652400794894,0.01782456234958677,0.010366969618451592
61.894,565,61,895000000,,0.006739717147899156,0.010685087246417799,0.010752604464389425
61.906,566,61,905000000,,0.01999437773792812,-0.013466199883531694,0.0019857105003262543
61.914,567,61,913000000,,0.0061856390206047815,0.012415236103165351,0.005994398669135065
61.924,568,61,923000000,,0.002463174929829707,0.01643055707354081,0.008538342531617157
61.934,569,61,933000000,,0.013902504082186889,0.012353500870020106,0.008255967198913618
61.944,570,61,943000000,,0.0213910539696563,0.002025275296085819,0.004478274785404194
61.955,571,61,953000000,,0.014517266010103613,0.0023885120379797302,0.0034807303866881117
61.964,572,61,963000000,,0.0004367790966522901,0.009542746749134356,0.006124241109792903
61.977,573,61,976000000,,-0.00045925236322745576,0.01671862296011992,0.00876278518311816
61.985,574,61,985000000,,0.008435273194656864,0.014488375084900387,0.009622782390002148
61.994,575,61,994000000,,0.02136211279675405,0.007669170172052344,0.006432341306590013
62.004,576,62,4000000,,0.018984924119664605,0.0002897150305198335,0.003030271341973867
62.014,577,62,14000000,,0.006332028113915065,0.007471225854432521,0.004154135228805477
62.024,578,62,24000000,,-0.0008845375330529342,0.014634718072446169,0.007546509403603314
62.035,579,62,34000000,,0.005504419689824295,0.01500466808650195,0.00922903554295242
62.047,580,62,46000000,,0.0169471064512191,0.013451426742067991,0.007668668620114226
62.056,581,62,56000000,,0.022939818965938465,-0.0016152470095600526,0.002672779511800734
62.064,582,62,63000000,,0.01516802189383399,0.0031486406145775254,0.0023784890836734667
62.074,583,62,73000000,,-0.00015618757915497258,0.012041606351296013,0.005655772530194121
62.085,584,62,84000000,,0.001603713835907205,0.01767167671231963,0.008464683704849634
62.094,585,62,93000000,,0.014259651451297234,0.012935406492542923,0.00802874918432607
62.104,586,62,103000000,,0.021653539974893787,0.003599467272760134,0.005037730315015183
62.114,587,62,113000000,,0.015755911436047376,0.0003459737398582869,0.002242169587383191
62.123,588,62,123000000,,0.0032992621092184336,0.009515848141444362,0.0038270590943462295
62.134,589,62,133000000,,-0.0002947366916766802,0.01807966635229679,0.006817923260189606
62.143,590,62,143000000,,0.009842415157485497,0.017051953785478788,0.00858017928727456
62.154,591,62,153000000,,0.021136028808752105,0.005976612953900579,0.006024136817302467
62.164,592,62,163000000,,0.022250091073737193,0.0019979696271045207,0.003340750372655919
62.174,593,62,173000000,,0.006754897672164677,-0.0006821073036309203,0.0018848667545770664
62.184,594,62,183000000,,-0.00016082708844560815,0.017130343681456953,0.004734426487592408
62.194,595,62,193000000,,0.003343708664552871,0.02168370860855989,0.008338709585878184
62.206,596,62,205000000,,0.018513043670763514,0.009115090331443821,0.006997576837204032
62.214,597,62,213000000,,0.024543940612366522,0.0016439076451736645,0.0036904611343000016
62.227,598,62,227000000,,0.018507119473654278,-0.0014691174504791755,0.0018774729397174963
62.234,599,62,234000000,,-0.00018131422510314415,0.01034218772996922,0.002883785637292112
62.246,600,62,244000000,,-0.0014441709705984031,0.021586338555164883,0.0053689662481404676
62.254,601,62,253000000,,0.010595525236686859,0.015720830086222378,0.008685668508718103
62.271,602,62,271000000,,0.02119890684476339,0.012379986017245315,0.006705304380281996
62.273,603,62,273000000,,0.025043633774256575,-0.0051338754322008875,0.0005858442109109765
62.284,604,62,283000000,,0.010317483236750033,0.002977298653624209,0.0005570943416771772
62.294,605,62,294000000,,0.0031749479970438767,0.021716234725069818,0.0034183858308328135
62.303,606,62,303000000,,0.0022684484170007197,0.016718617869997572,0.0077551834687202646
62.314,607,62,313000000,,0.016288095010607438,0.014706292394002833,0.007447088233351454
62.324,608,62,323000000,,0.023580095728499423,-0.004588519051174163,0.0027045593874051423
62.334,609,62,334000000,,0.014195014546737005,0.0006049519165651496,0.000502457509908542
62.343,610,62,343000000,,0.0025146744225104153,0.0161522476647094,0.002439637374641674
62.354,611,62,353000000,,0.0024983270096773607,0.023186000795573525,0.006275855782622396
62.365,612,62,364000000,,0.014143357782078857,0.017022529518207017,0.007703843235220021
62.374,613,62,374000000,,0.023635174932723043,0.0033621216628907805,0.005157816379175872
62.384,614,62,383000000,,0.020948976879517137,-0.004910650012002365,0.0010255214029955169
62.395,615,62,394000000,,0.005854379424556164,0.004373385757253141,0.00021461093575559503
62.404,616,62,403000000,,-0.0007135933978216487,0.023668762825454562,0.0038789405022349203
62.413,617,62,413000000,,0.007541551716428407,0.023716762189570962,0.00716645038689049
62.424,618,62,424000000,,0.02006393953024835,0.011700159313082565,0.006692973352164566
62.434,619,62,433000000,,0.02556626472141729,-0.004740216853143183,0.002143286825299905
62.444,620,62,443000000,,0.014037952402055232,-0.0022782194073725937,-0.0005387841856370704
62.454,621,62,453000000,,0.001749757834249017,0.014645044922277368,0.0013427326921882626
62.464,622,62,464000000,,0.0018261847858054012,0.02437853880363336,0.0056011431445561494
62.476,623,62,475000000,,0.014191127762388688,0.02417422035772144,0.007269044249379034
62.485,624,62,484000000,,0.02561133824685318,-0.0019489807253845071,0.004516532759818109
62.496,625,62,495000000,,0.027559130761290615,-0.0021154194557759763,0.0013470265912479745
62.507,626,62,507000000,,0.0073956400333035095,-0.0023165913376620786,-0.001935807415046436
62.516,627,62,516000000,,-0.004646508271860894,0.020420023517514138,0.002083705186776059
62.526,628,62,523000000,,0.0007287020836033976,0.027466268388431372,0.00701122955072087
62.534,629,62,533000000,,0.018336269163668647,0.0202824054177552,0.007301560831509059
62.545,630,62,542000000,,0.02810763835373125,-0.0014396849785643408,0.002757207093370239
62.554,631,62,554000000,,0.01963720509409822,-0.006813048305797228,-0.0021397451507174006
62.569,632,62,563000000,,0.008071270541719702,0.004110873161474712,-0.001677348014456086
62.582,633,62,582000000,,-0.001659961512591593,0.026449999477021507,0.004349649146017408
62.584,634,62,584000000,,0.002247263525664004,0.0297173146685211,0.01042626107602266
62.594,635,62,594000000,,0.01930855124110226,0.011949686226478969,0.00742651938097046
62.607,636,62,605000000,,0.025662708286413108,0.0030125943573413444,0.0029333932189108316
62.615,637,62,614000000,,0.012776020695943847,-0.003851135835661535,-0.0032406563865156283
62.624,638,62,623000000,,0.001847501657981075,0.019327148044093925,0.0006236062481453876
62.635,639,62,635000000,,0.0045503435945005825,0.02826691025876507,0.0052195072899240465
62.644,640,62,643000000,,0.017164606223862653,0.01685868077525336,0.007410789552210004
62.655,641,62,655000000,,0.027415408876166947,-0.0010019170271312987,0.002631124562404593
62.664,642,62,663000000,,0.01946225930409818,-0.008169829566133215,-0.0023111034775095823
62.676,643,62,675000000,,0.002902865610433491,0.008888085803413203,-0.0018460936155694236
62.684,644,62,683000000,,0.00011852210516345328,0.029946361911941125,0.002760158781545832
62.695,645,62,694000000,,0.01268843098981565,0.02364905849013508,0.007149702631640102
62.705,646,62,703000000,,0.025649506797441962,0.010273350646762127,0.005736108649599442
62.714,647,62,714000000,,0.02470281280702257,-0.00902957005484326,0.00019653992260906805
62.724,648,62,723000000,,0.013370410973437278,-0.007199653222972257,-0.0031541770070975146
62.734,649,62,734000000,,0.0012201885766704502,0.020862250270289207,-0.0010654111790684663
62.744,650,62,744000000,,0.003230541560342469,0.029617727140161407,0.004539818832729541
62.754,651,62,754000000,,0.016418602252195047,0.026566947039747206,0.007325356361991031
62.764,652,62,764000000,,0.028657149527142607,-0.0027143044591182875,0.003308225711783454
62.774,653,62,773000000,,0.025636254592493468,-0.01265875533089089,-0.0014938941348828982
62.787,654,62,786000000,,0.004962645465918101,0.0017071049283048211,-0.004085706329817434
62.793,655,62,793000000,,-0.0005010669880137469,0.02353953787331456,-0.003032722184299965
62.805,656,62,804000000,,0.0024780234939478143,0.03403247760608434,0.006396054557319478
62.814,657,62,813000000,,0.01938988373317283,0.012518181142464314,0.008026363189042405
62.827,658,62,824000000,,0.029467996910372267,0.010951190690337337,0.005062719328445984
62.834,659,62,834000000,,0.019380447293374105,-0.01767647824143284,-0.006273211644656237
62.844,660,62,843000000,,0.007031599745801614,0.006855215330507082,-0.0046669467666325525
62.854,661,62,854000000,,0.0013976814337546641,0.029545588557653435,0.001416238827607495
62.864,662,62,863000000,,0.010328755342994565,0.03074343421378204,0.006260393637020336
62.874,663,62,873000000,,0.025326633365936317,0.0071503090836819915,0.006021416616829018
62.884,664,62,883000000,,0.02701020091584448,-0.007478747323235236,-0.0003948326971397794
62.894,665,62,893000000,,0.015634331929978665,-0.008226956189209345,-0.0048469846506495684
62.904,666,62,903000000,,0.0015771408161612353,0.016053535819780505,-0.0034356613600306203
62.915,667,62,914000000,,0.00302763000765445,0.034607911595227726,0.0023977946070674987
62.925,668,62,924000000,,0.01408941875174983,0.02688723221139288,0.007847878712078694
62.934,669,62,933000000,,0.02855319082767764,0.006121259413340941,0.0058667121104224685
62.944,670,62,943000000,,0.029411980326052804,-0.007222986401477905,-0.0007284924695029806
62.954,671,62,953000000,,0.01262584634842251,-0.014393167127972442,-0.007662963579243614
62.964,672,62,963000000,,-0.0010333167263050762,0.020741132883839525,-0.0032571775406576714
62.974,673,62,974000000,,-0.008224991914285652,0.04350330639550621,0.005710287521261035
62.986,674,62,985000000,,0.01623633832704722,0.03898590183568226,0.008211672272885573
62.994,675,62,994000000,,0.035387492682959494,-0.006420097929580889,0.003496997848993218
63.004,676,63,3000000,,0.028627235739285502,-0.013750989049729783,-0.0032623978745504965
63.016,677,63,14000000,,0.009923557839286017,-0.0006218436040885816,-0.007201865147318366
63.026,678,63,26000000,,-0.0032210104928235934,0.024798478006066056,-0.003868445667929611
63.034,679,63,33000000,,-0.0008730324125543979,0.02884684032933514,0.006745978836647793
63.046,680,63,46000000,,0.021660267882384586,0.027173036873664586,0.007921763360445158
63.055,681,63,55000000,,0.03156674332051411,-0.0011046947147693026,0.0026907721112565137
63.065,682,63,65000000,,0.026638112468023126,-0.013327412037311673,-0.006791446844505256
63.074,683,63,73000000,,0.007745842907220143,0.0005501803999540204,-0.00828959914342595
63.086,684,63,86000000,,-0.0010185712889403155,0.02783784893722882,-0.00012312590314314444
63.095,685,63,93000000,,0.008170223893676696,0.038946219792876276,0.006831625410978986
63.103,686,63,103000000,,0.023607386656967447,0.021132030786467103,0.008653183795648276
63.114,687,63,113000000,,0.03362882194433142,0.010196719718437833,0.005231305449415212
63.124,688,63,123000000,,0.020711823952474194,-0.028181378458319993,-0.009521581244036565
63.136,689,63,134000000,,0.00679281545472472,-0.0008812174141742991,-0.009365899222587367
63.144,690,63,143000000,,-0.005594001309740185,0.03288254217521164,-0.0014464026238934181
63.155,691,63,154000000,,0.006136948807666288,0.04056057825878431,0.008733811338658243
63.164,692,63,164000000,,0.020811978495773667,0.0413341811307085,0.009299744117101213
63.173,693,63,173000000,,0.0306752349785196,0.034360095666666535,0.008200219238807633
63.185,694,63,184000000,,0.03864006978219527,0.021814672718194747,0.005638293951889014
63.195,695,63,193000000,,0.024939921350161074,-0.06217637540089353,-0.016877610998230746
63.206,696,63,204000000,,0.011983821612051056,-0.016851643441564437,-0.014614542810863215
63.214,697,63,214000000,,-0.02544295735465787,0.03826095906341343,0.011218389444666403
63.227,698,63,226000000,,0.004182600776730041,0.04211441780026648,0.008865394753532582
63.237,699,63,235000000,,0.042422379916054416,0.003917149726626178,-0.0031730967585284426
63.244,700,63,244000000,,0.038981778772451806,-0.011318161268110255,-0.011832256181770672
63.254,701,63,253000000,,0.011085093664444547,0.0038495263141855567,-0.009664847493032275
63.263,702,63,263000000,,-0.0013613489923834593,0.02840917024124985,0.0003371437883768792
63.273,703,63,273000000,,0.008630411527044806,0.033084243204151514,0.007898091981991711
63.286,704,63,285000000,,0.029644669261699244,0.008225198619781231,0.007274362400811375
63.295,705,63,294000000,,0.0323039556806471,-0.01310644992614641,-0.001817415465698767
63.304,706,63,303000000,,0.017303435280061796,-0.01355207996958776,-0.01073217156296797
63.319,707,63,317000000,,-0.005859072359648067,0.017694232386009933,-0.006089887931618723
63.324,708,63,324000000,,-0.007403283407261965,0.04428969778208166,-0.0010116498027200665
63.336,709,63,335000000,,0.015051382296026199,0.040499897087636905,0.009771594790108445
63.344,710,63,343000000,,0.03434799891363299,0.02053029387288319,0.01062951513671771
63.354,711,63,353000000,,0.035231645037526564,-0.02194110172150631,-0.0018264336230164099
63.365,712,63,364000000,,0.01958286237583985,-0.019193939456221366,-0.010151974247147463
63.374,713,63,374000000,,-0.002835521646787807,0.0106398613299318,-0.011414452116233185
63.385,714,63,384000000,,-0.004826421679473209,0.03488892228726287,0.0006460082912238432
63.394,715,63,393000000,,0.010242920524338898,0.04884554161576584,0.009112622781845953
63.411,716,63,409000000,,0.027919547821299382,0.029377721002422776,0.010663672916639068
63.415,717,63,415000000,,0.05128582231552804,-0.028489445141083335,-0.0027949698996447927
63.424,718,63,423000000,,0.032766670840664314,-0.033211584688595114,-0.01274215420448075
63.437,719,63,436000000,,0.008440077943094476,-0.0009064627143650483,-0.0130960417334493
63.444,720,63,444000000,,-0.017691136522722216,0.027930422012709462,-0.002702536840278227
63.456,721,63,455000000,,0.004154901917614697,0.045038814972848444,0.01018107420351092
63.464,722,63,463000000,,0.030598425713671464,0.024505363861553244,0.011661363147587579
63.474,723,63,474000000,,0.03735560910171193,-0.009677527055925025,0.0005843003471834719
63.485,724,63,485000000,,0.02495641434694931,-0.01940010277901142,-0.010239314724170907
63.498,725,63,497000000,,0.0015147413803249738,-0.0009789347876754638,-0.015167745290192335
63.504,726,63,503000000,,-0.010489746760811287,0.033959393651474525,-0.005299194837735458
63.513,727,63,513000000,,0.0037802760476006035,0.04862913230511423,0.004802363871636026
63.523,728,63,523000000,,0.023972086909869333,0.030634540086871775,0.012440760163203973
63.534,729,63,533000000,,0.041726941664516334,-0.014916455286311275,0.002973575902682603
63.545,730,63,544000000,,0.02413225760085815,-0.021692500239908645,-0.012002775626094007
63.554,731,63,553000000,,0.005544506491698965,-0.0018874966162183756,-0.01527372379999469
63.567,732,63,564000000,,-0.0023481689007102853,0.026322264078831894,-0.008501200959857734
63.575,733,63,575000000,,5.018395186224666e-05,0.044905812312665404,0.006892224964405124
63.584,734,63,583000000,,0.018023776294623435,0.05386588589535166,0.014232080752764581
63.594,735,63,593000000,,0.04008259471598061,-0.024005332646438206,0.007424472281956819
63.605,736,63,604000000,,0.031227729141839036,-0.021213054942286196,-0.008051507607032384
63.615,737,63,614000000,,0.006704589264343162,-0.008230724242635054,-0.016985387078120983
63.625,738,63,624000000,,-0.004703701511832853,0.02535131565997768,-0.011317221591345064
63.634,739,63,633000000,,0.0005358754886665663,0.0456230757054841,0.0018848505691734536
63.645,740,63,645000000,,0.021621228628132406,0.030868872540780082,0.014517559961183334
63.655,741,63,655000000,,0.03738646797080269,-0.0042798409057678635,0.00893521469810405
63.665,742,63,663000000,,0.03509286825157329,-0.01476208696686009,-0.00295745518286595
63.674,743,63,673000000,,0.014072517045967828,-0.014802703515461904,-0.018369961020453573
