Time,header.seq,header.stamp.secs,header.stamp.nsecs,header.frame_id,position_controller_output.thrust.num,position_controller_output.orientation_set_point.w,position_controller_output.orientation_set_point.x,position_controller_output.orientation_set_point.y,position_controller_output.orientation_set_point.z,position_controller_output.euler_set_point.phi,position_controller_output.euler_set_point.theta,position_controller_output.euler_set_point.psi
946.686,1,946,686000000,,10.060049375106718,0.9999999993287105,1.054952569145701e-08,-7.356851773864805e-08,3.6641144106397304e-05,2.109366009943037e-08,-1.471378083817143e-07,7.328228822764079e-05
946.696,2,946,696000000,,10.060097247472896,0.9999999983646906,2.060003614924743e-08,-1.4373917050873902e-07,5.7189139624824144e-05,4.1183631592138146e-08,-2.874806968033994e-07,0.0001143782793060773
946.706,3,946,706000000,,10.060169435827317,0.9999999966164373,3.558158240539321e-08,-2.484569283424252e-07,8.226215140893795e-05,7.112228736709443e-08,-4.969197089366162e-07,0.00016452430298576767
946.716,4,946,716000000,,10.060271252352514,0.9999999937452518,5.647812205100164e-08,-3.9464343159413183e-07,0.00011184514733030503,1.1286796549002665e-07,-7.892994917657603e-07,0.00022369029508245404
946.726,5,946,726000000,,10.064179186178714,0.9999999893390399,-2.488629103969613e-07,5.320749088132137e-06,0.00014592308434450743,-4.96172975279875e-07,1.0641570692859759e-05,0.00029184616708886494
946.736,6,946,736000000,,10.066442192535375,0.9999999829558488,-4.494176360762624e-06,-5.906566927067669e-06,0.00018448094487613463,-8.99053186717002e-06,-1.181147547324457e-05,0.00036896194495098194
946.746,7,946,746000000,,10.05974982818399,0.9999999741134966,-2.2191851416548315e-06,3.1879603322197855e-06,0.00022750366770025077,-4.4369196231844215e-06,6.376930244966772e-06,0.00045500732518200963
946.756,8,946,756000000,,10.059396075086486,0.999999962173903,5.225695054697912e-06,-3.599401301435116e-06,0.00027497622067486496,1.0449410214988542e-05,-7.201676214485531e-06,0.0005499524106646587
946.766,9,946,766000000,,10.061420609990162,0.9999999465713884,-2.046983202331988e-06,3.708482111243688e-07,0.0003268836007912089,-4.0937237375444e-06,7.430346333769933e-07,0.0006537672117057614
946.776,10,946,776000000,,10.068578026330545,0.9999999265234851,-3.989157910234286e-06,-9.307546807545358e-06,0.0003832107467846043,-7.985448739643414e-06,-1.861203487196761e-05,0.0007664215866794563
946.786,11,946,786000000,,10.06665665063295,0.999999901429828,-6.71728864288154e-06,-3.186187542838285e-06,0.0004439426411286239,-1.3437404931216986e-05,-6.366410275848722e-06,0.0008878853542206307
946.796,12,946,796000000,,10.067575193108127,0.999999870410944,5.541118219588449e-06,-1.009208294650428e-06,0.0005090642371134181,1.1081207499588612e-05,-2.0240578979535684e-06,0.0010181285070025544
946.806,13,946,806000000,,10.066967296567494,0.9999998326050163,-2.7140445049998706e-06,-7.097156694854253e-06,0.0005785604589451724,-5.436300370408215e-06,-1.4191170536470565e-05,0.0011571210210517642
946.816,14,946,816000000,,10.06885002795333,0.9999997870449344,3.3195869795982414e-06,-1.5874346886315504e-05,0.0006524163181035552,6.618459182839884e-06,-3.1753018522318044e-05,0.001304832623867043
946.826,15,946,826000000,,10.07170696319247,0.9999997330904874,4.024716527813575e-06,1.3586584433824196e-06,0.0007306167972208207,8.051416224634326e-06,2.7114351104362555e-06,0.001461233735371601
946.836,16,946,836000000,,10.06112946164251,0.9999996693505259,-5.268940715878922e-06,-7.957109228456522e-06,0.0008131468202548472,-1.0550818545078346e-05,-1.590564435072217e-05,0.0016262939037122424
946.846,17,946,846000000,,10.065716808441886,0.9999995949114481,4.493239610411032e-06,-1.3125451127209391e-05,0.0008999913697196209,8.962849998235976e-06,-2.625897937713617e-05,0.0017999828649279048
946.856,18,946,856000000,,10.063048447051598,0.999999508815488,1.478863900579257e-06,-4.147563553293772e-06,0.000991135369976687,2.9495047546004608e-06,-8.298054540833988e-06,0.001982271052282141
946.866,19,946,866000000,,10.064551936656597,0.9999994096023477,-4.673618836537326e-06,-1.233016562640378e-05,0.0010865639195764163,-9.374027183656835e-06,-2.46501603247129e-05,0.0021731283824844823
946.876,20,946,876000000,,10.069476135348033,0.9999992962187754,5.231261430338074e-06,-1.782076375617443e-05,0.001186261768248225,1.0420235322710815e-05,-3.565391372672977e-05,0.0023725239075874515
946.886,21,946,886000000,,10.06573105955657,0.9999991676193047,-2.775547177980274e-06,-1.0035458924981521e-05,0.0012902140151009932,-5.576985515994159e-06,-2.0063739044839934e-05,0.002580428802209091
946.896,22,946,896000000,,10.078681446627094,0.9999990217332121,7.63400861534541e-06,-3.0593843495833954e-05,0.0013984056415535,1.5182437116837956e-05,-6.120897805339531e-05,0.0027968117313927083
946.906,23,946,906000000,,10.080317776042156,0.9999988583283038,3.09094246998402e-06,-2.7400300452297795e-05,0.0015108215151198989,6.099083964595825e-06,-5.480987809258764e-05,0.003021644013769005
946.916,24,946,916000000,,10.082521620111175,0.9999986754282029,1.6451725254076557e-05,-1.698155700689341e-05,0.0016274467338915515,3.284813379110799e-05,-3.4016617646681624e-05,0.003254894346812695
946.926,25,946,926000000,,10.084320310201228,0.9999984716984885,-1.692641083358046e-06,-1.278546080608489e-05,0.0017482660476527002,-3.429981768173573e-06,-2.5564964160729176e-05,0.003496533920595374
946.936,26,946,936000000,,10.087975727641215,0.9999982446724427,5.720492520695865e-06,-3.871433095761539e-05,0.0018732646698688574,1.1295920616033872e-05,-7.7449958072906e-05,0.003746531096346364
946.946,27,946,946000000,,10.083965028728395,0.9999979947793991,2.015749537796727e-06,-2.67901387954688e-05,0.0020024273537323435,3.924200383724424e-06,-5.3588242960200816e-05,0.00400485728015699
946.956,28,946,956000000,,10.08371428280882,0.9999977188884982,5.617739677070856e-06,-2.8360872501132266e-05,0.00213573919519926,1.1114310888862316e-05,-5.67456116977727e-05,0.0042714813241536585
946.966,29,946,966000000,,10.08584265096663,0.999997415814018,5.219510493959303e-06,-3.11074854656302e-05,0.002273185177506687,1.0297567881933458e-05,-6.223854002418427e-05,0.004546373952296033
946.976,30,946,976000000,,10.092557738753094,0.9999970837937108,3.816913129664227e-06,-3.7041686319543305e-05,0.0024147499335951425,7.454911198892247e-06,-7.410159044596298e-05,0.004829504287823053
946.986,31,946,986000000,,10.096078996834468,0.9999967209689806,-3.5987700953561564e-06,-4.789210407788079e-05,0.0025604187947039564,-7.442764310750213e-06,-9.576546550560394e-05,0.005120843546859892
946.996,32,946,996000000,,10.102644948383455,0.9999963264406024,7.99484284202368e-06,-4.454005779775187e-05,0.00271017662903342,1.5748204160783113e-05,-8.912312334485861e-05,0.005420359197340985
947.006,33,947,6000000,,10.10275784474856,0.9999958971007114,7.534891861473221e-06,-5.640018006001949e-05,0.002864008299095201,1.4746660820039996e-05,-0.00011284305753656021,0.005728023606179449
947.016,34,947,16000000,,10.108707503852862,0.9999954322764809,6.7059867755811195e-06,-5.922830200044775e-05,0.003021898906897551,1.3053948498848989e-05,-0.00011849659282936464,0.006043806249677151
947.026,35,947,26000000,,10.114822641235635,0.9999949298478562,9.812604178935508e-06,-5.820422208581054e-05,0.0031838333178728266,1.9254483903829966e-05,-0.0001164703376186349,0.006367676283554093
947.036,36,947,36000000,,10.115760842735485,0.9999943868716296,9.444095026148923e-06,-7.070949152564332e-05,0.003349796394675839,1.8414359416239308e-05,-0.00014148146131143235,0.006699604033322748
947.046,37,947,46000000,,10.122496225771767,0.9999938027838425,8.735900737760415e-06,-7.42534120414467e-05,0.0035197732406081605,1.6948983041398525e-05,-0.00014856740107993538,0.007039559777198033
947.056,38,947,56000000,,10.129406039213936,0.999993175273073,1.186231949929877e-05,-7.406946338078181e-05,0.003693748720773761,2.3177289369879646e-05,-0.0001482255491516149,0.007387512543597678
947.066,39,947,66000000,,10.13121240811255,0.9999925010342982,1.1638708874340793e-05,-8.727701159426319e-05,0.0038717079291912784,2.260142134307027e-05,-0.00017464283846457818,0.007743433260732636
947.076,40,947,76000000,,10.138794472994205,0.9999917797272608,1.1052270586167783e-05,-9.1617017292116e-05,0.004053635505463161,2.136159583915268e-05,-0.00018332213313021484,0.008107291290638993
947.086,41,947,86000000,,10.146573351514986,0.9999910088446232,1.4201003835708283e-05,-9.232927263348331e-05,0.004239516779909058,2.7618889778342005e-05,-0.0001847772968128769,0.008479056444998394
947.096,42,947,96000000,,10.14933999811273,0.9999901846949606,1.4129957342643653e-05,-0.00010626049379779381,0.004429336611809892,2.731831093549995e-05,-0.00021264407591448098,0.008858699336653616
947.106,43,947,106000000,,10.159618786916258,0.9999893077800541,1.587919955188158e-05,-0.00010586351701717691,0.004623079645967313,3.077922929012262e-05,-0.00021187159339608463,0.009246189020755488
947.116,44,947,116000000,,10.166568648061633,0.9999883736684276,1.683551500366434e-05,-0.00011311390059020148,0.00482073143697549,3.258005590435e-05,-0.00022638749190750929,0.009641496593257075
947.126,45,947,126000000,,10.170422067585088,0.9999873799910742,1.6927647210678082e-05,-0.00012773075881473682,0.005022276151214376,3.257186994967236e-05,-0.0002556283271244464,0.010044590449200549
947.136,46,947,136000000,,10.179883404710223,0.9999863263833195,1.6563200924720747e-05,-0.00013391650271881814,0.005227699362577423,3.172579960459756e-05,-0.0002680025212697945,0.010455442191962852
947.146,47,947,146000000,,10.189647339010852,0.9999852099683604,1.9764891461984566e-05,-0.00013653986938244028,0.005436985236072127,3.804446919919957e-05,-0.0002732906261548873,0.010874018951627039
947.156,48,947,156000000,,10.19996375662584,0.9999840272112619,2.1724332603261885e-05,-0.0001448987447344721,0.005650119795352708,4.1810582449063224e-05,-0.00029003835482477314,0.011300293774055895
947.166,49,947,166000000,,10.206669807106413,0.9999827780222384,4.366347811451382e-05,-0.00013797643729702674,0.005867087220800262,8.570641608227067e-05,-0.00027646048053031613,0.011734230038644761
947.176,50,947,176000000,,10.215637511726875,0.9999814534049156,8.497950524758299e-06,-0.00017486158821048835,0.006087873037743777,1.4866516447200617e-05,-0.0003498201662692768,0.012175818873017634
947.186,51,947,186000000,,10.21933420212582,0.9999800594105677,2.2791584294685927e-05,-0.0001819103170873874,0.006312461463821782,4.328565878384944e-05,-0.0003641011294166496,0.012624999105709692
947.196,52,947,196000000,,10.23258725651711,0.9999785921777253,3.9369735341908684e-05,-0.00017628034634653108,0.006540838056649497,7.643174748547544e-05,-0.00035306817459801465,0.013081756113627531
947.206,53,947,206000000,,10.241973755131792,0.9999770438606055,2.129927550875677e-05,-0.00019478584694582088,0.006772987414511538,3.995901198665987e-05,-0.00038985128015456283,0.01354607086875387
947.216,54,947,216000000,,10.253977226418725,0.9999754112347015,4.049675712452409e-05,-0.0002251363938159451,0.00700889416327936,7.783561639394553e-05,-0.0004508294062208762,0.014017885920248132
947.226,55,947,226000000,,10.267424447289347,0.9999736976181852,5.396637176812605e-05,-0.00024447479345028763,0.0072485439070291745,0.0001043857448057647,-0.0004897191011667967,0.014497189661066947
947.236,56,947,236000000,,10.278184760986976,0.9999719107781453,2.2589405425921286e-05,-0.00021967016228835147,0.0074919218233382425,4.1886042509304824e-05,-0.0004396664741328493,0.014983974978743889
947.246,57,947,246000000,,10.285789898078319,0.9999700235842849,3.560568152235275e-05,-0.00024158693862309812,0.007739011433197108,6.746994816741172e-05,-0.00048371051784079633,0.015478161516473713
947.256,58,947,256000000,,10.30457579081539,0.9999680535575846,5.9375784104549e-05,-0.00022682055835129966,0.007989799384208029,0.0001151232851528462,-0.00045457544134475114,0.01597974306111154
947.266,59,947,266000000,,10.318038586155522,0.9999659864269338,1.4482740456993908e-05,-0.0002404268099393916,0.008244269288350065,2.5000211859483893e-05,-0.00048107608210989916,0.01648871982933026
947.276,60,947,276000000,,10.331462700696814,0.9999638100521767,1.1209847817406197e-05,-0.000295880405617181,0.008502406626762072,1.738749627130182e-05,-0.000591930051377032,0.017005013741829084
947.286,61,947,286000000,,10.345445774201995,0.9999615435516924,5.7000110285922074e-05,-0.00031150711092495237,0.008764195747796038,0.00010853563927726218,-0.0006239894236770294,0.017528582915634066
947.296,62,947,296000000,,10.360078593263076,0.999959191444101,6.447279923283507e-05,-0.00027784615636293605,0.009029622753719655,0.00012392266396011098,-0.0005568339946107059,0.018059457156215666
947.306,63,947,306000000,,10.375386774455304,0.9999567243116778,1.8624371444458796e-05,-0.0002895796978432275,0.009298671576791956,3.18617232677691e-05,-0.0005794807284231762,0.018597602719448585
947.316,64,947,316000000,,10.390833649279326,0.9999541320357084,1.4799655124035785e-05,-0.00035112496029407404,0.009571328168126633,2.2876493788834694e-05,-0.0007025010723074043,0.019142941772654586
947.326,65,947,326000000,,10.40364598591884,0.9999514523667825,4.01695670305092e-05,-0.0003413862009944956,0.009847576148167623,7.361159782841002e-05,-0.0006835304539709597,0.019695446638112464
947.336,66,947,336000000,,10.428868250046227,0.9999486434863454,2.129592238476644e-05,-0.00038169539838948745,0.010127400239365638,3.4858503437512e-05,-0.000763783010608643,0.020255134898949728
947.346,67,947,346000000,,10.43794764548079,0.999945740340557,5.9529803621433456e-05,-0.00035823828051124686,0.010410787782537179,0.0001115940906516357,-0.0007176772511605645,0.020821913034927343
947.356,68,947,356000000,,10.456365508360353,0.9999427023124957,4.7968172802113065e-05,-0.0003854346730523281,0.010697720696741348,8.768432994670873e-05,-0.0007718515539427706,0.02139581727554698
947.366,69,947,366000000,,10.47449963914871,0.9999395502531272,6.620615283996961e-05,-0.0003888796751077874,0.010988186189919437,0.00012385817475239937,-0.0007791673847674652,0.02197676809952888
947.376,70,947,376000000,,10.492932563236032,0.9999362712226235,6.992233340023624e-05,-0.00040162488146888297,0.011282167391260738,0.00013077339910980013,-0.0008047764106229316,0.022564762755593114
947.386,71,947,386000000,,10.51230422226329,0.9999328638041023,7.273396855285205e-05,-0.000417482069808016,0.011579650345800023,0.0001357896260897582,-0.000836592648735035,0.023159763567365977
947.396,72,947,396000000,,10.533022002601406,0.999929329283333,8.216061042157594e-05,-0.0004249278179450814,0.011880619270022834,0.00015421285345019914,-0.0008517479168328457,0.023761734105376305
947.406,73,947,406000000,,10.555355260953792,0.9999256580979177,3.927540753656955e-05,-0.00044837635968183125,0.012185060116215968,6.761801695490137e-05,-0.000897643320012742,0.024370695454670445
947.416,74,947,416000000,,10.57419362493732,0.9999218465954546,7.636391611416081e-05,-0.0004699978699342002,0.012492957040017051,0.0001409726326237202,-0.0009418304374888553,0.024986500514138487
947.426,75,947,426000000,,10.60006705772474,0.9999179201657683,0.00013802029793420724,-0.0004288532165037506,0.012804294568271512,0.0002650357140608004,-0.0008611706441505884,0.025609177421142753
947.436,76,947,436000000,,10.62190038256845,0.9999137839567463,9.513145515407225e-05,-0.0005531036779070779,0.013119057548758006,0.00017573421752532106,-0.0011086082801448072,0.026238774516892282
947.446,77,947,446000000,,10.641428289937528,0.9999096037510216,9.324289523376262e-06,-0.0004743492030991267,0.013437233284262386,5.899014140262309e-06,-0.0009488633751115749,0.026875275599428667
947.456,78,947,456000000,,10.667714236699762,0.9999051563071467,0.00014785357867470398,-0.0005932009352465313,0.01375880207795111,0.00027935584442002757,-0.0011903582051229211,0.027518311307462448
947.466,79,947,466000000,,10.693956679903618,0.9999006884412285,0.00017421550843312587,-0.00048039077803536235,0.014083754295093977,0.0003348651646394561,-0.0009655935062355958,0.028168281860494658
947.476,80,947,476000000,,10.717154944688073,0.9998959943943015,0.00021377683295272168,-0.0004969149742987413,0.014412070378508689,0.00041318626906784153,-0.0009998886848463506,0.02882493633096969
947.486,81,947,486000000,,10.74395358017148,0.9998912101304832,0.0001182683810699073,-0.00041965622218782106,0.01474373740635447,0.00022413650851738095,-0.0008427086713349574,0.02948845159958388
947.496,82,947,496000000,,10.768934618950942,0.999886165223379,0.0002219955239615078,-0.0004888125615714427,0.015078738952766948,0.00042919937332861337,-0.0009842088194094156,0.030158413967360537
947.506,83,947,506000000,,10.79963464795566,0.999881040637785,0.0001670252814153728,-0.0004368947063255185,0.015417061922335884,0.0003205396881806761,-0.0008788356585605062,0.03083520796995148
947.516,84,947,516000000,,10.825337729228831,0.9998757555305968,0.000163357846129669,-0.00033243200890190484,0.015758690274564703,0.00031619778973497554,-0.0006699300736403568,0.03151858142729534
947.526,85,947,526000000,,10.85570962359509,0.9998702831625611,9.343616627852078e-05,-0.00028626478606322487,0.016103607803619746,0.00017762833072930168,-0.0005754646559155141,0.03220855815000099
947.536,86,947,536000000,,10.885214022597697,0.9998645728138481,0.00024452511027044164,-0.00033846843886389924,0.016451798807852636,0.00047784729078601993,-0.00068489101145075,0.03290492131928324
947.546,87,947,546000000,,10.913639562404107,0.9998587450637731,0.0002929713694506927,-0.00023422252889334188,0.016803250397358756,0.0005779886702679635,-0.0004782246483983066,0.03360794661740698
947.556,88,947,556000000,,10.946417994618464,0.999852680838756,0.0002914189015220716,-0.0003695777033877964,0.017157945744239914,0.0005700697423035219,-0.0007490468844679743,0.034317365746656774
947.566,89,947,566000000,,10.979250727350857,0.9998465073616419,-0.00011837272535197317,-0.0003767443818592225,0.017515872170680947,-0.0002499071976301723,-0.0007492263757835627,0.035033632263014744
947.576,90,947,576000000,,11.012544663980387,0.9998400762102599,-5.6591358416042994e-05,-0.00048091927521835316,0.017877010395272157,-0.00013035947438430818,-0.0009596615082652082,0.035755992230263337
947.586,91,947,586000000,,11.027907900463601,0.9998329795552522,0.0009262398655962393,-0.0006392027695834447,0.018241339919007785,0.0018288530927081112,-0.00131198410816169,0.036483526780982295
947.596,92,947,596000000,,11.056257054181987,0.9998252624380866,0.001775295758465497,6.161947420075685e-05,0.018608844350121875,0.0035522719062341707,5.7145009070058705e-05,0.03721999727512339
947.606,93,947,606000000,,11.049582696790496,0.9998189254707548,0.0009450041340812162,0.0009999955303009848,0.018979548207370914,0.0019276298731235573,0.001963758672280269,0.03796330437888496
947.616,94,947,616000000,,11.103745665125997,0.9998114987875172,0.0009951578093973842,0.0011928658455727023,0.01935338873923381,0.0020361194483769487,0.002346764780002397,0.038711630042971824
947.626,95,947,626000000,,11.141506807736212,0.9998040190627697,0.00016267134137838853,0.0016154082491952255,0.019730368701395072,0.00038902615383791566,0.003223769772797702,0.039463977198338496
947.636,96,947,636000000,,11.183677010136531,0.9997960123044155,-0.0002071261100435057,0.0018601084569942112,0.02011046761646843,-0.0003393547803843545,0.0037277974752376597,0.04022308476113263
947.646,97,947,646000000,,11.22607910581249,0.9997880067296341,-0.0003229564008646431,0.001961252341423228,0.020493677380708262,-0.0005653937343497161,0.003934920421272414,0.04098919294913194
947.656,98,947,656000000,,11.207312933761644,0.99978028343091,-0.0018211148587165442,-0.00030728541154334104,0.020879989270471744,-0.0036542703540137916,-0.0005383861002827839,0.04176406845321281
947.666,99,947,666000000,,11.25640028912996,0.9997709856308173,-0.002132243465611711,-0.0010220010315891287,0.021269351390450598,-0.004307006429070891,-0.001952832327499987,0.042546235129093064
947.676,100,947,676000000,,11.301388320799962,0.9997622890238518,-0.002131153667934839,-0.001261074163682144,0.02166179445162656,-0.004315954530913324,-0.0024292219488113442,0.04333235284567547
947.686,101,947,686000000,,11.342953040345765,0.9997537093148285,-0.0020571943396355406,-0.0013283785611880817,0.022057290177776426,-0.0041720020371383455,-0.0025653533366214454,0.04412364191522387
947.696,102,947,696000000,,11.381662237789046,0.9997452732720163,-0.0018818686591635001,-0.0012581451990264,0.022455828470270514,-0.003819304551609271,-0.002431133986839029,0.044920190084496874
947.706,103,947,706000000,,11.417920210550554,0.9997367544544606,-0.0016177242880719863,-0.0011595945351724043,0.02285738604524826,-0.0032876216630336624,-0.0022446265418862854,0.04572253404141539
947.716,104,947,716000000,,11.451879855026462,0.9997279548908703,-0.0013132669196495128,-0.0010832478746258946,0.023261945514547595,-0.002676225332420724,-0.0021048096317466403,0.046530971779895645
947.726,105,947,726000000,,11.483774394832116,0.9997187856748166,-0.0010484445407258698,-0.0010028048441500037,0.023669489894634608,-0.0021437769050253967,-0.001955414633336705,0.047345546963406974
947.736,106,947,736000000,,11.514046362874039,0.9997092840194592,-0.000878401985517176,-0.0008540162700378854,0.0240800032356067,-0.0017974261291029687,-0.0016652329120294684,0.04816619464311876
947.746,107,947,746000000,,11.543171323864149,0.9996994825252343,-0.0007979717848014771,-0.0006146296789976036,0.024493471401844977,-0.0016255746561309146,-0.001189800026614174,0.04899283416269911
947.756,108,947,756000000,,11.571434704678238,0.999689354082815,-0.0007588957745688963,-0.0003425750961728313,0.024909878828082915,-0.001534387985023015,-0.0006471293948273615,0.04982542505478676
947.766,109,947,766000000,,11.59891021404845,0.9996788960341305,-0.000718054209535389,-0.0001425213194249713,0.025329210527575686,-0.0014428677291911632,-0.00024857562060098815,0.050664032340360356
947.776,110,947,776000000,,11.625615331927955,0.9996681523556059,-0.0006636001158725948,-8.6534594549417e-05,0.025751452714514594,-0.0013312169925271476,-0.00013883442293161075,0.05150870332428834
947.786,111,947,786000000,,11.651626205244034,0.9996571388022952,-0.000605825105583604,-0.0001547764702265916,0.026176589080489615,-0.001219338172620709,-0.0002777299406446776,0.05235933841899527
947.796,112,947,796000000,,11.67706061390785,0.9996458465045123,-0.0005595713078830466,-0.00025163683808193004,0.026604606419055713,-0.0011321360342391438,-0.0004733211088863154,0.0532157697462571
947.806,113,947,806000000,,11.699124785133321,0.9996342938505346,-0.0005318047034621275,-0.00027934787050243684,0.027035490388418758,-0.0010783254120364527,-0.0005297362454144139,0.05407786522516468
947.816,114,947,816000000,,11.726629395732362,0.9996224860228372,-0.0005221619458934936,-0.0002336526665470698,0.027469222595870688,-0.0010567664573996386,-0.00043844216740063224,0.05494559723916097
947.826,115,947,826000000,,11.750992684384638,0.9996104099504409,-0.0005193060978145373,-0.000159711136436874,0.027905789741847858,-0.0010471215289200814,-0.0002903145396579987,0.055818985981089905
947.836,116,947,836000000,,11.775227249374051,0.9995980500135192,-0.0005181560847210326,-0.00014439380017837534,0.02834517657475622,-0.0010440815840969898,-0.0002592970736610134,0.05669809076418799
947.846,117,947,846000000,,11.799385013364942,0.9995854011741727,-0.0005130077625615549,-0.00022363892723434826,0.028787368125836595,-0.0010384663697213094,-0.0004175561391044358,0.057582917198462445
947.856,118,947,856000000,,11.823466480005346,0.9995724541207934,-0.0004983098555919642,-0.00036124390526753115,0.02923234743527811,-0.0010173140450170308,-0.0006930454356703919,0.05847338831494592
947.866,119,947,866000000,,11.847464990563141,0.9995592192443123,-0.00047642251526309977,-0.0004815109628386802,0.029680101842437554,-0.0009810082091388033,-0.0009343170425342162,0.05936939420438756
947.876,120,947,876000000,,11.871405224669163,0.9995457239918866,-0.0004585238207348745,-0.000530593877353056,0.030130613637099377,-0.0009486059354256006,-0.001033074658153943,0.06027085388078956
947.886,121,947,886000000,,11.895347471626689,0.9995319690542077,-0.00045353285205330804,-0.0005138167161457612,0.030583869933822654,-0.0009380707825831335,-0.0009994110549007562,0.061177762790076314
947.896,122,947,896000000,,11.919346898059304,0.9995179259129556,-0.00045970964984716814,-0.00048144757676598705,0.031039855084932767,-0.000948864753665139,-0.0009338924606550059,0.062090140006218146
947.906,123,947,906000000,,11.94341443791234,0.9995035717887402,-0.00046665160273367433,-0.00048304386467599894,0.031498555440159746,-0.000963270826446517,-0.0009362105701518075,0.06300799785729226
947.916,124,947,916000000,,11.967529649408787,0.9994889019912706,-0.00046325813144634326,-0.000530909529563681,0.031959950440870646,-0.000959979065097447,-0.0010316651346820027,0.06393129866114802
947.926,125,947,926000000,,11.991679047576724,0.9994739242673845,-0.00044708438243595193,-0.0005977967973376001,0.032424027379355964,-0.000932465092799537,-0.0011659723335732952,0.0648599844821936
947.936,126,947,936000000,,12.015873278157292,0.9994586524021595,-0.00042720778292341634,-0.0006456169273450666,0.03289077190403575,-0.0008964235426106624,-0.0012624327961880955,0.06579399559201564
947.946,127,947,946000000,,12.040135942136486,0.9994430921476295,-0.00041546441413888084,-0.000657351189560375,0.033360169426886396,-0.0008743256062573509,-0.0012862506392201656,0.06673330306464578
947.956,128,947,956000000,,12.061985425207885,0.9994272331395335,-0.00041610290908501035,-0.0006438556346003763,0.0338322048312436,-0.0008752960749540221,-0.001258818685616836,0.06767789545150424
947.966,129,947,966000000,,12.088912030150269,0.9994110563641531,-0.000421628358539365,-0.0006340813105903639,0.03430685896471886,-0.0008862675583139062,-0.0012384865722203653,0.06862775305501949
947.976,130,947,976000000,,12.113413276475063,0.9993945535528833,-0.0004246695390696918,-0.0006410115921981822,0.03478412046919937,-0.0008934197164449233,-0.0012517038020547488,0.06958285714918858
947.986,131,947,986000000,,12.137980864286028,0.9993777238434468,-0.00041927163828535814,-0.0006644056862665993,0.03526397451254787,-0.0008848815028376316,-0.0012984144809953246,0.07054317094370999
947.996,132,947,996000000,,12.1626183383523,0.9993605721556444,-0.0004068070193844858,-0.0006899524437720801,0.03574640274823842,-0.0008624213198800906,-0.0013499391728319932,0.07150864496157641
948.006,133,948,6000000,,12.187333054650432,0.999343101695948,-0.0003931728787937284,-0.0007048087056630022,0.03623139050826274,-0.0008369025021161695,-0.0013802014740251778,0.07247924536098353
948.016,134,948,16000000,,12.212129548662036,0.9993253089370425,-0.00038384603228559404,-0.0007071167969793674,0.03671892661464855,-0.0008191041264585345,-0.00138509103748774,0.07345495676270544
948.026,135,948,26000000,,12.237008112414369,0.9993071847890255,-0.00038070827515479804,-0.0007046007343649667,0.03720899223079406,-0.0008133248598407585,-0.001379894047923269,0.07443575226832265
948.036,136,948,36000000,,12.261967544887842,0.9992887200631031,-0.0003814449216617658,-0.0007071390322900395,0.037701572229694065,-0.0008156685938994174,-0.0013845104127570007,0.07542160801890174
948.046,137,948,46000000,,12.287007931602487,0.9992699098901499,-0.0003810278991523916,-0.0007197495381500986,0.03819664791182308,-0.0008164843698750027,-0.0014093406017927634,0.07641248483019576
948.056,138,948,56000000,,12.312131738411884,0.9992507545501191,-0.0003753465239337955,-0.0007393881678676847,0.038694211948986396,-0.0008073516142998806,-0.001448621400047756,0.0774083598567176
948.066,139,948,66000000,,12.337343534585743,0.9992312568721099,-0.0003647770691475546,-0.0007573836866657988,0.039194242218133904,-0.0007883644088340812,-0.001485009130518744,0.07840918132422377
948.076,140,948,76000000,,12.36264883580144,0.9992114179095504,-0.0003543281760995389,-0.0007659364832619205,0.03969672771302902,-0.0007689088062477663,-0.0015025341860377406,0.07941492794752623
948.086,141,948,86000000,,12.388052825924538,0.9991912338075014,-0.0003496609789535373,-0.0007637790452864334,0.040201649787371445,-0.0007601676516957733,-0.0014982093172795086,0.08042557077798464
948.096,142,948,96000000,,12.413559384501365,0.9991706958736069,-0.00035186934747938526,-0.0007578436000161403,0.04070899704641822,-0.0007648581061098545,-0.0014857822845844026,0.08144109548777134
948.106,143,948,106000000,,12.439170100991122,0.9991497937369495,-0.00035577434634490333,-0.0007601161163136392,0.041218750563715656,-0.0007736067381871925,-0.001489611124477097,0.08246146759130014
948.116,144,948,116000000,,12.46488421192413,0.999128520165202,-0.00035414921922545165,-0.0007792140629693469,0.04173089525367076,-0.0007727167499135162,-0.0015275126533325079,0.08348665461190716
948.126,145,948,126000000,,12.490701613210094,0.9991068753093142,-0.0003445861499554499,-0.0008109976025773485,0.04224541633361109,-0.000757079676880972,-0.0015914328622126384,0.08451661957059828
948.136,146,948,136000000,,12.51662750690714,0.9990848674700876,-0.0003323604141159298,-0.0008383122654661955,0.04276229937557874,-0.0007358099046845546,-0.0016466659503837633,0.08555132609234808
948.146,147,948,146000000,,12.542672923726975,0.9990625062858487,-0.0003255935123153648,-0.0008435367547434767,0.04328153003244885,-0.0007235967205417931,-0.0016573082765929392,0.08659074419574543
948.156,148,948,156000000,,12.568848924169982,0.9990397899009155,-0.00032720253028777107,-0.0008246711901892998,0.0438030934790437,-0.0007260240081002672,-0.0016190944065266333,0.08763484859473462
948.166,149,948,166000000,,12.595394877367553,0.9990166993548005,-0.0003326260149383117,-0.0008020497915498285,0.0443269741332268,-0.0007357037444474282,-0.0015730343101529876,0.08868361847366926
948.176,150,948,176000000,,12.621813715213877,0.9989932115322022,-0.0003365981823345909,-0.0008030661863601833,0.04485314874159193,-0.0007445596840288044,-0.0015743210108150052,0.08973702346604703
948.186,151,948,186000000,,12.648342533037411,0.9989693132980701,-0.00033651248023457847,-0.0008409135078263054,0.04538161308717614,-0.0007486563939856054,-0.0016495513686354268,0.09079506416745627
948.196,152,948,196000000,,12.670026160110908,0.9989450163491909,-0.00033426599586577346,-0.0008940689203853804,0.0459123417199163,-0.0007499255229188959,-0.0017555584170958483,0.09185767442057781
948.206,153,948,206000000,,12.701789295618388,0.9989203469121668,-0.00033017499875462574,-0.0009289611479168232,0.046445328521925254,-0.0007459301717106072,-0.0018252472251929497,0.09292481225189507
948.216,154,948,216000000,,12.728730171911879,0.9988953313763833,-0.0003241910882411487,-0.00091611835824548,0.04698055626875402,-0.000733746683374305,-0.0017997523183519437,0.09399641634815283
948.226,155,948,226000000,,12.753653008598823,0.9988699582286862,-0.000313818195368623,-0.0008643019061837069,0.04751800599546522,-0.0007090680219176005,-0.0016968272023325515,0.09507245477710158
948.236,156,948,236000000,,12.783038046464693,0.9988441626213455,-0.0003075917248738047,-0.0008395373413716737,0.04805766732798617,-0.0006951658097436573,-0.0016475704092746568,0.09615298131711442
948.246,157,948,246000000,,12.810394220340278,0.9988179284355803,-0.0003135258622833273,-0.0008569878485735294,0.04859951722692814,-0.0007096099586889098,-0.0016814760364798342,0.09723797490326712
948.256,158,948,256000000,,12.837898867699026,0.9987912481698116,-0.00033394946012755926,-0.0009182485014685,0.04914354422256303,-0.0007573448691726394,-0.0018014551880587426,0.09832742263516742
948.266,159,948,266000000,,12.865571270422329,0.9987641589948086,-0.00035518443779003435,-0.0009793470358359204,0.04968973160543081,-0.0008068195314899127,-0.0019209765799017564,0.09942123345000868
948.276,160,948,276000000,,12.893409665168868,0.9987367109506503,-0.00035706354845763035,-0.00099555270568762,0.05023807085052337,-0.0008132558828578721,-0.0019527149430029755,0.1005193047633896
948.286,161,948,286000000,,12.921378892604784,0.9987089124363604,-0.00033084999762206875,-0.0009606547738283022,0.050788540255130174,-0.0007584276103733519,-0.0018852233086497083,0.10162156794518316
948.296,162,948,296000000,,12.949446691894902,0.9986807136510992,-0.0002943126711390915,-0.0009131990211303449,0.05134113005016049,-0.0006816192656820408,-0.0017937687719471462,0.10272808257854348
948.306,163,948,306000000,,12.977628091085197,0.9986520576441331,-0.0002818940717315621,-0.0009013328904284997,0.051895818814083665,-0.0006565800831025961,-0.0017709785696937708,0.1038389101190343
948.316,164,948,316000000,,13.005973658471138,0.9986229248472305,-0.00031086262937261643,-0.000939868806569068,0.05245258696677958,-0.000719467482967854,-0.0018445390209267387,0.10495405240983763
948.326,165,948,326000000,,13.034775936470496,0.9985933412109317,-0.0003604930498903557,-0.0009987885992312736,0.05301142848099069,-0.0008258680137636705,-0.0019565480341785513,0.10607344543258147
948.336,166,948,336000000,,13.063518750159735,0.9985633566199662,-0.00039185549771890963,-0.0010371393617659506,0.05357232004979275,-0.0008937109650477461,-0.002029314901287549,0.10719692988956547
948.346,167,948,346000000,,13.092400538474081,0.9985330094942323,-0.00037398171559097597,-0.0010309473795532135,0.054135260213811036,-0.0008584892393801088,-0.00201838015452549,0.10832440529166015
948.356,168,948,356000000,,13.121358730988055,0.9985022724530657,-0.0003193529031435694,-0.0009977964781014866,0.054700221649620656,-0.0007469100767328363,-0.0019576680029356197,0.10945586455087328
948.366,169,948,366000000,,13.150435351884864,0.9984710862417123,-0.00027702038719380935,-0.0009749378847505265,0.05526719383919335,-0.0006609591176229537,-0.0019162754715331687,0.11059142584227666
948.376,170,948,376000000,,13.179710676373917,0.9984394155868085,-0.00028872556997225514,-0.0009868031745962093,0.05583615629952827,-0.0006867499153063554,-0.0019382849314533157,0.11173114519629242
948.386,171,948,386000000,,13.209089398973413,0.9984072635049193,-0.0003486069691592702,-0.0010269141970735776,0.05640709435973704,-0.0008119556836776259,-0.0020112307302224686,0.11287498212753284
948.396,172,948,396000000,,13.238997687059392,0.9983746705828741,-0.0004060575841217962,-0.0010643082894352326,0.05697999177886604,-0.0009320859178228232,-0.0020788840575225453,0.11402278275087373
948.406,173,948,406000000,,13.26889582764995,0.9983416770458208,-0.0004154957275078524,-0.001078662021384868,0.05755483984352369,-0.0009537801021508083,-0.0021059204792761577,0.11517440720075973
948.416,174,948,416000000,,13.298768716982124,0.9983082880268211,-0.0003665717342866363,-0.001068608402620694,0.05813162416939664,-0.0008561450612941487,-0.002090983953109804,0.11632979864846388
948.426,175,948,426000000,,13.328958483302143,0.9982744561786717,-0.00030866698368293055,-0.0010548339048955452,0.05871032357732327,-0.0007401296632399554,-0.0020697850863871103,0.11748904523844328
948.436,176,948,436000000,,13.358983600863576,0.9982401454668075,-0.0002946780755027624,-0.0010542896535527418,0.059290924905074975,-0.0007133401759496755,-0.0020699265210943896,0.11865224679537868
948.446,177,948,446000000,,13.389198780734496,0.9982053449678276,-0.0003405437877050559,-0.0010717130458023116,0.05987340524071791,-0.0008082013451867205,-0.0020988018896355154,0.11981939533378795
948.456,178,948,456000000,,13.419663279249242,0.9981700720079189,-0.00040722037542546716,-0.0010959496257083843,0.06045775826274737,-0.000945470001069587,-0.002138650601889003,0.12099039229784901
948.466,179,948,466000000,,13.448036295562336,0.9981343609798897,-0.00043968347883348394,-0.001112890993956102,0.06104396383686811,-0.001013599487059507,-0.002167951135654489,0.1221650654267068
948.476,180,948,476000000,,13.481191017921427,0.9980982263806938,-0.00041258566015854315,-0.0011203841664077319,0.06163201186135392,-0.0009617075370519486,-0.0021856516702809525,0.12334333290935945
948.486,181,948,486000000,,13.512370670101658,0.9980616493333064,-0.00035510478174992426,-0.0011202159907915887,0.06222188646722354,-0.0008482389720840923,-0.0021919004150674493,0.12452522753159319
948.496,182,948,496000000,,13.54335745358,0.9980245979293697,-0.00032179685284510455,-0.001119858309681005,0.06281356719947091,-0.0007830089057900377,-0.0021948676243077614,0.12571083739930694
948.506,183,948,506000000,,13.574496830399854,0.9979870548495027,-0.0003469214175245947,-0.0011248175815609547,0.0634070419084734,-0.0008350909985745908,-0.002201114026573414,0.12690022004191612
948.516,184,948,516000000,,13.606124916050069,0.9979490238760348,-0.0004068317090475688,-0.0011345316397168336,0.06400228858427894,-0.0009572223453833955,-0.002212334968612728,0.12809328136648276
948.526,185,948,526000000,,13.63769293936776,0.9979105212825159,-0.00045356717412372584,-0.0011472294836746767,0.06459930093923488,-0.0010534621723948655,-0.0022310663503275485,0.12928990386288886
948.536,186,948,536000000,,13.669423942958133,0.9978715677655868,-0.0004475508671523831,-0.0011605649812427357,0.0651980581161891,-0.001044532589460744,-0.0022578326180922037,0.13048995467150817
948.546,187,948,546000000,,13.701263594601661,0.9978321587539745,-0.000398690721255694,-0.0011724183986939795,0.06579855254652715,-0.0009499423411282234,-0.002287289013116256,0.13169343526698887
948.556,188,948,556000000,,13.724178324780631,0.9977922756430511,-0.0003571198439550557,-0.001177373900500829,0.06640076081923536,-0.0008690223012715174,-0.00230212514170125,0.13290040515002613
948.566,189,948,566000000,,13.765263704227209,0.9977518966374539,-0.0003638920638597493,-0.00118105541332222,0.0670046667179636,-0.0008844229134406434,-0.002308037673598662,0.134110935055015
948.576,190,948,576000000,,13.797529022523532,0.9977110236477262,-0.000415892657098397,-0.0011803443763182743,0.06761025558298844,-0.0009894909237075436,-0.0022990499995447777,0.13532498600123952
948.586,191,948,586000000,,13.830280349941328,0.9976696596365303,-0.00046811449177305056,-0.0011836945200006243,0.0682175202848239,-0.001095547773067613,-0.0022980070206548575,0.1365424520714312
948.596,192,948,596000000,,13.862920366541983,0.9976278162116758,-0.00047942669950070294,-0.001196806365783729,0.06882643194896126,-0.001121325904046722,-0.00232194227046012,0.1377631914176203
948.606,193,948,606000000,,13.895669293789778,0.9975854978692489,-0.0004429595228412894,-0.0012176637058861097,0.06943699103969977,-0.0010528849462808612,-0.002367933968588032,0.1389871850802985
948.616,194,948,616000000,,13.928508231282688,0.997542695584546,-0.00039800764404999706,-0.0012353656129506243,0.07004916728369646,-0.000967134857989798,-0.0024089020088062796,0.14021444587345888
948.626,195,948,626000000,,13.961740625939985,0.9974994020809795,-0.0003911446984506551,-0.0012396470915605822,0.07066295286383646,-0.0009555303920056234,-0.0024178179421641133,0.1414450582864459
948.636,196,948,636000000,,13.994854132138531,0.997455611601712,-0.00043218300295276313,-0.001230996945838664,0.07127833260580815,-0.0010376567025928028,-0.002394121342430555,0.14267901804893324
948.646,197,948,646000000,,14.028439887970096,0.997411317819713,-0.0004855981727834192,-0.0012226456858630353,0.07189529128255648,-0.0011444906240956443,-0.002369139061627168,0.14391622608155552
948.656,198,948,656000000,,14.062196087220194,0.9973665209188927,-0.0005091462569806735,-0.0012296220114763026,0.07251380667659431,-0.001193943669683736,-0.0023789296326131026,0.14515656262707025
948.666,199,948,666000000,,14.095770672308866,0.9973212243681185,-0.00048464666704387514,-0.0012562667190975396,0.07313386426475353,-0.0011504517583410343,-0.0024349171637494393,0.14639996392515356
948.676,200,948,676000000,,14.129424998609462,0.9972754298821204,-0.0004408137698389272,-0.0012864483123409484,0.07375545685572378,-0.0010689941961375552,-0.002500864352324106,0.1476464555836354
948.686,201,948,686000000,,14.163192681800673,0.9972291432119736,-0.0004244633463559678,-0.0012978678493701492,0.07437857011525294,-0.001039645050629551,-0.0025254040176856396,0.14889609301744336
948.696,202,948,696000000,,14.19713179774974,0.9971823644837571,-0.000454732470222683,-0.0012839926441739937,0.07500317440155013,-0.0010995130852089817,-0.0024925394651751365,0.15014885870751113
948.706,203,948,706000000,,14.231280528051704,0.9971350784464174,-0.0005067102190441389,-0.001261752011873582,0.07562926871130632,-0.0012013716960907327,-0.0024396325560853693,0.15140470990811206
948.716,204,948,716000000,,14.265621401566234,0.9970872692117063,-0.0005371997575117556,-0.0012588082131341847,0.07625682960422477,-0.0012632595859551595,-0.0024283553732777907,0.15266353820878542
948.726,205,948,726000000,,14.300091842401757,0.997038932352605,-0.0005234655876674222,-0.001288484571663323,0.07688584193592504,-0.0012419677494100913,-0.002488846947971135,0.15392528479261217
948.736,206,948,736000000,,14.334641696136,0.9969900772637099,-0.00048442439568544747,-0.0013323253658324649,0.07751629907758126,-0.001172490669977594,-0.0025815316335220384,0.15518994856461218
948.746,207,948,746000000,,14.369334902446047,0.9969407274791174,-0.000462768671127609,-0.0013547219050380993,0.0781481731824569,-0.001134448118664446,-0.0026288288584299657,0.15645752419095324
948.756,208,948,756000000,,14.404240568049822,0.9968908961880771,-0.0004825140835160656,-0.0013382076313264068,0.07878145054908167,-0.0011728838800576821,-0.0025920705935502664,0.15772802411213505
948.766,209,948,766000000,,14.439224305899039,0.9968405616899115,-0.0005276477234272824,-0.0013016873551557739,0.07941612963291643,-0.0012587155511091248,-0.0025113446682869522,0.1590014296928228
948.776,210,948,776000000,,14.474393931162528,0.9967896875098441,-0.0005595826456304904,-0.0012860884163137015,0.08005217784648812,-0.001321485208097265,-0.0024743302470477957,0.16027764436603378
948.786,211,948,786000000,,14.5096874631162,0.9967382551575794,-0.0005553382393626786,-0.0013162277532161744,0.08068958631735823,-0.0013194701012287724,-0.002534251795336173,0.16155664298516406
948.796,212,948,796000000,,14.545054588674036,0.9966862797080991,-0.0005261691479313649,-0.0013725678545062855,0.0813283414145769,-0.001272113286619542,-0.002650457272108886,0.1628383908029723
948.806,213,948,806000000,,14.580510911324032,0.9966338056378605,-0.0005062155157034213,-0.001406654138720382,0.08196842451437164,-0.001239630344955382,-0.0027208541155050447,0.16412285364768703
948.816,214,948,816000000,,14.6161169043668,0.9965808639286288,-0.0005176766332687059,-0.0013893703567376143,0.08260982344086412,-0.0012613694094347348,-0.002683712691810225,0.16541002146543193
948.826,215,948,826000000,,14.651914907033118,0.996527428460121,-0.0005506742485817851,-0.0013407157022040336,0.08325252877970686,-0.0013207647121178691,-0.002580432758261919,0.16669988015643813
948.836,216,948,836000000,,14.687886981540583,0.9964734399807204,-0.0005777652350753134,-0.0013132762929857357,0.08389651335906018,-0.0013718188139757804,-0.0025203475813782017,0.16799239355164478
948.846,217,948,846000000,,14.723971078754351,0.9964188634098728,-0.000581015765448918,-0.0013423446444698738,0.08454175935464937,-0.001384843533452012,-0.0025768377115853447,0.16928755042629998
948.856,218,948,856000000,,14.747440862099339,0.9963637211550185,-0.0005667767335069602,-0.0014053419843182233,0.08518825376581939,-0.0013688742411728865,-0.0027039013923162436,0.17058530184165277
948.866,219,948,866000000,,14.796373804386716,0.9963080712684949,-0.0005533576484134043,-0.0014503953073461272,0.08583599417189745,-0.001351627320472008,-0.002795088734156348,0.17188559498555725
948.876,220,948,876000000,,14.833053396391552,0.9962519687058534,-0.0005581371482474892,-0.0014339392074141806,0.0864849556838868,-0.0013601244051296114,-0.0027605920900684033,0.17318834899146293
948.886,221,948,886000000,,14.86959417615574,0.9961953833672593,-0.0005762686819748262,-0.0013768897153998412,0.08713512846963184,-0.0013881086192155901,-0.002642878941166993,0.17449356839972519
948.896,222,948,896000000,,14.90627384795465,0.9961382332728885,-0.0005939272123952201,-0.0013416889544703757,0.08778649059556164,-0.0014188366947483011,-0.002568740583065665,0.17580128685491903
948.906,223,948,906000000,,14.94305568884987,0.9960804694928174,-0.0006029853483689226,-0.0013693612506350862,0.08843901539558321,-0.0014434592398049994,-0.002621336135902208,0.17711151084766355
948.916,224,948,916000000,,14.979917215459126,0.996022117527533,-0.0006038347285724473,-0.0014379363742249769,0.08909269763235488,-0.0014590908135750774,-0.0027568418269450223,0.17842419471022436
948.926,225,948,926000000,,15.017176550575078,0.9959632615815636,-0.0006024067173311893,-0.0014830864947350487,0.08974752997435655,-0.001466163080606381,-0.002846074137430765,0.1797392155750747
948.936,226,948,936000000,,15.05426704357261,0.9959039611325616,-0.0006023204609257518,-0.0014646086469406886,0.09040349561754314,-0.0014645244472252282,-0.0028083190470680197,0.1810564684765966
948.946,227,948,946000000,,15.08894583455709,0.9958441906492681,-0.0006044720588265341,-0.0013973506482532544,0.09106058504351658,-0.0014584128386008204,-0.0026730030751631606,0.18237596743462714
948.956,228,948,956000000,,15.128843040153223,0.9957838240086567,-0.0006109212790885094,-0.0013678685832733994,0.09171876449925738,-0.0014676150216418598,-0.002612139897895105,0.1836978206073161
948.966,229,948,966000000,,15.16627920713342,0.9957228345791487,-0.0006249527819948844,-0.0013957326597177418,0.09237801657523675,-0.0015024354374938956,-0.0026640651148417405,0.18502204102077743
948.976,230,948,976000000,,15.203804711557563,0.9956612460391122,-0.000641385916620038,-0.0014630421213686104,0.0930383359408238,-0.0015494508786555673,-0.002794045361755426,0.18634857683007117
948.986,231,948,986000000,,15.241454461162702,0.9955991544732622,-0.0006499454378942549,-0.001505662702335181,0.09369970178971025,-0.00157633772256893,-0.0028762776052058125,0.1876772291298381
948.996,232,948,996000000,,15.279243896146152,0.9955366243153311,-0.0006442401165633158,-0.0014850612467905875,0.09436212037400926,-0.0015630032368100961,-0.0028352857929407893,0.18900790654311467
949.006,233,949,6000000,,15.317147041820165,0.9954736108057909,-0.0006306718602545238,-0.0014267525794411373,0.09502555789225899,-0.0015267965517441096,-0.002720732549880811,0.19034061596478571
949.016,234,949,16000000,,15.355422298634531,0.9954100077960104,-0.0006282096832375021,-0.0013948075344507004,0.09569000432230144,-0.00151759662708774,-0.0026565871076638103,0.19167552381941552
949.026,235,949,26000000,,15.393451189814243,0.9953457621215495,-0.000648404466708363,-0.0014233474510720401,0.09635542468096986,-0.0015650741519620656,-0.0027084944429511815,0.19301265825207292
949.036,236,949,36000000,,15.431567535026486,0.9952809167106892,-0.0006788371978302518,-0.001484515865450406,0.09702181555810792,-0.0016393355339380986,-0.002823300338834933,0.19435193154687233
949.046,237,949,46000000,,15.469823014274754,0.9952155738188391,-0.000694349631286468,-0.001518627688087401,0.0976891645793867,-0.0016787698587093082,-0.0028870669919118797,0.19569312319083884
949.056,238,949,56000000,,15.5082082718151,0.9951497918174537,-0.0006811761129769194,-0.0014950677260951392,0.09835747020901063,-0.001649854102394448,-0.0028416389786039,0.19703611642717278
949.066,239,949,66000000,,15.5466714026058,0.9950835147924546,-0.0006541287747064813,-0.001442479381542002,0.09902671224388264,-0.0015875201331680636,-0.002741225895187549,0.1983809816746265
949.076,240,949,76000000,,15.585679204952882,0.9950166357328919,-0.0006471733085610187,-0.001418425514512658,0.09969685775666157,-0.001570727894342614,-0.0026936749338990484,0.19972787183723495
949.086,241,949,86000000,,15.624892928425178,0.9949491119139845,-0.0006756811943279281,-0.0014471334815027465,0.10036789491223182,-0.0016350351749627203,-0.0027440183898470583,0.2010768533122339
949.096,242,949,96000000,,15.663448372764966,0.9948809967030714,-0.0007170748893714714,-0.001498801069047964,0.10103980661367194,-0.0017296933266410814,-0.0028373549936278053,0.2024277767289703
949.106,243,949,106000000,,15.70215076536729,0.9948123921582526,-0.0007341398661594534,-0.0015217043996584825,0.10171258088467158,-0.0017702240937972624,-0.002878282241119967,0.203780398311781
949.116,244,949,116000000,,15.740975875455769,0.99474334185727,-0.0007107935705972958,-0.0014963772817435323,0.10238622980798137,-0.001720538945931791,-0.0028314755115523838,0.2051346458724461
949.126,245,949,126000000,,15.779851676112715,0.9946737782554494,-0.0006734916137847571,-0.001453195222369129,0.10306070936582959,-0.001639350499651933,-0.0027520927918800453,0.20649058232125614
949.136,246,949,136000000,,15.818759913569943,0.9946036021266358,-0.000667866146800024,-0.0014389548785609595,0.10373600185019614,-0.0016270737562710002,-0.002723819251436721,0.2078484021860311
949.146,247,949,146000000,,15.85774419608693,0.9945327877424279,-0.0007067627110797518,-0.001466323735221335,0.10441208954264608,-0.001712008628656114,-0.002769028459890688,0.20920813066102165
949.156,248,949,156000000,,15.896862141380048,0.994461399066745,-0.0007554585591450954,-0.0015049068717877152,0.10508896412805481,-0.0018188552687261465,-0.0028343666665646694,0.21056959749448736
949.166,249,949,166000000,,15.936124139282127,0.9943895284224624,-0.0007676627033375193,-0.0015162497840062257,0.10576662047964974,-0.0018474573082849965,-0.0028531035065804122,0.21193257123462594
949.176,250,949,176000000,,15.972899748778612,0.9943172084041095,-0.0007265532698806387,-0.0014881624058176747,0.10644503987669432,-0.0017616716917495156,-0.00280473867171116,0.21329693444982656
949.186,251,949,186000000,,16.01479580398629,0.9942443334046334,-0.0006894145551321144,-0.001461201760434497,0.107124203695499,-0.0016839603795524329,-0.0027578806661050503,0.21466291268317614
949.196,252,949,196000000,,16.054140819554174,0.9941708508608383,-0.0006918248880853458,-0.0014557457172909743,0.10780409131770734,-0.0016894621341871285,-0.0027453602586005044,0.21603060585973247
949.206,253,949,206000000,,16.09386020993628,0.9940967482004218,-0.0007409551309560293,-0.0014768888027749665,0.10848467888846901,-0.0017936096580571004,-0.00277557971744935,0.21739999744977578
949.216,254,949,216000000,,16.13340060736394,0.9940220894105607,-0.000791204470194992,-0.0015010344121479148,0.1091659583717165,-0.0019006818172843734,-0.0028113812402283944,0.21877089796669866
949.226,255,949,226000000,,16.17305054622336,0.9939469523856541,-0.0007919396399536114,-0.0015036291974806857,0.1098479308916059,-0.0019046417939067072,-0.0028150731730987033,0.22014310749549162
949.236,256,949,236000000,,16.212727120628152,0.9938713352817964,-0.0007442177408495019,-0.0014856982774178378,0.11053057401502632,-0.0018077515402746302,-0.0027886718478680184,0.22151658609004476
949.246,257,949,246000000,,16.25236957289858,0.9937951625238847,-0.0007039788404528931,-0.001468100825001283,0.11121386449852162,-0.0017257753012178936,-0.0027614020906607806,0.22289149647946954
949.256,258,949,256000000,,16.292025926075993,0.9937183774735776,-0.0007206777529284532,-0.0014671312258103147,0.11189778846608958,-0.001760646522871996,-0.0027545495123830754,0.22426798237806173
949.266,259,949,266000000,,16.329240697075697,0.9936409874373773,-0.0007865247660920586,-0.001480311121540042,0.11258231677173873,-0.00189636858579209,-0.0027647015703455846,0.22564595891449338
949.276,260,949,276000000,,16.37168481676706,0.9935630767770263,-0.0008240198846649965,-0.001488989961235299,0.1132674514202366,-0.001974748531283402,-0.002772145180395924,0.22702517695745905
949.286,261,949,286000000,,16.4116642395008,0.9934846765615879,-0.0008076486502152957,-0.0014887099185790632,0.11395318853373068,-0.0019440683043170472,-0.0027739562636133197,0.2284055470691037
949.296,262,949,296000000,,16.451611803049854,0.9934057715358995,-0.0007514980755460628,-0.0014812526108733462,0.11463949661817266,-0.0018327132189141484,-0.0027706706082022414,0.22978704962287388
949.306,263,949,306000000,,16.491504719456252,0.9933262990802105,-0.000722289204064684,-0.0014738812950124951,0.11532636098372012,-0.0017749001558929145,-0.0027614956429455884,0.23116985669554677
949.316,264,949,316000000,,16.53142968542417,0.9932462312405839,-0.00075607987464597,-0.0014696036423662933,0.11601376335743409,-0.0018429434515339512,-0.0027439286583204048,0.232554036025749
949.326,265,949,326000000,,16.571880424539366,0.9931655916185246,-0.0008193745024463022,-0.001467374557583906,0.11670168398898667,-0.0019700478691980273,-0.002723450439431341,0.2339394538257994
949.336,266,949,336000000,,16.612914617539026,0.9930844305278009,-0.0008475491322002645,-0.0014680204288673323,0.1173901212465478,-0.0020280467613167413,-0.002716752014366719,0.23532593777523403
949.346,267,949,346000000,,16.6529524279158,0.9930027726767265,-0.0008117130546074561,-0.0014732957366169746,0.11807905568731898,-0.001960005948073161,-0.002734284287971178,0.23671337821191923
949.356,268,949,356000000,,16.69291535943058,0.9929205871762674,-0.0007562983598074364,-0.0014779368258994038,0.11876847618235264,-0.0018529611263049858,-0.0027553024807289717,0.2381018570850506
949.366,269,949,366000000,,16.732852631813543,0.9928378380858216,-0.0007466224573696545,-0.0014731711967772218,0.11945835600001313,-0.001834523221402732,-0.0027468630839537767,0.23949147547835767
949.376,270,949,376000000,,16.77287126330663,0.9927545195146039,-0.0007952889113673963,-0.0014575945102732566,0.1201486868382433,-0.0019293176995747682,-0.0027029645299876393,0.24088224679433562
949.386,271,949,386000000,,16.813029696744046,0.9926706514805668,-0.000851018217943569,-0.0014427439572097928,0.12083944862388764,-0.00203825100125407,-0.0026586691555381403,0.24227401998126533
949.396,272,949,396000000,,16.85327212627054,0.9925862619296211,-0.0008563861950465326,-0.0014441946808844825,0.12153062975422378,-0.0020511108105171405,-0.0026588244250929094,0.24366666689351751
949.406,273,949,406000000,,16.89347462810219,0.9925013547408489,-0.0008089602814431943,-0.0014617320735936987,0.12222221573437388,-0.001963109052797817,-0.0027037995849092944,0.2450601531613767
949.416,274,949,416000000,,16.933589083668654,0.9924159125071711,-0.0007666274912742628,-0.0014733974085240494,0.12291418943652421,-0.0018838377040878752,-0.00273599068739383,0.24645453578218823
949.426,275,949,426000000,,16.97369708102216,0.9923299273502653,-0.0007800152510585046,-0.0014598334858677395,0.12360653486275269,-0.0019089630126779512,-0.0027044462460343865,0.2478498707563679
949.436,276,949,436000000,,17.01390081523388,0.9922433984259951,-0.0008345504943404253,-0.00142866899918195,0.12429923686605239,-0.002011327670064998,-0.002627709810796075,0.2492461048463236
949.446,277,949,446000000,,17.05420837869635,0.9921563292044869,-0.0008721092468384225,-0.0014097022170609906,0.12499228083242661,-0.0020829496436248767,-0.0025792789659586646,0.2506431343560752
949.456,278,949,456000000,,17.094519166668142,0.9920687268868046,-0.0008550744972446405,-0.0014236792475936656,0.12568565262214088,-0.0020544658884559235,-0.0026098370875649035,0.2520408987384835
949.466,279,949,466000000,,17.134733295006182,0.9919805944411175,-0.0008073507553840712,-0.0014534749747228332,0.12637933011766644,-0.0019691392936806045,-0.002679576250206761,0.25343936526954436
949.476,280,949,476000000,,17.17487127967467,0.9918919412482173,-0.0007873894716875567,-0.0014596131291069142,0.1270733069240384,-0.00193297450314213,-0.002695447896127856,0.2548385669564209
949.486,281,949,486000000,,17.21503800233786,0.9918027731290433,-0.000818462488151451,-0.0014272288886532569,0.1277675687551227,-0.001988222005090212,-0.0026219162188907408,0.2562384995519282
949.496,282,949,496000000,,17.255295219912814,0.991713074373633,-0.0008654658190799734,-0.0013852119457802316,0.1284620985435081,-0.002072490094279496,-0.0025251091675668746,0.25763910821893143
949.506,283,949,506000000,,17.295591239225413,0.9916228287716158,-0.0008790073378408964,-0.0013769719802255143,0.1291568642017119,-0.0020989863724735895,-0.0025038166537203477,0.2590403254045026
949.516,284,949,516000000,,17.33581603787674,0.9915320381581454,-0.0008490245401981446,-0.0014098293868161427,0.12985186575238186,-0.0020498162508907334,-0.002575290016105347,0.2604421520948674
949.526,285,949,526000000,,17.37593234993975,0.9914407272230176,-0.0008148117858084656,-0.0014408969135656356,0.1305470913222386,-0.001991893262487379,-0.0026443882323936574,0.2618445410510347
949.536,286,949,536000000,,17.39478067134456,0.991348928688148,-0.0008190184564553096,-0.0014246722304839454,0.13124253016230264,-0.0019978294473488962,-0.002609717432194625,0.26324745952430784
949.546,287,949,546000000,,17.456139118750865,0.991256630696148,-0.0008533518822658145,-0.0013741367763476597,0.13193815077269105,-0.0020543914138649233,-0.0024990676447200766,0.2646508556909227
949.556,288,949,556000000,,17.496313943087152,0.9911637970542366,-0.0008819323095474242,-0.0013365233353685023,0.1326339481557193,-0.002102823171134033,-0.002415481108301254,0.26605475645017845
949.566,289,949,566000000,,17.536448120088707,0.9910704032202741,-0.0008760017801108874,-0.0013522863040702606,0.1333298889653951,-0.0020969670544746487,-0.0024468298666551203,0.26745914267123605
949.576,290,949,576000000,,17.576472631137367,0.9909764706294801,-0.0008480955739841593,-0.0013975133799496223,0.13402597579592276,-0.0020554997971894058,-0.0025424748192646174,0.2688639843031937
949.586,291,949,586000000,,17.616417116324442,0.9908820532197519,-0.0008340850957976487,-0.001411240735195342,0.13472218590934,-0.00203321890392816,-0.002572009535614095,0.27026915386659955
949.596,292,949,596000000,,17.656358312311145,0.990787176306432,-0.0008496663118349434,-0.0013679738663959502,0.1354185226018753,-0.002054182736553808,-0.002480623359470302,0.2716746299619821
949.606,293,949,606000000,,17.674260033306446,0.9906917991568369,-0.0008767747797296728,-0.0013065997213834008,0.13611496525601754,-0.0020929300273393563,-0.002350193083661356,0.2730804304048007
949.616,294,949,616000000,,17.736271173841576,0.9905958622548013,-0.0008848681475688351,-0.001294592284595368,0.13681147563155008,-0.0021073308570947065,-0.0023227173753535,0.27448659323372687
949.626,295,949,626000000,,17.776116785184918,0.9904993662467755,-0.0008730975951672277,-0.0013350726118569116,0.13750803856009566,-0.0020967792603699318,-0.00240466359376601,0.2758930984265745
949.636,296,949,636000000,,17.81586291081624,0.9904023679766111,-0.0008583701676812773,-0.0013730895710777396,0.1382046616071537,-0.0020798063608387833,-0.0024825633582181705,0.2772998485723564
949.646,297,949,646000000,,17.855566494039362,0.9903049295018787,-0.0008587414500419458,-0.0013536497394575856,0.13890132341902175,-0.0020768869510090606,-0.002442493800397516,0.2787066909407734
949.656,298,949,656000000,,17.895263489415125,0.990207036368058,-0.0008713817059314581,-0.001288935327908941,0.13959800692331678,-0.002085569271932034,-0.0023093414160439973,0.28011361902019655
949.666,299,949,666000000,,17.934929159709927,0.9901086141756492,-0.0008820277950611166,-0.0012453930138538476,0.14029470140190403,-0.002096057411379239,-0.002218662870043797,0.28152076246903657
949.676,300,949,676000000,,17.974504023899293,0.9900096225359969,-0.000883480313187628,-0.0012648682828747067,0.14099137095274797,-0.0021059859621450436,-0.002255339253425026,0.28292814851372416
949.686,301,949,686000000,,18.01397248519922,0.989910102137079,-0.0008791144767681826,-0.001313074237974227,0.14168800605177756,-0.0021125897515838553,-0.0023505331158952814,0.28433567359470363
949.696,302,949,696000000,,18.053376581577115,0.9898101370104321,-0.0008760764895405612,-0.001321234588891176,0.14238461841590452,-0.002110553220439728,-0.0023660653532167064,0.2857431866593514
