Time,header.seq,header.stamp.secs,header.stamp.nsecs,header.frame_id,position_controller_output.thrust.num,position_controller_output.orientation_set_point.w,position_controller_output.orientation_set_point.x,position_controller_output.orientation_set_point.y,position_controller_output.orientation_set_point.z,position_controller_output.euler_set_point.phi,position_controller_output.euler_set_point.theta,position_controller_output.euler_set_point.psi
7191.807,1,7191,807000000,,10.017891257752176,0.9999999999973606,-5.380162633815489e-10,-4.1974500162845236e-10,2.297588935107342e-06,-1.0760344555632003e-09,-8.394875905537447e-10,4.595177870219178e-06
7191.807,2,7191,807000000,,10.01789657293354,0.9999999999578608,6.222182781973794e-10,-8.495542431084303e-09,9.180332199321128e-06,1.2442805725388578e-09,-1.6991096085661184e-08,1.836066439888959e-05
7191.817,3,7191,817000000,,10.018233896551425,0.999999999787135,3.750617780341821e-09,-3.0403085504777706e-08,2.0633195163100016e-05,7.499980933493344e-09,-6.080632575233835e-08,4.1266390328900076e-05
7191.827,4,7191,827000000,,10.020102630161762,0.9999999993287104,9.85152085960664e-09,-7.32915652369135e-08,3.66411441063973e-05,1.969767073237979e-08,-1.4658385216748115e-07,7.328228822774891e-05
7191.837,5,7191,837000000,,10.02345071033726,0.9999999983646904,1.9894471478609072e-08,-1.4431682982498444e-07,5.718913962482414e-05,3.977243618149043e-08,-2.886359347087364e-07,0.00011437827930625715
7191.847,6,7191,847000000,,10.02812714016597,0.9999999966164371,3.486158341511073e-08,-2.502146097394638e-07,8.226215140893794e-05,6.96820002100953e-08,-5.004349532544694e-07,0.0001645243029860031
7191.857,7,7191,857000000,,10.033990648826467,0.999999993745251,5.5769341743213456e-08,-3.970867382738359e-07,0.00011184514733030494,1.1144985833932554e-07,-7.941859465621093e-07,0.0002236902950827414
7191.867,8,7191,867000000,,10.040909352532985,0.9999999893530479,8.362399963850335e-08,-5.909596883592865e-07,0.00014592308434655153,1.6707552817554301e-07,-1.1819437695237411e-06,0.00029184616963015786
7191.877,9,7191,877000000,,10.048760422428021,0.9999999829830323,1.1937287821337086e-07,-8.389210203530908e-07,0.00018448094488114945,2.3843622247931997e-07,-1.6778860560950903e-06,0.0003689618916552241
7191.887,10,7191,887000000,,10.057429746531307,0.9999999741203663,1.6388528625709016e-07,-1.1496249748766818e-06,0.00022750366770181365,3.272474762359368e-07,-2.299324459276164e-06,0.00045500733895274906
7191.897,11,7191,897000000,,10.06039777960224,0.999999962192828,2.2039383937924064e-07,-1.5378448758354375e-06,0.0002749762206800689,4.3994192055174205e-07,-3.0758108413575513e-06,0.0005499524476147042
7191.907,12,7191,907000000,,10.060580790282284,0.9999999465714697,2.935925734080997e-07,-2.019547436630436e-06,0.00032688360079123553,5.85864801572464e-07,-4.0392865987559645e-06,0.0006537672120434125
7191.917,13,7191,917000000,,10.061718259312821,0.9999999265713916,3.7210850803472714e-07,-2.5675799344993607e-06,0.00038321074680296255,7.422491129841386e-07,-5.135444683945778e-06,0.0007664215104608414
7191.927,14,7191,927000000,,10.06205259076188,0.9999999014530466,3.564722805199502e-07,-2.951174175031146e-06,0.00044394264113893167,7.103241866783715e-07,-5.902664274914926e-06,0.0008878853093502118
7191.937,15,7191,937000000,,10.062780558266471,0.9999998704194103,4.926085662509626e-07,-3.814122935415218e-06,0.0005090642371177281,9.81333737700841e-07,-7.628746421239896e-06,0.0010181285144738844
7191.947,16,7191,947000000,,10.063454973135256,0.9999998326233794,6.179082945914249e-07,-4.541804999676963e-06,0.0005785604589557965,1.2305609648169302e-06,-9.084323473684819e-06,0.0011571209768886249
7191.957,17,7191,957000000,,10.064196568098513,0.9999997871612045,7.390357559775714e-07,-5.470672403634946e-06,0.0006524163181794117,1.470932885557683e-06,-1.094230679665742e-05,0.001304832720897372
7191.967,18,7191,967000000,,10.065010365900251,0.9999997330778551,8.835195970993483e-07,-6.521362287629471e-06,0.0007306167972115914,1.7575094890311375e-06,-1.304401212287587e-05,0.0014612337129936666
7191.977,19,7191,977000000,,10.065934619302187,0.9999996693658075,1.052739652171293e-06,-7.707520143172395e-06,0.0008131468202672734,2.092943917456253e-06,-1.541674725391573e-05,0.0016262938036702653
7191.987,20,7191,987000000,,10.066958153405178,0.9999995949663276,1.2345509613452484e-06,-9.010185443224834e-06,0.000899991369769012,2.4528827447440603e-06,-1.8022585758892262e-05,0.0017999829605019068
7191.997,21,7191,997000000,,10.06811359620425,0.9999995087694227,1.4386428765406643e-06,-1.046184973562822e-05,0.00099113536993103,2.8565461216841722e-06,-2.092654097385349e-05,0.0019822710346309017
7192.007,22,7192,7000000,,10.069385320526719,0.9999994096151532,1.6687967631382038e-06,-1.2061510936141916e-05,0.0010865639195903303,3.311380351583673e-06,-2.4126634141419245e-05,0.0021731282270026154
7192.017,23,7192,17000000,,10.070790861030572,0.9999992962941103,1.9126638369360337e-06,-1.3806433694258582e-05,0.0011862617683375922,3.792568894524705e-06,-2.7617385800482452e-05,0.002372524040978119
7192.027,24,7192,27000000,,10.072342512682678,0.9999991675477461,2.174830849577399e-06,-1.570992535892162e-05,0.001290214015008667,4.309119748664559e-06,-3.142543656187158e-05,0.0025804286785535155
7192.037,25,7192,37000000,,10.074037051809198,0.9999990220692734,2.463023279697938e-06,-1.7778398766569297e-05,0.0013984056420234504,4.876318918884003e-06,-3.5563651379799666e-05,0.0027968121093335852
7192.047,26,7192,47000000,,10.075886421809589,0.9999988585042706,2.7742806809592776e-06,-2.001748694921474e-05,0.0015108215153857535,5.488069332753319e-06,-4.004331109519477e-05,0.0030216440710337947
7192.057,27,7192,57000000,,10.07789399242546,0.9999986754512916,3.112263649574802e-06,-2.243142238123897e-05,0.0016274467339291272,6.151507170508613e-06,-4.487291544097438e-05,0.0032548947674858678
7192.067,28,7192,67000000,,10.080076250161667,0.9999984714623897,3.4672310595290353e-06,-2.503016813021597e-05,0.0017482660472399362,6.8469327419113495e-06,-5.0072383046773083e-05,0.0034965337053305726
7192.077,29,7192,77000000,,10.082435796738263,0.999998245043744,3.845708889120035e-06,-2.782319697053401e-05,0.0018732646705644043,7.587163868149954e-06,-5.566070437401649e-05,0.003746531322627212
7192.087,30,7192,87000000,,10.084983305144682,0.9999979946565478,4.246478933190333e-06,-3.08130705554104e-05,0.002002427353486342,8.369538980432363e-06,-6.164302409938927e-05,0.0040048571273406455
7192.097,31,7192,97000000,,10.087723958399877,0.9999977187176624,4.681481641748727e-06,-3.399491345634716e-05,0.002135739194834399,9.217733407195233e-06,-6.800966870867953e-05,0.004271481326050346
7192.107,32,7192,107000000,,10.090666655031448,0.9999974155994309,5.148311118328524e-06,-3.7384344847535496e-05,0.0022731851770188896,1.0126632577437122e-05,-7.47919026615751e-05,0.00454637389405377
7192.117,33,7192,117000000,,10.093818628015658,0.9999970836311052,5.642106766247155e-06,-4.0988219047459866e-05,0.0024147499332024896,1.10862280626532e-05,-8.200344766717826e-05,0.00482950410947898
7192.127,34,7192,127000000,,10.09719331648037,0.9999967210994148,6.171719455106945e-06,-4.4806755044696095e-05,0.002560418795037924,1.2113950370753935e-05,-8.964482074858005e-05,0.0051208426475035426
7192.137,35,7192,137000000,,10.100792299382745,0.9999963262481394,6.7202445714442405e-06,-4.88620487573175e-05,0.0027101766285118093,1.3175590264081004e-05,-9.776016475582239e-05,0.005420359255081618
7192.147,36,7192,147000000,,10.104628165155185,0.999995897281057,7.308518730073551e-06,-5.3138004862018664e-05,0.002864008299611715,1.4312602198030538e-05,-0.00010631743722022691,0.005728023677369004
7192.157,37,7192,157000000,,10.10870737827819,0.9999954323593285,7.919451995646115e-06,-5.7658896130133575e-05,0.003021898907147909,1.5490353038165077e-05,-0.00011536512935239607,0.006043806129578069
7192.167,38,7192,167000000,,10.113039514964287,0.9999949296050324,8.567361043107892e-06,-6.24201013914573e-05,0.0031838333170997124,1.6737164940792547e-05,-0.00012489412421734514,0.006367676359655436
7192.177,39,7192,177000000,,10.117631563949136,0.9999943870997753,9.241404445113434e-06,-6.743386382375291e-05,0.003349796395440085,1.803092588524065e-05,-0.00013492888470434394,0.006699604119521632
7192.187,40,7192,187000000,,10.12249621996205,0.9999938028870692,9.950249097499287e-06,-7.269402966296926e-05,0.003519773240971497,1.9388642074916914e-05,-0.00014545720409353535,0.007039559626122371
7192.197,41,7192,197000000,,10.127635481234874,0.999993174970863,1.0694997644459462e-05,-7.821151525636934e-05,0.003693748719657466,2.081206218926918e-05,-0.00015650097282771114,0.0073875126327769105
7192.207,42,7192,207000000,,10.133068168950555,0.9999925013165636,1.1465735770575596e-05,-8.400439198505709e-05,0.003871707930284136,2.2280818960681903e-05,-0.00016809630887726357,0.00774343336165911
7192.217,43,7192,217000000,,10.138794465416275,0.9999917798537823,1.2273861711294843e-05,-9.006741172130104e-05,0.004053635505976037,2.381732110963548e-05,-0.00018023285120682964,0.008107291102333812
7192.227,44,7192,227000000,,10.144826141038552,0.9999910084740633,1.3109203784245649e-05,-9.641389250818995e-05,0.004239516778338049,2.540067567059141e-05,-0.000192937205776067,0.008479056546302599
7192.237,45,7192,237000000,,10.151170750688621,0.999990185034661,1.3981248912391868e-05,-0.00010303429142448231,0.0044293366133145535,2.7049476833265928e-05,-0.00020619041706937402,0.00885869945252065
7192.247,46,7192,247000000,,10.157846989799284,0.9999893073565115,1.4887058724618008e-05,-0.00010993044681843104,0.0046230796440092205,2.87573653631945e-05,-0.00021999619263346482,0.00924618911812222
7192.257,47,7192,257000000,,10.164848486581882,0.9999883732233714,1.582758842361949e-05,-0.00011712300849362953,0.004820731434829968,3.052557250529452e-05,-0.0002343958967134796,0.009641496703581172
7192.267,48,7192,267000000,,10.172193504210037,0.9999873803872456,1.6796588032619864e-05,-0.00012460823884448795,0.005022276153204083,3.234111917079143e-05,-0.0002493820494653409,0.010044590579699565
7192.277,49,7192,277000000,,10.17988715497024,0.9999863265627392,1.7807521029307634e-05,-0.00013240852557637147,0.0052276993635153885,3.423017235740099e-05,-0.0002649996180277281,0.0104554419077687
7192.287,50,7192,287000000,,10.1879398080034,0.9999852094369482,1.8857436776827582e-05,-0.00014050274844831014,0.005436985233182805,3.6186494431027643e-05,-0.00028120639958362226,0.010874019062288517
7192.297,51,7192,297000000,,10.196366798976184,0.999984026660494,1.9938022097567263e-05,-0.0001489013772761015,0.005650119792240754,3.8192787709249875e-05,-0.0002980233064857618,0.01130029414622172
7192.307,52,7192,307000000,,10.205167478626235,0.9999827758519454,2.1058998737786165e-05,-0.00015761083414024524,0.0058670872080667435,4.026784102582643e-05,-0.0003154633540523033,0.011734235534349172
7192.317,53,7192,317000000,,10.214357861041542,0.9999814545996505,2.2211818091386536e-05,-0.00016663106556422314,0.0060878730450173064,4.2393957154280854e-05,-0.00033352640228967445,0.012175814403569227
7192.327,54,7192,327000000,,10.223946800592488,0.999980060461019,2.338848907503909e-05,-0.00017596264064292938,0.006312461470452848,4.455453343843717e-05,-0.0003522135492124434,0.012624999139533107
7192.337,55,7192,337000000,,10.233942661862274,0.9999785909600941,2.461127141401075e-05,-0.0001856187912849408,0.006540838048684997,4.6793287362459895e-05,-0.00037155159995938547,0.013081760913375956
7192.347,56,7192,347000000,,10.244357880375818,0.9999770435944273,2.5867638544277432e-05,-0.00019559759003502232,0.006772987412708675,4.908453318408668e-05,-0.0003915366120190722,0.013546069048593894
7192.357,57,7192,357000000,,10.255192999887663,0.9999754158319607,2.7153825571094688e-05,-0.0002058987901007668,0.007008894195501857,5.142007475451752e-05,-0.00041216810475175336,0.014017892868683308
7192.367,58,7192,367000000,,10.266466471443858,0.9999737051102834,2.848583368492696e-05,-0.00021652774242389823,0.007248543961337406,5.3831152669558405e-05,-0.0004334570729105369,0.014497203554166949
7192.377,59,7192,377000000,,10.278184854108009,0.9999719088421087,2.985380544445772e-05,-0.00022747789154298027,0.007491921808833201,5.629744634686474e-05,-0.0004553903433432982,0.014983971368031384
7192.387,60,7192,387000000,,10.290357551768508,0.999970024406984,3.1249964178590916e-05,-0.0002387676758312766,0.007739011439564176,5.8802410087178256e-05,-0.0004780047431209855,0.015478163780520044
7192.397,61,7192,397000000,,10.302994622614566,0.9999680491641275,3.2685514016794294e-05,-0.00025038350351151007,0.007989799349104066,6.136791921646484e-05,-0.0005012733294886829,0.015979753846170144
7192.407,62,7192,407000000,,10.316105197752922,0.9999659804395642,3.414836394217698e-05,-0.0002623429922735272,0.008244269238986898,6.396876080425142e-05,-0.0005252312157224548,0.016488709043637133
7192.417,63,7192,417000000,,10.329699059276972,0.9999638155357249,3.5638368776782474e-05,-0.0002746512042091816,0.008502406673387116,6.660377609894036e-05,-0.0005498885837262879,0.017005000575591397
7192.427,64,7192,427000000,,10.343786982925458,0.999961551740311,3.716916231061793e-05,-0.00028727387104949,0.008764195819565453,6.930002904127292e-05,-0.0005751771990862853,0.01752859684828177
7192.437,65,7192,437000000,,10.358375819032593,0.9999591862956514,3.874319567245878e-05,-0.00030025239901886606,0.0090296227072292,7.206091016248723e-05,-0.0006011799983041133,0.01805946999760285
7192.447,66,7192,447000000,,10.373477910089553,0.9999567164243519,4.036396169593781e-05,-0.0003136070196287101,0.00929867150344713,7.489218672050601e-05,-0.0006279375948983201,0.018597588437265753
7192.457,67,7192,457000000,,10.389100297703896,0.9999541393502389,4.2029483473111264e-05,-0.0003272790423245458,0.009571328238139616,7.77901384506421e-05,-0.0006553326690605932,0.0191429243188254
7192.467,68,7192,467000000,,10.405255892604456,0.9999514522552132,4.3791208118965923e-05,-0.0003412676675464159,0.009847576147068882,8.085686459141917e-05,-0.0006833647272417309,0.01969544416863237
7192.477,69,7192,477000000,,10.421949108371221,0.9999486523293197,4.576339137043656e-05,-0.0003554768013434715,0.010127400328926579,8.432199276789915e-05,-0.000711844085363067,0.020255118199059643
7192.487,70,7192,487000000,,10.439182334471603,0.9999457367381147,4.803510954053105e-05,-0.00036983289154212464,0.01041078774503088,8.836452687779834e-05,-0.0007406258807745036,0.020821920356669958
7192.497,71,7192,497000000,,10.456948944752039,0.9999427025329588,5.043452819427872e-05,-0.0003845467971136506,0.010697720699099935,9.263575598815082e-05,-0.0007701286722316958,0.021395815444464162
7192.507,72,7192,507000000,,10.475222741851306,0.9999395468154612,5.2931983315000834e-05,-0.0003996055591798455,0.010988186152143439,9.707571751472202e-05,-0.0008003261419124996,0.02197677750653698
7192.517,73,7192,517000000,,10.493905806987385,0.9999362666428921,5.5469125406112436e-05,-0.0004150601281621994,0.01128216733958815,0.0001015656599714282,-0.0008313190696365158,0.022564773160532202
7192.527,74,7192,527000000,,10.51294805860775,0.9999328590659471,5.802360241254457e-05,-0.0004309196310094134,0.011579650290930159,0.00010605965575146757,-0.0008631252905439979,0.023159774596282684
7192.537,75,7192,537000000,,10.532305486066313,0.9999293211122375,6.0567381289602666e-05,-0.0004472012218684438,0.011880619172938298,0.00011050019064613709,-0.0008957785041481259,0.023761750288767196
7192.547,76,7192,547000000,,10.551938186405813,0.9999256498020501,6.308369488507966e-05,-0.00046389366442493315,0.012185060015122807,0.00011485291475764163,-0.000929255838632459,0.024370672439228438
7192.557,77,7192,557000000,,10.5718101517117,0.999921842159164,6.558408166175508e-05,-0.00048093808828023185,0.012492956984590332,0.00011914128938110654,-0.0009634398256643806,0.024986509507565553
7192.567,78,7192,567000000,,10.591889050764799,0.999917895205333,6.810135261267246e-05,-0.0004982487528082387,0.01280429424864451,0.00012343213685280706,-0.0009981598336568087,0.025609229939132276
7192.577,79,7192,577000000,,10.612145991229735,0.9999138059377185,7.066036666565581e-05,-0.0005157664560152538,0.013119057837152509,0.00012777588095053447,-0.0010332981787688489,0.026238805911807644
7192.587,80,7192,587000000,,10.63255527184778,0.9999095713044147,7.325235301997908e-05,-0.0005335046909547765,0.013437232848230346,0.00013215388017263224,-0.0010688817150257268,0.02687520776966795
7192.597,81,7192,597000000,,10.65309414846986,0.9999051882039819,7.583343949226238e-05,-0.0005515411612943592,0.01375880251685498,0.00013647549109239973,-0.0011050647169204009,0.02751840216711205
7192.607,82,7192,607000000,,10.673742639521494,0.9999006535181145,7.835147536390241e-05,-0.0005699478112392963,0.014083753803196571,0.0001406334656990581,-0.0011419895918562961,0.02816836323133627
7192.617,83,7192,617000000,,10.694483379584456,0.9998959641506243,8.078727713784651e-05,-0.0005887207329447112,0.014412069942589348,0.00014458847707620424,-0.0011796478671370902,0.02882505761937402
7192.627,84,7192,627000000,,10.715301484952523,0.9998911170390548,8.317669436681177e-05,-0.0006077692499551027,0.014743736033689564,0.00014841380750971883,-0.0012178591199816236,0.02948845566691364
7192.637,85,7192,637000000,,10.736184375591556,0.9998861091306508,8.558525488777613e-05,-0.0006269713353847665,0.01507873810686305,0.00015224326262945406,-0.001256381223968761,0.030158529540482953
7192.647,86,7192,647000000,,10.75714612394011,0.9998809373365489,8.805305776911364e-05,-0.0006462569903488737,0.015417060329544855,0.00015615851344864403,-0.0012950754911693618,0.03083524770227004
7192.657,87,7192,657000000,,10.778233984098154,0.9998755984946661,9.055861127032624e-05,-0.0006656626479333849,0.015758687799576603,0.0001601148947421527,-0.0013340142424282941,0.03151858054471264
7192.667,88,7192,667000000,,10.799410419087982,0.9998700893761808,9.302723981788522e-05,-0.0006853078030183879,0.016103604682555027,0.00016395861266478774,-0.0013734341280875473,0.032208496666221824
7192.677,89,7192,677000000,,10.819729588083714,0.9998644068229697,9.53912190710763e-05,-0.0007051812128160632,0.01645179607663422,0.00016755374244835315,-0.0014133103743791953,0.032904966553207946
7192.687,90,7192,687000000,,10.841815439601515,0.9998585474314685,9.759655145588365e-05,-0.0007255946925909841,0.0168032470760245,0.00017078097997390868,-0.0014542645012518562,0.03360796064124634
7192.697,91,7192,697000000,,10.86303937463401,0.9998525083123486,9.973837491532146e-05,-0.0007461021840543225,0.01715794278360502,0.0001738443667534846,-0.001495407448377284,0.03431744926705004
7192.707,92,7192,707000000,,10.884274799456012,0.9998462862875046,0.0001019029771862319,-0.0007666682562425252,0.017515868297780155,0.00017691711599896186,-0.0015366712606641464,0.03503340271272579
7192.717,93,7192,717000000,,10.905522494533793,0.9998398781979649,0.0001041423277965151,-0.0007872281121567447,0.0178770068548381,0.00018010496515546276,-0.0015779282805641337,0.03575578758338439
7192.727,94,7192,727000000,,10.92678416797204,0.9998332807836817,0.0001064183867431836,-0.0008078482390964773,0.01824134541473586,0.00018332905334865395,-0.0016193102473274212,0.036484578061245734
7192.737,95,7192,737000000,,10.948062202310082,0.9998264907147204,0.00010862297197075158,-0.0008286717193935466,0.018608867210925212,0.0001863672239735089,-0.0016610993391328321,0.03721974099044398
7192.747,96,7192,747000000,,10.969359632497781,0.999819504682086,0.00011065300936227774,-0.0008497936062690693,0.018979559202531242,0.00018900893326715204,-0.0017034815595624586,0.037961250691094565
7192.757,97,7192,757000000,,10.990680216895306,0.9998123194658355,0.00011249391361213047,-0.0008711774825453435,0.019353404625134844,0.0001912253935187745,-0.0017463831271382624,0.038709073917898185
7192.767,98,7192,767000000,,11.012028465985326,0.9998049319254181,0.00011423895368302018,-0.0008926791749984249,0.01973038671604222,0.0001932078385126685,-0.0017895189961687485,0.039463177257817006
7192.777,99,7192,777000000,,11.033409507226827,0.9997973389259288,0.00011601490594045723,-0.0009141490901147613,0.020110494300890704,0.00019521513738166217,-0.001832594915331498,0.040223538409639284
7192.787,100,7192,787000000,,11.054828838805577,0.9997895372476409,0.00011787745863130308,-0.0009355431972174942,0.020493708753301296,0.00019736014841165847,-0.001875525192610139,0.04099012026324853
7192.797,101,7192,797000000,,11.076292116186227,0.9997815235474061,0.00011976275231278649,-0.0009569584525058459,0.020880015169781385,0.00019951092842078013,-0.0019185012322930906,0.041762893366874734
7192.807,102,7192,807000000,,11.09780506301628,0.9997732944228835,0.00012152707532588528,-0.000978548763054077,0.021269400508209014,0.00020137314668279037,-0.0019618247156898416,0.042541832161070894
7192.817,103,7192,817000000,,11.11937354415025,0.9997648465306308,0.00012305195900815785,-0.0010003884253344142,0.02166184986498508,0.0002027059271627927,-0.002005638771816365,0.04332690735170655
7192.827,104,7192,827000000,,11.14100374265303,0.9997561766462475,0.00012434210428475956,-0.0010224101086754188,0.022057344613828595,0.00020352069831709908,-0.002049808391167307,0.04411808198557253
7192.837,105,7192,837000000,,11.162702234662145,0.9997472816290349,0.00012553042283153844,-0.0010444521333663247,0.02245587358108216,0.00020408967671164382,-0.0020940156832025547,0.04491533377244815
7192.847,106,7192,847000000,,11.184475831642168,0.9997381583185252,0.00012676703401800864,-0.001066378451342051,0.02285741814236056,0.00020471883524575814,-0.002137995221040967,0.04571862545108228
7192.857,107,7192,857000000,,11.206331300127959,0.9997288034360576,0.00012809573441964145,-0.0010881817809344706,0.02326196525873082,0.0002054959875497007,-0.0021817345874266536,0.046527931135811225
7192.867,108,7192,867000000,,11.228275155548552,0.99971921357184,0.00012941536508114147,-0.0011099873746499643,0.023669500025587847,0.0002062128737433786,-0.002225479641537298,0.047343221514197335
7192.877,109,7192,877000000,,11.250313632724671,0.9997093852893584,0.00013054891152927705,-0.00113194190443552,0.024080005674895343,0.0002065081425234928,-0.002269515076258166,0.04816446373902654
7192.887,110,7192,887000000,,11.272452859883005,0.9996993152558169,0.00013137743893667025,-0.001154083016647308,0.02449346730360469,0.00020614143554108325,-0.0023139098458386798,0.048991628611531474
7192.897,111,7192,897000000,,11.294699119636785,0.999689000278084,0.00013194358567526635,-0.0011763079007885225,0.024909870012111292,0.00020520232084948712,-0.0023584597202752633,0.04982468660007898
7192.907,112,7192,907000000,,11.317058926806705,0.9996784372270212,0.0001324227475566418,-0.0011984517263213318,0.025329198902621003,0.00020404927682995586,-0.002402843334143867,0.05066360786011099
7192.917,113,7192,917000000,,11.339538810868852,0.999667622913007,0.00013297513481371257,-0.0012204125575252514,0.02575143907607266,0.00020300772371865936,-0.0024468648844973018,0.05150836254853789
7192.927,114,7192,927000000,,11.362145000442487,0.9996565539979989,0.0001336126199817051,-0.001242230410004263,0.026176573767057475,0.0002020994187951019,-0.002490605157996262,0.05235891742055382
7192.937,115,7192,937000000,,11.384883240706953,0.9996452270299869,0.00013418568654344952,-0.0012640500323359617,0.026604589932340952,0.0002010177435620169,-0.0025343457864115404,0.05321524708990911
7192.947,116,7192,947000000,,11.407758841102435,0.9996336385876995,0.00013449098228805333,-0.0012859890779625285,0.02703547266658569,0.00019934943875639795,-0.00257831079355908,0.05407732261855732
7192.957,117,7192,957000000,,11.430776950126544,0.9996217853983314,0.00013443203475725112,-0.001308033628203162,0.027469203342991952,0.00019690177612351182,-0.0026224663092944134,0.054945107389363236
7192.967,118,7192,967000000,,11.45394286191494,0.9996096643247901,0.00013411091235674652,-0.0013300497062888412,0.02790576892646576,0.00019388569916258306,-0.0026665491772137617,0.055818575480741726
7192.977,119,7192,977000000,,11.477262040600301,0.9995972722474189,0.0001337442515541388,-0.001351889165214932,0.028345154519973857,0.00019074246521488152,-0.0027102747649052628,0.05669769691811548
7192.987,120,7192,987000000,,11.500739821275253,0.9995846059342256,0.0001334780352691165,-0.0013735041005383997,0.028787345223476198,0.00018776681808787177,-0.0027535555463396033,0.057582441876096874
7192.997,121,7192,997000000,,11.524381079918804,0.9995716619944044,0.00013326801954885364,-0.0013949833887517626,0.02923232426965993,0.00018486538198953824,-0.0027965668418465928,0.05847277729810383
7193.007,122,7193,7000000,,11.548190105510933,0.9995584369769172,0.0001329109937740951,-0.0014164707443478672,0.029680078614423133,0.00018162341752761421,-0.0028395840000139394,0.05936867805032996
7193.017,123,7193,17000000,,11.572170744275548,0.9995449275364054,0.00013219808256480667,-0.0014380302701527826,0.030130589628500466,0.00017761918477756438,-0.002882722129311066,0.060270107876774184
7193.027,124,7193,27000000,,11.596326758141306,0.999531130499652,0.0001310874346085296,-0.001459591972438845,0.030583844275570336,0.0001727728166073926,-0.002925837718383173,0.06117704127805804
7193.037,125,7193,37000000,,11.620662115632568,0.999517042785898,0.00012975174749108763,-0.001481011019135633,0.031039827659575824,0.00016743825089445558,-0.0029686508125166267,0.0620894484042997
7193.047,126,7193,47000000,,11.645180907105889,0.9995026612650573,0.0001284318476062372,-0.001502181951089703,0.03149852674573432,0.00016210364573851412,-0.003010965093132034,0.06300730290067035
7193.057,127,7193,57000000,,11.669886975893021,0.9994879826521954,0.00012722751163844731,-0.0015231227722577725,0.031959921043814586,0.00015696770290009502,-0.0030528229183151012,0.06393056387512479
7193.067,128,7193,67000000,,11.694783618973297,0.9994730035318599,0.00012601651919607844,-0.0015439572217909358,0.0324239975096884,0.00015177841491724274,-0.0030944639807963803,0.06485920603124694
7193.077,129,7193,77000000,,11.719873551686437,0.9994577205201736,0.00012455048005819382,-0.001564795931494144,0.032890741237116446,0.0001460320002705721,-0.0031360930053800917,0.06579320076950408
7193.087,130,7193,87000000,,11.745159152533324,0.999442130406362,0.00012264899543855393,-0.001585632649827197,0.033360137325157066,0.00013936800479296188,-0.003177684669702696,0.06673251932963577
7193.097,131,7193,97000000,,11.770642854675982,0.9994262301310237,0.00012035850241344791,-0.0016063530257108953,0.03383217087780684,0.00013188675224034605,-0.0032190122355846285,0.06767713225915306
7193.107,132,7193,107000000,,11.796327342468288,0.999410016647334,0.0001179248331529294,-0.0016268313377661616,0.03430682327428093,0.00012408834815923984,-0.003259840095016564,0.06862700198542257
7193.117,133,7193,117000000,,11.822215337207366,0.9993934867857713,0.00011557663478037501,-0.0016470295537432604,0.034784083340163995,0.00011643287980690569,-0.0033001076617849012,0.06958210587994844
7193.127,134,7193,127000000,,11.848309212822954,0.999376637214514,0.00011332603703382625,-0.00166703010610257,0.035263936169833116,0.00010893930893942346,-0.0033399807372567203,0.0705424145443467
7193.137,135,7193,137000000,,11.874610789519744,0.9993594645566374,0.0001109638322701649,-0.0016869576292066345,0.03574636313022537,0.00010118089004029863,-0.003379693686984764,0.07150789187291692
7193.147,136,7193,147000000,,11.901121410937597,0.9993419655767936,0.00010822653473428943,-0.0017068556471739927,0.0362313493180282,9.262781114204029e-05,-0.003419314004509344,0.07247850945187063
7193.157,137,7193,157000000,,11.927842254277401,0.9993241372348317,0.00010501056732296153,-0.0017266465353038627,0.03671888356195379,8.30786200232381e-05,-0.003458677755699524,0.07345424582445018
7193.167,138,7193,167000000,,11.954774669436103,0.9993059765617505,0.00010147625005180121,-0.0017462046125482464,0.03720894724270634,7.286322143030791e-05,-0.0034975441909050886,0.07443506369584808
7193.177,139,7193,177000000,,11.98192022129157,0.9992874804988722,9.791660848864681e-05,-0.0017654597178182036,0.037701525462909405,6.25730241605061e-05,-0.0035357941650158153,0.07542093274516044
7193.187,140,7193,187000000,,12.009280390676473,0.9992686458182618,9.448974426591784e-05,-0.0017844553487552004,0.03819659959323732,5.2521360070896846e-05,-0.0035735265393077587,0.0764118156344394
7193.197,141,7193,197000000,,12.036856268586837,0.9992494691910259,9.108689486876962e-05,-0.0018033095712674525,0.038694162175736825,4.248223366588018e-05,-0.003610969173208245,0.07740769838207316
7193.207,142,7193,207000000,,12.064648484222111,0.9992299473783528,8.743013961830424e-05,-0.0018220995859525304,0.039194190854032605,3.189440202501573e-05,-0.003648254546829932,0.07840853778038047
7193.217,143,7193,217000000,,12.092657365368298,0.9992100773622073,8.329626987230518e-05,-0.0018407813021469623,0.03969667445568837,2.0315290290136775e-05,-0.003685275966242685,0.07941431285773849
7193.227,144,7193,227000000,,12.120883227188989,0.9991898562588807,7.870920840390302e-05,-0.0018592335462014834,0.04020159436281872,7.80263360243446e-06,-0.003721791663104046,0.08042498681280512
7193.237,145,7193,237000000,,12.149326570005316,0.9991692811247354,7.393942182142398e-05,-0.001877368991571858,0.04070893940560883,-5.0954391171201295e-06,-0.003757647685253218,0.08144053685478592
7193.247,146,7193,247000000,,12.177987984688919,0.9991483488429714,6.926298610891358e-05,-0.0018952037275311692,0.0412186909563126,-1.7827765312006226e-05,-0.0037928983035542263,0.08246092521403782
7193.257,147,7193,257000000,,12.206867892984874,0.999127056158049,6.470695149883948e-05,-0.0019128442136055201,0.04173083410605269,-3.034845950260237e-05,-0.0038277587133861424,0.08348612252780152
7193.267,148,7193,267000000,,12.235966399311904,0.9991053998519932,6.003792205951393e-05,-0.001930388642359215,0.042245353946582895,-4.313180038765418e-05,-0.0038624056826583875,0.0845161004460694
7193.277,149,7193,277000000,,12.265283324420027,0.9990833769316085,5.4964836669857376e-05,-0.0019478225009829865,0.04276223557834314,-5.6758011001638424e-05,-0.0038967848645405923,0.08555083086263153
7193.287,150,7193,287000000,,12.294818350024073,0.9990609846073883,4.937675065389062e-05,-0.0019650281247629514,0.04328146411007506,-7.143837018630314e-05,-0.003930650183759932,0.08659028498399211
7193.297,151,7193,297000000,,12.324571175086003,0.9990382200722656,4.3454689380821154e-05,-0.0019818994693343887,0.04380302464960188,-8.680127355864644e-05,-0.003963803909774466,0.08763443287569354
7193.307,152,7193,307000000,,12.354541559905053,0.9990150803281618,3.752720851850393e-05,-0.001998437149133573,0.044326902296037314,-0.0001021893782136093,-0.003996275264843696,0.08868324401862873
7193.317,153,7193,317000000,,12.384729239592115,0.9989915622020835,3.176080382686367e-05,-0.002014741815378252,0.04485307468938789,-0.00011727813199249825,-0.0040282801810722635,0.08973667359285444
7193.327,154,7193,327000000,,12.415133840266034,0.9989676625167562,2.6010521604434805e-05,-0.0020309266735496546,0.04538153809476358,-0.00013236690381450894,-0.0040600320927495215,0.09079471540100152
7193.337,155,7193,337000000,,12.445754866335587,0.998943378310037,1.9966304761572903e-05,-0.00204700427545893,0.0459122664342778,-0.0001480760354922299,-0.00409152754505171,0.09185731908032832
7193.347,156,7193,347000000,,12.476591709402099,0.9989187068885167,1.3414769850220835e-05,-0.0020628597888679512,0.046445252268160424,-0.00016482095879356812,-0.004122516247429875,0.09292447123716842
7193.357,157,7193,357000000,,12.507643633991561,0.998893645606938,6.4206866290475066e-06,-0.00207836301604406,0.046980476982783015,-0.00018245937981661297,-0.004152742449673008,0.0939961349207433
7193.367,158,7193,367000000,,12.538909762387249,0.9988681916122069,-7.027081653216251e-07,-0.0020934954637113145,0.04751792195440285,-0.0002003626873691534,-0.004182197465143478,0.09507227217275624
7193.377,159,7193,377000000,,12.570389130098484,0.9988423418173431,-7.67944740700724e-06,-0.0021083624588790345,0.0480575797231362,-0.0002179886429451767,-0.0042111177266481725,0.09615286763823996
7193.387,160,7193,387000000,,12.602080821374267,0.9988160930945643,-1.4538751975446892e-05,-0.002123095642983134,0.048599427924679174,-0.00023540766421756198,-0.0042397637427591395,0.09723787734423106
7193.397,161,7193,397000000,,12.633984059248021,0.9987894425240114,-2.15692811092885e-05,-0.002137730626591207,0.04914345537933938,-0.00025319958884587816,-0.004268178542728762,0.09832728082483802
7193.407,162,7193,407000000,,12.666098146466627,0.998762387504162,-2.9054211716954037e-05,-0.0021521595310975586,0.04968964347161666,-0.0002719191000134424,-0.004296117811590561,0.09942104260815433
7193.417,163,7193,417000000,,12.690887096189158,0.9987349294136625,-3.8114410756399496e-05,-0.0021644261515940833,0.05023798123633332,-0.00029360793082551317,-0.004319559850170629,0.10051914486414332
7193.427,164,7193,427000000,,12.730963378656798,0.9987070540472934,-4.526211442520518e-05,-0.002179873105481322,0.05078844574824557,-0.00031183487457983795,-0.004349525424168332,0.10162153121020343
7193.437,165,7193,437000000,,12.763730301162308,0.9986787699632755,-5.3396821377429134e-05,-0.0021932180102109534,0.05134103012720417,-0.00033185986999987005,-0.004375171592102101,0.10272819721782782
7193.447,166,7193,447000000,,12.7967007845036,0.99865007021767,-6.134911799555919e-05,-0.002206425281940524,0.05189571553574679,-0.0003515440505703687,-0.004400540215277582,0.1038391022174043
7193.457,167,7193,457000000,,12.829872998713519,0.9986209519466649,-6.935582635499127e-05,-0.002219552459215788,0.052452483340339695,-0.00037136608496173495,-0.004425721856547549,0.10495421064953614
7193.467,168,7193,467000000,,12.86324642331676,0.9985914126467711,-7.773593452300104e-05,-0.0022324973821820156,0.053011326101035955,-0.00039195205850948945,-0.004450478350833453,0.10607350969558361
7193.477,169,7193,477000000,,12.896820565791124,0.9985614500311443,-8.661992051438238e-05,-0.0022450749392487184,0.05357221776245576,-0.00041354206537238365,-0.004474424661044418,0.10719694826170587
7193.487,170,7193,487000000,,12.930594403575531,0.9985310616440812,-9.583297195026524e-05,-0.0022571987936763098,0.054135154611518695,-0.000435776430748099,-0.004497405511306507,0.10832451884585938
7193.497,171,7193,497000000,,12.964566114242464,0.9985002446328786,-0.00010502507577042516,-0.0022689798281237137,0.054700110561026506,-0.0004579667161753701,-0.004519679447995806,0.10945616838283762
7193.507,172,7193,507000000,,12.998733596278917,0.9984689959588426,-0.00011400964671990954,-0.002280614890470923,0.05526707813822801,-0.00047976100402327644,-0.004541660172817208,0.1105918820097741
7193.517,173,7193,517000000,,13.033095334624907,0.9984373128004487,-0.00012295101721773697,-0.0022921960724079106,0.05583603870450345,-0.0005014973067260423,-0.004563513818061304,0.11173162393445983
7193.527,174,7193,527000000,,13.067650660229951,0.9984051927621596,-0.00013217879794804832,-0.0023036257347417368,0.05640697736881909,-0.0005238226557844584,-0.004585008243117805,0.11287536647983183
7193.537,175,7193,537000000,,13.10239926578844,0.9983726337435745,-0.00014188500920601877,-0.002314693219709371,0.05697987553083816,-0.0005470959136715033,-0.004605699834838939,0.11402307378323472
7193.547,176,7193,547000000,,13.137340331457546,0.998339633524502,-0.00015196532562010475,-0.002325269315721611,0.05755472203361459,-0.0005710926131617954,-0.0046253408810921215,0.1151747236592433
7193.557,177,7193,557000000,,13.172471829661912,0.9983061894195719,-0.00016208822230233952,-0.0023354535247313425,0.05813150196721786,-0.0005951606468699672,-0.0046441672484938135,0.11633028557058184
7193.567,178,7193,567000000,,13.207790936972962,0.9982722984380343,-0.00017200377843864267,-0.0023454840659995254,0.05871019667669967,-0.0006188276424495896,-0.004662683682627566,0.11748972198491532
7193.577,179,7193,577000000,,13.243295400376972,0.9982379577988383,-0.00018180309715287393,-0.0023554934497988485,0.059290794967546544,-0.0006422907446489917,-0.0046811445379462135,0.11865301184497143
7193.587,180,7193,587000000,,13.278984294380392,0.9982031652271438,-0.0001918071736594294,-0.002365387483372994,0.05987327449758179,-0.0006661794489852568,-0.004699323595009242,0.11982011250552803
7193.597,181,7193,597000000,,13.314857525859832,0.9981679188209883,-0.00020224771022173612,-0.002374928968127503,0.06045762784724145,-0.0006909272360704434,-0.004716718466458714,0.12099101074006056
7193.607,182,7193,607000000,,13.350914648642854,0.9981322166018235,-0.00021307325753517226,-0.002383948291197549,0.06104383269085987,-0.0007164093324437243,-0.0047329952385568586,0.1221656620933384
7193.617,183,7193,617000000,,13.38715369233234,0.9980960560778289,-0.00022398467937492637,-0.002392526603443193,0.06163187784635581,-0.000742036698318787,-0.004748351384485483,0.1233440436588633
7193.627,184,7193,627000000,,13.423571244129961,0.9980594343243058,-0.0002347000733181186,-0.0024009392510794775,0.06222174837751871,-0.0007672793006628462,-0.004763371256974569,0.12452612532506502
7193.637,185,7193,637000000,,13.460164218079864,0.9980223485946237,-0.00024525080481331086,-0.0024093672173580477,0.06281342563107718,-0.0007922219128222285,-0.004778412755821915,0.12571187088380867
7193.647,186,7193,647000000,,13.49693130084394,0.9979847967430112,-0.00025593671449655763,-0.0024177212549350235,0.06340689843982594,-0.0008174517937660301,-0.004793260158293622,0.12690126010962682
7193.657,187,7193,657000000,,13.533872585763534,0.9979467770829231,-0.0002670086917642252,-0.0024257348794360506,0.06400214448884152,-0.0008434352414186111,-0.004807348869008798,0.12809424986542067
7193.667,188,7193,667000000,,13.570988080674315,0.997908287886139,-0.0002784489987534421,-0.0024331991850508857,0.06459915636129769,-0.000870108574674007,-0.004820262791254359,0.12929082577043888
7193.677,189,7193,677000000,,13.608276053030755,0.9978693268664756,-0.00028998941574004584,-0.0024401771328279543,0.06519791170228655,-0.0008969425846050654,-0.004832161222259046,0.130490942570931
7193.687,190,7193,687000000,,13.645732661332099,0.9978298911794962,-0.00030134480335329827,-0.002446977747385421,0.0657984030192573,-0.000923407124100884,-0.004843698005122299,0.1316945852272379
7193.697,191,7193,697000000,,13.683353967076458,0.9977899781146832,-0.0003125101646082044,-0.002453832182227442,0.06640060792405332,-0.000949522252707599,-0.00485533566580032,0.13290170997975126
7193.707,192,7193,707000000,,13.72113817088708,0.9977495856722449,-0.0003237605817120274,-0.0024606543714274253,0.06700451152361706,-0.0009758255726274729,-0.004866866132947623,0.1341122890248259
7193.717,193,7193,717000000,,13.759085510309141,0.9977087124032332,-0.00033534716053679127,-0.0024671447318425706,0.06761009896065273,-0.001002777463278388,-0.004877657219157783,0.13532629416349762
7193.727,194,7193,727000000,,13.79719645490905,0.9976673568308808,-0.0003472655511119722,-0.0024730601589398513,0.06821736282620063,-0.0010303347803190346,-0.004887223159069087,0.13654371102572332
7193.737,195,7193,737000000,,13.835469588227333,0.9976255168708322,-0.00035927019376542067,-0.002478451884396342,0.06882627331723154,-0.0010580123156105582,-0.004895698783871527,0.13776447945008283
7193.747,196,7193,747000000,,13.873900769346378,0.9975831897737678,-0.0003710925938355484,-0.0024836583135600136,0.06943683038459243,-0.0010853194515210035,-0.004903796232260671,0.1389885995968531
7193.757,197,7193,757000000,,13.912485260764536,0.9975403728838799,-0.00038271914576791673,-0.002488954690501951,0.07004900417965267,-0.001112266841713857,-0.004912067143391541,0.14021601277669896
7193.767,198,7193,767000000,,13.951220732120394,0.9974970643551662,-0.0003944024942566817,-0.002494258330751948,0.07066278725911669,-0.0011393471899430788,-0.004920311419237988,0.14144670611397295
7193.777,199,7193,777000000,,13.990107529328892,0.9974532629979462,-0.00040637607696203816,-0.002499234017485277,0.07127816477421903,-0.0011669783501416877,-0.004927826713627015,0.1426806512499714
7193.787,200,7193,787000000,,14.029146559540521,0.9974089675917234,-0.00041862938029106004,-0.002503609239853271,0.07189512187368485,-0.001195098810665659,-0.004934069813719244,0.1439178187088506
7193.797,201,7193,797000000,,14.068336703522647,0.9973641762367879,-0.0004309296688167132,-0.0025074352964864683,0.07251363620583827,-0.0012232493560047316,-0.004939175805642515,0.1451581634005211
7193.807,202,7193,807000000,,14.107673573866858,0.9973188862791325,-0.0004430393182896545,-0.0025110812276932177,0.07313369281198749,-0.0012510078602812583,-0.004943915403989418,0.14640165574219613
7193.817,203,7193,817000000,,14.147151726499363,0.9972730951431301,-0.0004549633042342406,-0.0025148548995632416,0.07375528418553087,-0.0012784290043987817,-0.004948902564546609,0.14764828229522212
7193.827,204,7193,827000000,,14.18676835626319,0.9972268011742503,-0.0004669400213147346,-0.002518665080555704,0.07437839543381869,-0.0013059751386289608,-0.004953920406530532,0.14889801511033446
7193.837,205,7193,837000000,,14.226564867125012,0.9971800034832612,-0.00047916627019625084,-0.0025221314265790867,0.0750029968186543,-0.0013339816692998785,-0.004958180551929647,0.1501507954849526
7193.847,206,7193,847000000,,14.266594104538326,0.9971327011170138,-0.0004916022166533331,-0.0025249565936902286,0.07562908839904155,-0.0013623228096048196,-0.004961095072709032,0.15140662376839897
7193.857,207,7193,857000000,,14.306751744555148,0.997084892288937,-0.0005040241121170437,-0.0025272237162961625,0.07625664781813624,-0.001390562445755053,-0.004962863168024523,0.15266545497947895
7193.867,208,7193,867000000,,14.347029806926772,0.9970365744336847,-0.0005162389381006395,-0.0025293347663259743,0.0768856601069357,-0.0014183753042129642,-0.004964316189406182,0.15392725989732814
7193.877,209,7193,877000000,,14.387423388726297,0.996987745098052,-0.0005282925266434608,-0.0025316127570641934,0.07751611775095148,-0.001445902268169371,-0.004966091829173402,0.15519202540246996
7193.887,210,7193,887000000,,14.427930405332244,0.9969384028676762,-0.000540413211809078,-0.0025339405948321086,0.07814799096085387,-0.0014735808193607892,-0.004967921400456543,0.15645969338004181
7193.897,211,7193,897000000,,14.468552459753665,0.9968885471341661,-0.0005527490436915553,-0.00253590867727815,0.07878126491003608,-0.0015016416713027171,-0.004968964544001642,0.15773023482263276
7193.907,212,7193,907000000,,14.50929205451968,0.9968381771502836,-0.0005652168038271506,-0.0025372250983013212,0.07941593966180621,-0.001529871088551998,-0.0049686516807498915,0.15900364986427717
7193.917,213,7193,917000000,,14.550149146240097,0.9967872912831327,-0.0005775930430417573,-0.0025379943093035927,0.08005198540552563,-0.001557837625079092,-0.004967226432339489,0.16027987854435222
7193.927,214,7193,927000000,,14.591119523730436,0.9967358870524807,-0.0005897453911124863,-0.002538651280479881,0.08068939461063906,-0.001585345469923121,-0.004965577680750233,0.16155890713627197
7193.937,215,7193,937000000,,14.632197462081745,0.9966839621848541,-0.0006017787686095581,-0.0025395078706433854,0.08132815230760759,-0.001612654031066712,-0.004964310812697104,0.1628407078278245
7193.947,216,7193,947000000,,14.673380409011465,0.9966315155682834,-0.0006139095840429665,-0.002540401192325465,0.08196823616696239,-0.0016401686237859292,-0.004963065984412429,0.16412523736156537
7193.957,217,7193,957000000,,14.714669856484171,0.9965785469042904,-0.0006262152716694398,-0.0025408907655027346,0.08260963137519396,-0.0016679708086027104,-0.004960951977356132,0.16541246625871522
7193.967,218,7193,967000000,,14.756068141236687,0.9965250556299844,-0.0006385544986205544,-0.0025407066488243317,0.08325233054722114,-0.0016957322641055037,-0.004957453674726997,0.1667023793496233
7193.977,219,7193,977000000,,14.797574682929874,0.9964710401704745,-0.0006507158683352525,-0.002540013176034905,0.08389631131081256,-0.0017230564958297765,-0.00495293407151598,0.16799493192272819
7193.987,220,7193,987000000,,14.839184510309188,0.9964164981337748,-0.0006626479157450268,-0.0025392724570326994,0.08454155867137246,-0.0017499170514218832,-0.004948323557599554,0.16929009575439227
7193.997,221,7193,997000000,,14.880891380252969,0.996361427505063,-0.0006745233734846876,-0.00253875287892469,0.08518805766069201,-0.0017767036457760027,-0.004944128355676369,0.17058784332535865
7194.007,222,7194,7000000,,14.922692660429211,0.996305827542469,-0.0006865322874468822,-0.0025382257585657166,0.08583580086577092,-0.0018037565049600478,-0.004939860222895831,0.171888161187745
7194.017,223,7194,17000000,,14.964589896322433,0.9962496982489218,-0.0006986607999135078,-0.002537233476224024,0.08648475858478609,-0.001830968586871828,-0.004934609175490934,0.17319098918335385
7194.027,224,7194,27000000,,15.00658515224066,0.9961930391801149,-0.0007107066619062007,-0.002535561293037597,0.08713492342848088,-0.0018578975655277599,-0.004927982225937599,0.17449631195056528
7194.037,225,7194,37000000,,15.048677110167807,0.9961358487643328,-0.0007224912284410823,-0.0025334509806798446,0.08778628045641537,-0.0018842272273823775,-0.004920492905860385,0.17580410021587575
7194.047,226,7194,47000000,,15.09086006404629,0.9960781247289037,-0.0007340672255318412,-0.0025313734743648113,0.08843880721098547,-0.0019101441275222151,-0.004913071192471641,0.17711431129822278
7194.057,227,7194,57000000,,15.133127609666289,0.99601986541944,-0.0007456690716593604,-0.0025295146037480785,0.08909249618463415,-0.0019361484676315127,-0.004906046233377426,0.1784269328953007
7194.067,228,7194,67000000,,15.17547741608206,0.9959610705228075,-0.0007574320984341722,-0.0025275678050528786,0.08974733253523508,-0.0019624555109788912,-0.0048987828465916206,0.17974193600181004
7194.077,229,7194,77000000,,15.202245253445607,0.995901744149577,-0.0007713216799423348,-0.0025229184733158065,0.09040329437021472,-0.001992506594677664,-0.004885717211250862,0.1810592794721182
7194.087,230,7194,87000000,,15.26044609867639,0.9958418743519353,-0.0007808221907563783,-0.0025219442773312664,0.09106037323991091,-0.0020144745986909176,-0.004880730889775142,0.18237893432772895
7194.097,231,7194,97000000,,15.30309965134701,0.9957814710676455,-0.0007920896766029504,-0.0025184665886283913,0.09171854777667433,-0.0020395022462418567,-0.004870405354225893,0.18370087041088856
7194.107,232,7194,107000000,,15.345825852551561,0.9957205283535127,-0.0008032051519114735,-0.0025151034549553445,0.09237780261554572,-0.00206424102474619,-0.004860302763526558,0.18502505615617723
7194.117,233,7194,117000000,,15.388617311786813,0.9956590450364138,-0.0008144402585789712,-0.0025119170093016356,0.0930381302708439,-0.0020892438410647397,-0.004850496803475046,0.18635147915730493
7194.127,234,7194,127000000,,15.43147276308633,0.9955970212587127,-0.000825835520136821,-0.0025085287992984377,0.09369950102460692,-0.002114520906340189,-0.0048402257475888,0.18768007952651178
7194.137,235,7194,137000000,,15.474394361329642,0.995534457461957,-0.0008371505750511173,-0.0025045460941634356,0.09436191498841728,-0.002139518593976252,-0.00482875237648539,0.18901085637544124
7194.147,236,7194,147000000,,15.517383289993374,0.9954713531509439,-0.000848125141284325,-0.0024999757554175816,0.09502534238186372,-0.0021637174504536673,-0.0048161403508548695,0.19034374935624593
7194.157,237,7194,157000000,,15.560436543681824,0.995407706684015,-0.0008587631461362865,-0.0024952134738316484,0.09568978311353817,-0.002187198753732025,-0.004803178193564017,0.19167876076881074
7194.167,238,7194,167000000,,15.603547769807658,0.9953435163164545,-0.000869355022983748,-0.0024906153806725853,0.09635520727360056,-0.0022106084596090043,-0.004790520297701217,0.19301583374764816
7194.177,239,7194,177000000,,15.646711850240328,0.9952787814559652,-0.0008801526352029225,-0.0024860973615892664,0.09702160740954752,-0.0022344321728635275,-0.004777950437514056,0.19435495539191927
7194.187,240,7194,187000000,,15.689928111836064,0.9952135026695672,-0.0008910581781214472,-0.002481242353739952,0.09768896127786349,-0.0022583937921606986,-0.004764656719772997,0.19569608007619105
7194.197,241,7194,197000000,,15.733198342965348,0.9951476804431912,-0.0009017296655425127,-0.0024757677556722095,0.0983572615274304,-0.0022817555658535154,-0.004750143621244041,0.19703919162613834
7194.207,242,7194,207000000,,15.759146165261186,0.9950813173778744,-0.0009140584654299131,-0.0024677226128463907,0.09902649356601483,-0.0023078927062959997,-0.00473015496655349,0.19838426415472937
7194.217,243,7194,217000000,,15.819913277362371,0.995014402093975,-0.0009219023179855496,-0.0024638374939868627,0.09969663395459297,-0.002325912775204908,-0.004719303983899303,0.1997312446775981
7194.227,244,7194,227000000,,15.863445669188923,0.9949469431738515,-0.0009319353077728167,-0.0024579911419593302,0.1003676761353324,-0.002347886223761548,-0.004704086532771434,0.2010801323696831
7194.237,245,7194,237000000,,15.907147083920607,0.9948789374147814,-0.0009422106858825844,-0.0024520588506690803,0.1010395974729895,-0.002370309483395605,-0.004688619409211503,0.20243087960205536
7194.247,246,7194,247000000,,15.950864973232772,0.9948103856411077,-0.0009524738815860138,-0.0024456663715156013,0.10171237573238458,-0.002392599290042795,-0.004672208848428339,0.20378344008160462
7194.257,247,7194,257000000,,15.994596190805325,0.9947412882189849,-0.0009623352208758924,-0.0024386983022715632,0.1023860184325717,-0.0024139548683439,-0.004654705246572632,0.20513782817541837
7194.267,248,7194,267000000,,16.03834142150368,0.9946716442953627,-0.0009717153214718,-0.0024314388188542836,0.10306048826073452,-0.0024342744680679626,-0.004636692198900949,0.20649397000057687
7194.277,249,7194,277000000,,16.082097719105473,0.9946014525066252,-0.0009809417169711933,-0.0024242402103454,0.10373577764732285,-0.0024542816427477617,-0.004618804587611658,0.2078518541933709
7194.287,250,7194,287000000,,16.125861248707697,0.9945307122833613,-0.0009904010711534986,-0.0024171151007796416,0.10441187164835383,-0.002474748308859069,-0.00460098737975323,0.20921145351432152
7194.297,251,7194,297000000,,16.16963080337302,0.9944594242872823,-0.001000081035937347,-0.0024097386366638833,0.10508875544471294,-0.0024955816851767623,-0.004582596090990432,0.21057273797497855
7194.307,252,7194,307000000,,16.21340804343794,0.9943875895183173,-0.0010095598281032888,-0.00240182853957902,0.10576641425127242,-0.0025158819598408272,-0.004563157773808335,0.21193567593469798
7194.317,253,7194,317000000,,16.257194335355077,0.9943152080777601,-0.0010184956322575678,-0.00239346522014371,0.1064448257349534,-0.0025349842430043177,-0.0045429061826773864,0.21330022204392285
7194.327,254,7194,327000000,,16.300988139000843,0.9942422790211287,-0.0010270125421263465,-0.0023849917964927666,0.1071239823472955,-0.0025532071034485935,-0.00452249942794869,0.21466636405209322
7194.337,255,7194,337000000,,16.325708087605644,0.9941688038578933,-0.0010377108365491141,-0.0023746514372337095,0.10780386934852346,-0.0025753416063564686,-0.004497885437062976,0.21603407857544984
7194.347,256,7194,347000000,,16.388601521612937,0.9940947756286378,-0.0010444412509093505,-0.002368103494186463,0.10848446362389141,-0.0025903809676265698,-0.0044816423280249484,0.21740331288775194
7194.357,257,7194,357000000,,16.43245824248571,0.9940202026171879,-0.0010533939498191384,-0.0023591811438502504,0.10916575115941307,-0.0026093022126758283,-0.004460173141440427,0.2187740451762226
7194.367,258,7194,367000000,,16.47630945945681,0.9939450832852031,-0.0010619211700909435,-0.0023497542376604043,0.10984772432442777,-0.0026272418556353393,-0.004437768661076147,0.22014625619873435
7194.377,259,7194,377000000,,16.520153046921294,0.9938694174294492,-0.001069856310442199,-0.0023400662348811965,0.11053036072653184,-0.002643920513731732,-0.0044149516659217625,0.22151990187834414
7194.387,260,7194,387000000,,16.56398661981181,0.993793204271344,-0.0010775484525869551,-0.002330394564005416,0.11121364535393236,-0.002660092803632517,-0.004392198500978495,0.22289495553813984
7194.397,261,7194,397000000,,16.60780683487598,0.9937164436594453,-0.0010854728809398765,-0.0023207028353766593,0.11189757070869512,-0.0026766952677883364,-0.004369331482340311,0.22427140517912017
7194.407,262,7194,407000000,,16.651611389680088,0.993639136505108,-0.0010936920486192291,-0.0023106971294508103,0.11258210705591008,-0.002693785443435185,-0.004345751568900269,0.22564919073930964
7194.417,263,7194,417000000,,16.695399533428695,0.9935612840733172,-0.0011017476211579193,-0.0023001899781992336,0.11326724704973912,-0.002710408559251429,-0.004321189024733663,0.227028295916487
7194.427,264,7194,427000000,,16.73917064266103,0.9934828869090788,-0.0011092014144637652,-0.0022893208918329648,0.11395298325969418,-0.0027257236651347327,-0.0042960218513414805,0.22840870558306461
7194.437,265,7194,437000000,,16.782922824612196,0.9934039446571037,-0.0011161592123657327,-0.0022783865526090374,0.11463928579549422,-0.0027400075603147595,-0.0042708179709454175,0.22979036174760326
7194.447,266,7194,447000000,,16.826653143629443,0.9933244570567867,-0.0011231260681229382,-0.0022674655105190426,0.11532614712261678,-0.002754281611413241,-0.004245619044658033,0.23117325283139847
7194.457,267,7194,457000000,,16.870358769825724,0.9932444247939151,-0.0011304388082976934,-0.0022563125671921347,0.11601355235972802,-0.0027691579546540003,-0.004219859836142481,0.23255735031238936
7194.467,268,7194,467000000,,16.91403757495317,0.9931638492377824,-0.0011378647080110163,-0.0022446727285100037,0.1167014792509566,-0.0027841135141294005,-0.004193086912543498,0.23394260818679447
7194.477,269,7194,477000000,,16.957687658461566,0.9930827314799768,-0.0011448472911975674,-0.0022325982875427315,0.11738992040619228,-0.002798053147118489,-0.004165534593091325,0.23532901062849548
7194.487,270,7194,487000000,,17.001306725268474,0.9930010717258477,-0.0011511906489932785,-0.002220382742937597,0.11807885342537262,-0.0028106553554114603,-0.004137834150705677,0.23671651362770801
7194.497,271,7194,497000000,,17.044892162899533,0.9929188698468724,-0.0011572765474359955,-0.0022081962595196306,0.11876827076351253,-0.002822718337593714,-0.004110235573204779,0.2381051053792544
7194.507,272,7194,507000000,,17.088441532734468,0.9928361263913247,-0.001163599362821983,-0.0021958567903028535,0.11945815004874624,-0.002835180370169602,-0.004082260383393876,0.2394947428681054
7194.517,273,7194,517000000,,17.131952518380967,0.9927528427306082,-0.0011702127803072085,-0.0021830483975688285,0.12014848390449558,-0.0028480712847596514,-0.004053267520708559,0.24088541136266717
7194.527,274,7194,527000000,,17.175422259516665,0.9926690202927231,-0.0011766362416631418,-0.0021697282245643924,0.12083925005667974,-0.002860424404701321,-0.004023287153937183,0.24227706462723334
7194.537,275,7194,537000000,,17.21884732005515,0.9925846597960545,-0.0011824308694689538,-0.002156186718731249,0.12153043359162435,-0.0028714369353209975,-0.003993003659605199,0.24366967295981531
7194.547,276,7194,547000000,,17.262224634237263,0.9924997613944648,-0.001187748698054685,-0.002142682500555702,0.12222201952071174,-0.0028814731771254817,-0.00396289602454436,0.24506320873296275
7194.557,277,7194,557000000,,17.30555213652539,0.9924143256210302,-0.0011931082534831945,-0.0021291136369282135,0.1229139928951132,-0.002891537551446767,-0.003932636486317254,0.246457644392825
7194.567,278,7194,567000000,,17.348828192248774,0.9923283538605001,-0.0011987918004085125,-0.0021151189465207867,0.1236063388658245,-0.002902100566701503,-0.003901438371253896,0.2478529506044643
7194.577,279,7194,577000000,,17.39205004884044,0.992241847778945,-0.001204519865120945,-0.0021005303855960093,0.12429904261508001,-0.002912563782699334,-0.003869036623029176,0.24924909667010087
7194.587,280,7194,587000000,,17.435213226896078,0.9921548085009283,-0.0012097572000012045,-0.002085608707465445,0.12499208925353862,-0.002921927682159585,-0.0038360826640160273,0.25064605248857336
7194.597,281,7194,597000000,,17.478313362029375,0.9920672365015422,-0.0012143959105017643,-0.0020707118730391005,0.1256854638045325,-0.0029300669387822675,-0.0038033161537363025,0.25204378982149656
7194.607,282,7194,607000000,,17.52134807884044,0.9919791323925874,-0.0012188640888181816,-0.0020558455023623893,0.12637914385120633,-0.0029378325822439553,-0.003770642610501529,0.253442265806533
7194.617,283,7194,617000000,,17.56431653518563,0.991890497594833,-0.0012235795381210835,-0.002040638124806897,0.1270731219746483,-0.0029459591824496094,-0.0037372196857654583,0.2548414666966481
7194.627,284,7194,627000000,,17.60721705653419,0.9918013339978108,-0.0012284828055987179,-0.0020247800909432337,0.1277673833611072,-0.0029542480247513143,-0.0037024475822740044,0.2562413620582705
7194.637,285,7194,637000000,,17.650045060279982,0.9917116430799067,-0.0012330876595403484,-0.002008441097132208,0.128461913140088,-0.002961775390484633,-0.003666787458160181,0.25764192169512806
7194.647,286,7194,647000000,,17.692794610487905,0.9916214256086644,-0.0012370866433649864,-0.001992070944510107,0.12915668144258058,-0.0029680457121377133,-0.0036312124287993797,0.25904308647583213
7194.657,287,7194,657000000,,17.735462090044777,0.991530682310924,-0.0012407446976564983,-0.001975818376632206,0.12985168818949475,-0.002973623184859556,-0.003595951248791973,0.2604448591686059
7194.667,288,7194,667000000,,17.778046921471464,0.9914394146656104,-0.0012445199889976667,-0.001959347165998475,0.13054691849238909,-0.0029793290977252846,-0.0035602190366894604,0.26184721092076824
7194.677,289,7194,677000000,,17.820548854167004,0.9913476247840681,-0.0012485240221178193,-0.0019422220660951883,0.13124235754127528,-0.0029852692144327776,-0.0035231232802306334,0.2632501113818851
7194.687,290,7194,687000000,,17.86296435874649,0.9912553145089379,-0.0012523977376217535,-0.0019244598918392608,0.13193797558565956,-0.002990733128814874,-0.0034847915995119827,0.2646534997071567
7194.697,291,7194,697000000,,17.90528650491991,0.991162484889958,-0.001255741611739841,-0.0019065487822853898,0.13263377256664974,-0.0029950557315379257,-0.0034462985844887495,0.2660573777203619
7194.707,292,7194,707000000,,17.947509729862205,0.9910691367597273,-0.001258644741105918,-0.0018888104473766885,0.13332971858694012,-0.002998498953781358,-0.003408260579428557,0.2674616870497536
7194.717,293,7194,717000000,,17.989632845849837,0.9909752716511219,-0.001261532713640813,-0.0018709968254173623,0.1340258136384456,-0.003001840745669383,-0.003370073657104955,0.2688664294935068
7194.727,294,7194,727000000,,18.031656754612925,0.9908808918791888,-0.0012646204878125288,-0.0018525873413205141,0.13472202801129476,-0.0030053663948299905,-0.0033306484784703105,0.27027154405297327
7194.737,295,7194,737000000,,18.073579727054575,0.9907859996732077,-0.001267680550872225,-0.001833415339904494,0.1354183617823404,-0.003008577305744202,-0.003289715987476738,0.2716770308235022
7194.747,296,7194,747000000,,18.1153949760676,0.9906905964069226,-0.0012703155085620431,-0.0018139262997870973,0.13611480000557039,-0.0030108041212620067,-0.003248267684971884,0.273082860964703
7194.757,297,7194,757000000,,18.1570949272222,0.9905946830106944,-0.0012724818672338399,-0.0017946091038032101,0.13681131276581185,-0.0030120932454310695,-0.0032072861418868115,0.274488976194992
7194.767,298,7194,767000000,,18.19867686054615,0.9904982610414232,-0.001274531751201103,-0.0017753571288191773,0.13750788512777115,-0.003013113839403799,-0.0031664652577998442,0.275895347867887
7194.777,299,7194,777000000,,18.24014216429834,0.9904013329820732,-0.001276724159183969,-0.0017556172688189377,0.13820451717992444,-0.003014226370974468,-0.0031246383590002313,0.27730197613569824
