Time,header.seq,header.stamp.secs,header.stamp.nsecs,header.frame_id,torques.x,torques.y,torques.z
25.92,92,25,919000000,,0.00034379089822362776,-0.000206597138078729,0.010161698705737337
25.929,93,25,928000000,,0.0015899943783225182,-0.0006051435346718622,0.012988222208888359
25.941,94,25,936000000,,0.0012289402718686532,-0.001063784127150153,0.0144296086617599
25.95,95,25,949000000,,0.0002519321342542517,-0.001377813138343936,0.014654907751283128
25.959,96,25,959000000,,-0.0010633204301233982,-0.0006013647113776202,0.011558200296790095
25.969,97,25,969000000,,-0.001620699660905997,-0.00042903111717923416,0.009299581471636027
25.98,98,25,979000000,,-0.0008791347277662738,-0.0003683368576998102,0.008567884237060595
25.993,99,25,993000000,,0.0014544821304488026,-0.00047282846318570963,0.010890966551371832
26.0,100,25,999000000,,0.0012615236363177254,-0.0016533194748582021,0.01296411615883543
26.009,101,26,8000000,,0.0008312563595125246,-0.0014612655374779283,0.014539660962706749
26.019,102,26,19000000,,5.3880150436004466e-05,-0.0010698519380574502,0.014161522111787578
26.031,103,26,30000000,,-0.0010630652612149724,-0.00046907031304064596,0.011488601135070565
26.04,104,26,39000000,,-0.0012487260931030298,-0.0001446299731038736,0.010323611245776174
26.049,105,26,49000000,,-0.0004501026224993525,-0.000263998339235259,0.009531907043336754
26.06,106,26,60000000,,0.000559128097001353,-0.0008143701031962719,0.01099484792536854
26.069,107,26,69000000,,0.0008264929305544315,-0.0017341386796966337,0.013129607110988133
26.079,108,26,78000000,,0.0006989193333456238,-0.0016367645762079912,0.014479291097953886
26.093,109,26,88000000,,-0.0001549645517236691,-0.0012463036465590331,0.014317334862231239
26.099,110,26,98000000,,-0.001101937798693236,-0.0006403045543139153,0.013030427558056234
26.11,111,26,110000000,,-0.001129349534380844,1.2109464224888404e-05,0.011870442631674041
26.119,112,26,119000000,,-7.714967788419012e-06,0.0003478908292505426,0.01002549378527894
26.129,113,26,128000000,,0.0004840489995523574,-0.00114262159234695,0.011575225549487662
26.14,114,26,138000000,,0.00048685950674075653,-0.0019774615493705983,0.013131013066055686
26.153,115,26,145000000,,0.00020058567325189367,-0.0023098870449607244,0.014309006021236985
26.159,116,26,158000000,,-0.0003173946633842947,-0.0006995353167959666,0.01366851406669056
26.169,117,26,168000000,,-0.0006568148165781643,-0.00019878311799763457,0.012750705533324523
26.179,118,26,179000000,,-0.0004648166890500417,4.76147497531726e-05,0.012109198846523742
26.19,119,26,188000000,,1.862361975838467e-05,-0.0003161623668771936,0.012120138329721386
26.199,120,26,198000000,,0.0003034610472354677,-0.0013269151677740127,0.012658003670906415
26.212,121,26,211000000,,0.00010813477640266451,-0.001918223252373343,0.01337773301242475
26.22,122,26,219000000,,-0.00021389763900253277,-0.0020470685405033686,0.013914417802499086
26.229,123,26,229000000,,-0.0004752138131285019,-0.0011455748340367738,0.013615501106365906
26.239,124,26,239000000,,-0.00037714186869824544,-0.00016115043456307464,0.013315983128335769
26.25,125,26,249000000,,4.978383300818296e-06,0.00022230861543711582,0.013211243675149446
26.265,126,26,264000000,,0.00024616709050977875,-0.0005168689820681229,0.013675436624995959
26.27,127,26,269000000,,0.0002668466250222739,-0.0014885146088242207,0.014086166047798299
26.279,128,26,279000000,,-0.0001793007719781236,-0.002080561490194814,0.013158410005100651
26.289,129,26,289000000,,-0.0006092590309024499,-0.001984533911802794,0.012992854154330935
26.298000000000002,130,26,299000000,,-0.0005091866911823388,-0.0008764781462525167,0.012958274355796552
26.313,131,26,310000000,,-0.00015651359074592456,-0.0003021955396243428,0.013852126221802187
26.32,132,26,320000000,,0.0004579605716075723,0.0002817780853560628,0.014798977988990854
26.33,133,26,329000000,,0.0005080841504010854,-0.0006180901520014717,0.015299864347784355
26.339,134,26,338000000,,-0.00017033143262760759,-0.0016969961687941667,0.014050944600841447
26.355,135,26,353000000,,-0.0008697658436966115,-0.001552618256625467,0.011671589172901852
26.36,136,26,359000000,,-0.0008966932975469813,-0.00207393184775604,0.012284931495808261
26.37,137,26,369000000,,-0.000359771860258633,-0.0006947048305366715,0.01291954569239082
26.379,138,26,378000000,,0.0002913829068376664,-0.00015581602140047484,0.01471332709438734
26.389,139,26,388000000,,0.0006847547357806925,-0.00040922655097238756,0.016401269945379528
26.399,140,26,399000000,,0.0002913840346528626,-0.0011681066244568735,0.01625994180003708
26.409,141,26,409000000,,-0.0003495289608913276,-0.001637517853898948,0.014842808095504933
26.422,142,26,418000000,,-0.0009679052417328902,-0.0016816124845701404,0.012530112545923358
26.429,143,26,428000000,,-0.0011037428215326394,-0.0014426975010601642,0.011206430202817919
26.44,144,26,438000000,,-0.000670321172368709,-0.000965186650885722,0.01214871056796397
26.449,145,26,449000000,,0.0006332934611802835,9.842271419523564e-05,0.01553009793766832
26.459,146,26,459000000,,0.0009856200886608445,-0.0007882018057455705,0.01782377632683346
26.47,147,26,470000000,,0.000850132283564559,-0.0017749009753551732,0.0187651858762574
26.486,148,26,485000000,,-0.0004427625170076358,-0.0020142890980023717,0.017152408345767003
26.489,149,26,488000000,,-0.0008852141516350542,-0.0022282396618557403,0.015928782252802483
26.499,150,26,499000000,,-0.00231127199256631,-0.0008722801824728067,0.00943517446675969
26.509,151,26,508000000,,-0.00023642523330733194,0.0007026079992386522,0.010175365381457933
26.522,152,26,521000000,,0.0015320925288810933,-0.0006222737749240056,0.015913004221737043
26.532,153,26,532000000,,0.0016278228422888317,-0.0017972771743695747,0.018827604384407556
26.539,154,26,539000000,,-0.00043742555742622835,-0.0019149004236709891,0.017957643596270622
26.549,155,26,549000000,,-0.0014129669071131336,-0.0015522164324148406,0.014484458591161656
26.559,156,26,559000000,,-0.0012904330269209111,-0.0008698016466832422,0.010529680304687749
26.584,157,26,568000000,,-0.0005972486699035077,-0.00035356349470550236,0.010347133901005317
26.584,158,26,579000000,,0.0005805581936470903,-0.0007775955075767612,0.014670444219115964
26.589,159,26,588000000,,0.0008618816852002305,-0.001416209761010711,0.018558894152832017
26.599,160,26,598000000,,0.0003163720757549692,-0.00182486188881241,0.02034934325725641
26.61,161,26,608000000,,-6.276101850696048e-05,-0.0020733923195151165,0.020062154295329114
26.619,162,26,619000000,,-0.0007910790643008178,-0.0016323993221862365,0.01698521899215847
26.63,163,26,628000000,,-0.0008330174889610034,-0.0018405637007674292,0.01697701661943168
26.64,164,26,638000000,,-0.0014722571114113062,0.0012639273092439657,0.006036409320218096
26.65,165,26,649000000,,0.000217133396047383,-8.376086613718042e-05,0.011607676359810663
26.668,166,26,667000000,,0.0010999736388897067,-0.002433452126584446,0.019657474317949314
26.674,167,26,674000000,,0.0007060377197693018,-0.0033031465194675613,0.02366334800935331
26.679,168,26,679000000,,-0.0007037168414366859,-0.002370042101321649,0.01891027317622562
26.69,169,26,690000000,,-0.0014747041549577262,-0.00018767205913522694,0.011877669901187826
26.7,170,26,700000000,,-0.0009602715454615172,0.0003543991325827185,0.009800826918475398
26.71,171,26,710000000,,-0.00024611541686975474,-0.0004772070669705783,0.010863927602326164
26.72,172,26,720000000,,0.0006048149347314658,-0.0013994074879384883,0.016585682841642264
26.732,173,26,732000000,,0.000421855778999573,-0.0023647062874172405,0.022885936243786268
26.74,174,26,739000000,,-0.0003914270443684108,-0.0023729761509602093,0.021497168557022522
26.75,175,26,750000000,,-0.0009710212896854243,-0.0009997117408349259,0.0167627151296862
26.76,176,26,759000000,,-0.0009528550696113022,0.0002696857731785971,0.01118335270604836
26.77,177,26,769000000,,-0.00021034231174950352,-0.0001104942519834192,0.010571241723568874
26.781,178,26,779000000,,0.0003299810031893266,-0.001288789144522675,0.014021249506070702
26.791,179,26,789000000,,0.00047117773419793273,-0.003084494669487071,0.020418980659792092
26.799,180,26,799000000,,-0.0007355100802083281,-0.0015989216751367726,0.021583366251394617
26.809,181,26,809000000,,-0.0007685213384273186,-0.001376116157113602,0.01910928015460969
26.82,182,26,819000000,,-0.0007042807411816782,-7.07477395133552e-05,0.013549146896715207
26.83,183,26,829000000,,-0.00026103200034952793,6.768879585119071e-05,0.011319561795995362
26.84,184,26,839000000,,0.00010206198747530245,-0.000771639899203134,0.0126541854528497
26.849,185,26,848000000,,6.91930797466269e-05,-0.002118314587716995,0.01732917232618059
26.859,186,26,858000000,,-0.00028830965237514327,-0.002690325217348315,0.02051762152269703
26.872,187,26,871000000,,-0.0007844705135096227,-0.0019474057417967323,0.020496638912712632
26.879,188,26,879000000,,-0.0009295682915142235,-0.0005287961497894561,0.017524110945056976
26.89,189,26,890000000,,-0.00038588313606342887,0.0003518026417731327,0.013605783384838898
26.9,190,26,899000000,,0.0002101479501978611,-6.380241193104533e-05,0.012207308957588153
26.91,191,26,909000000,,0.0001768924590987736,-0.00135291190409409,0.014854929933968565
26.919,192,26,918000000,,-0.00034835601484115556,-0.0026689524858405115,0.01859112096887514
26.932,193,26,932000000,,-0.0009848107268450581,-0.002510083374537019,0.020450389813430923
26.94,194,26,939000000,,-0.001135181759504249,-0.0014049248452588311,0.01966228053952141
26.949,195,26,949000000,,-0.00047344282636827066,9.314796935748146e-05,0.01630331585755339
26.959,196,26,958000000,,0.0002758867534254933,0.0005063527529739979,0.0140271306713636
26.97,197,26,969000000,,0.0005290267242511216,-0.0008533797680891523,0.01449137086077691
26.986,198,26,978000000,,-0.00035760235792834847,-0.0020237787181403124,0.01683036183905676
26.991,199,26,990000000,,-0.00015731919585016562,-0.0034860768798612583,0.018888520593668176
27.0,200,27,0,,-0.0013639069484626136,-0.003122299240349959,0.02101821963250245
27.009,201,27,9000000,,-0.00131270787104919,-0.00322211683008351,0.021714236688797475
27.02,202,27,18000000,,-0.001561649873761609,-0.0018682474123208734,0.02169357175176092
27.033,203,27,28000000,,-0.0009501291385038415,0.000545163892419664,0.019080291292854903
27.039,204,27,38000000,,0.0005908545204354938,0.0037108256339679815,0.013273515877947202
27.05,205,27,49000000,,0.0012167016388739999,0.0009406022005985877,0.012315144296866032
27.059,206,27,59000000,,-0.0009907927758567227,-0.0042777514159777815,0.015991004901476272
27.078,207,27,69000000,,-0.0018025568663788919,-0.0030026272083768088,0.016919406709086877
27.08,208,27,78000000,,-0.0004018660448028763,-0.0007141240495783488,0.01723673060700301
27.089,209,27,88000000,,0.0007798590817174312,0.0007279154297813791,0.017599595856524347
27.099,210,27,98000000,,0.0006763879315422861,-0.0006466812777466077,0.01775483168070325
27.109,211,27,108000000,,-0.0006466406831193396,-0.0022683972008741243,0.017387720715540532
27.119,212,27,118000000,,-0.0017521115433857645,-0.0024411750927241576,0.016655705513947475
27.129,213,27,128000000,,-0.0015792317667613215,-0.0013500471749936572,0.01630916060635886
27.14,214,27,138000000,,-0.00029966930480510164,-0.00012352946553498257,0.017167004120322186
27.15,215,27,148000000,,0.0012684531318845555,0.0006220734315526663,0.01927957327290655
27.161,216,27,160000000,,0.0014437110661804974,-0.001341180284795185,0.01998338263837459
27.17,217,27,169000000,,-0.0006867314037388153,-0.0014378486976912737,0.018799300995704246
27.179,218,27,179000000,,-0.0019032731226589568,-0.0023318362471894645,0.01620222818636965
27.191,219,27,190000000,,-0.0019088886948933654,-0.000982201298429019,0.014263143271754524
27.199,220,27,198000000,,-0.0006743553343089532,-0.0011195504919154899,0.015876208726647346
27.209,221,27,209000000,,0.0007444655472536852,0.0003057736332790725,0.019607758434171858
27.219,222,27,219000000,,0.0012564324508320998,-0.0005658704950977664,0.021631347822951518
27.23,223,27,230000000,,0.00021415676826924376,-0.0017694446523811617,0.020818626299958683
27.239,224,27,238000000,,-0.00045588993497774265,-0.0029754092851444584,0.019903779250791405
27.25,225,27,249000000,,-0.0026899864744057145,-0.0014065010375362336,0.014039286862456127
27.259,226,27,258000000,,-0.0022675733014350797,0.0004742950811422303,0.011912628621877886
27.271,227,27,270000000,,0.00044813974879367156,-8.768981311156696e-05,0.017084041673682875
27.284,228,27,284000000,,0.0018006562977461221,-0.0007067568844961617,0.022355321729852454
27.289,229,27,288000000,,0.0012015092077237266,-0.002004906902559317,0.02506031314829861
27.299,230,27,299000000,,-0.001119635325616626,-0.0020485126000132914,0.01889698680018443
27.311,231,27,310000000,,-0.0022535314891580934,-0.0014873323635948951,0.014709687088414528
27.319,232,27,318000000,,-0.0019975827621372703,-0.0020464340107866088,0.014195681749618156
27.33,233,27,330000000,,-0.001224421575132384,0.0008341253358375596,0.013425778626976156
27.34,234,27,339000000,,0.001450499978322762,0.0005108843013074493,0.022770238695492016
27.349,235,27,348000000,,0.0014439384858800117,-0.0020503114387827167,0.0243360581743543
27.359,236,27,358000000,,-0.0005124156128400035,-0.0021593409565837393,0.02097628418095098
27.369,237,27,368000000,,-0.0016484223381787162,-0.002251300950587255,0.017966991058208943
27.379,238,27,379000000,,-0.002722348194509372,0.001255754800079052,0.00934659367526939
27.391,239,27,388000000,,-0.0005099832139919307,0.00011085086987196223,0.013293672352231731
27.399,240,27,398000000,,0.001671521206726244,-0.0014446726446558963,0.021291556161741197
27.411,241,27,410000000,,0.0009419974337232794,-0.0019446269481896736,0.02532565461049351
27.419,242,27,419000000,,-0.0005877191264840567,-0.001999681318422237,0.02317251026446657
27.43,243,27,430000000,,-0.0021953290141000915,-0.0005072643756633904,0.015417491852926818
27.439,244,27,439000000,,-0.0020305617462066214,0.00021230489407091688,0.011043112921825474
27.45,245,27,449000000,,-0.0008387581385031802,2.9754126526668808e-05,0.012105578451709672
27.46,246,27,460000000,,0.0007839771229977521,-0.0006562036623398587,0.019298468484054115
27.469,247,27,469000000,,0.0010386894339600744,-0.0020306956528195605,0.02636825557498641
27.479,248,27,479000000,,-3.523765001119465e-05,-0.002547431586768248,0.024942807656442405
27.495,249,27,495000000,,-0.0015755474989442306,-0.0017653599794138228,0.019998225825517045
27.5,250,27,499000000,,-0.0029250577659207825,0.001462326313474733,0.009834241643173817
27.51,251,27,510000000,,-0.0011649609644125382,0.0012498755249446838,0.009967968305895544
27.518,252,27,518000000,,0.0009952787452258663,-0.0009256553838097334,0.01831437889107926
27.529,253,27,529000000,,0.0010309633711691052,-0.0026881015150672337,0.023580426518756994
27.541,254,27,540000000,,-0.0005384857517254516,-0.0023071706457524904,0.0244703894200078
27.55,255,27,549000000,,-0.0018185896255993002,-0.0004889797526929351,0.0188849716760562
27.56,256,27,560000000,,-0.0018186106266195213,-0.0002375062471761815,0.016468662956633455
27.57,257,27,569000000,,-0.0009580694181387084,0.002039419755477994,0.010811718564286522
27.58,258,27,579000000,,0.0005361403916322926,-0.00010228086730634312,0.016100763512970916
27.59,259,27,589000000,,0.0008817221088679374,-0.002982039110312838,0.02385469432618422
27.607,260,27,605000000,,-0.001740240106807525,-0.0005856122607702494,0.02161209804463282
27.609,261,27,609000000,,-0.000900891408392724,-0.0032569462902738754,0.02299472527243422
27.619,262,27,619000000,,-0.001826708721043815,-0.0011151929760776483,0.020645375625553956
27.628,263,27,629000000,,-0.0014761007030162294,-0.0018461325877848934,0.021403406935563737
27.639,264,27,639000000,,-0.001545764068685675,0.004225856155370937,0.011998992167829459
27.655,265,27,654000000,,0.0005599116022565828,0.0009226780118382404,0.01777916201669396
27.661,266,27,660000000,,0.00159363867819337,-0.004873746298930906,0.023442437156065234
27.685,267,27,680000000,,-0.000289750510371597,-0.002970752452775214,0.021185477318095593
27.685,268,27,684000000,,-0.002515674376787762,0.002118471693481879,0.014166215973368555
27.69,269,27,689000000,,-0.0029241010693944612,0.0035356754546309174,0.01187960737794803
27.699,270,27,699000000,,-0.00022463249260119023,0.0012265089640854398,0.016310931931926353
27.71,271,27,710000000,,0.0007770971690398715,-0.0025797673460522695,0.020694695895157232
27.72,272,27,719000000,,-0.00029231372431001907,-0.0033808033668124163,0.022742979248511146
27.73,273,27,730000000,,-0.0014136979887946688,-0.0009646738840919881,0.02067496661223939
27.739,274,27,739000000,,-0.0009240143246551356,0.0017665776648293865,0.01742990040754247
27.748,275,27,748000000,,0.0001264914836794865,0.0015559693675312085,0.016882831638665923
27.76,276,27,759000000,,0.0005154252724320164,-0.0008772821642396409,0.01831239471069723
27.774,277,27,769000000,,-0.000447888650536685,-0.0025159037341629087,0.02014751900130001
27.78,278,27,779000000,,-0.0012471621841377003,-0.002655618275571191,0.020739731184475356
27.789,279,27,788000000,,-0.0014242366287162468,-0.0002931975397740523,0.019876915866030475
27.8,280,27,798000000,,-0.0004527962310378478,0.001779199838509474,0.018881348470188443
27.812,281,27,812000000,,0.0006306861855158347,0.0015777037887897138,0.018622030099463702
27.819,282,27,819000000,,0.0007704639020070172,-0.00040607369711896006,0.01903732682331298
27.831,283,27,831000000,,-0.0006669926659305984,-0.002770708410080339,0.019035892068109513
27.839,284,27,839000000,,-0.001864856670438281,-0.002607565638198175,0.018639450233264392
27.85,285,27,849000000,,-0.001486665783754829,-0.00024581215126485273,0.01881684512520945
27.859,286,27,859000000,,-4.907618214065464e-05,0.00182187957004232,0.020026204472962317
27.871,287,27,871000000,,0.001078611328904948,0.001291806515606432,0.020974650929466827
27.879,288,27,879000000,,0.000936639883649585,-0.00040166802855181607,0.02100911546901194
27.889,289,27,888000000,,-0.0006326080985465737,-0.0026141548109490332,0.018813460202410957
27.899,290,27,898000000,,-0.002382068893116804,-0.001693458979812464,0.015860941449135503
27.91,291,27,909000000,,-0.0014671279418432578,3.59258792157059e-05,0.017540718131727813
27.918,292,27,918000000,,0.0004475851689474091,0.0017696281583994273,0.020931416709923784
27.93,293,27,928000000,,0.001260313878585899,0.0007133777384571256,0.022645200287041953
27.939,294,27,936000000,,0.0005163763596000133,-0.0007868467413841938,0.021694298178769
27.952,295,27,948000000,,-0.0015014600507202182,-0.0018814717101537308,0.017027622533697353
27.96,296,27,959000000,,-0.001781826008566722,-0.0033723623327327093,0.015761382554896345
27.969,297,27,968000000,,-0.0017950703535755032,0.00244626902187728,0.015676357859972973
27.979,298,27,978000000,,0.0008822572388795136,0.0018187368269658249,0.021978104895661675
27.989,299,27,988000000,,0.0017056817520753112,0.00038377081435119896,0.023839008255221103
27.999,300,27,999000000,,-1.713853454094914e-05,-0.0007299615288247495,0.021636543688964324
28.009,301,28,9000000,,-0.0015936156507048002,-0.0020235256339873626,0.016722725942828705
28.032,302,28,24000000,,-0.0020622045882007054,-0.0023069477280376937,0.01414781034926793
28.032,303,28,29000000,,-0.001921405599310037,-0.0005743376619063685,0.013624357141037057
28.041,304,28,39000000,,0.0006324514176206631,0.00406330296478617,0.02263053394982049
28.064,305,28,64000000,,0.0020810271843739827,0.0013246946966069084,0.027075505267453007
28.066,306,28,65000000,,-4.956526524446626e-07,-0.003546179695825734,0.018529911583301844
28.07,307,28,69000000,,-0.00033515143770024324,-0.004384039054268601,0.016191090559628953
28.081,308,28,80000000,,-0.0017748367689556298,-0.0006969214215029328,0.014108036643929494
28.1,309,28,95000000,,-0.0016085289986569914,0.0001935187850576511,0.015739149851913554
28.1,310,28,98000000,,0.0009885068585592978,0.0027856269318926783,0.02618066420987618
28.109,311,28,108000000,,0.0015647605081306416,0.0008446602546429064,0.02829062791661916
28.119,312,28,119000000,,0.0021163611992206523,0.0010638230427219685,0.031603658016394386
28.132,313,28,132000000,,0.0003986773695500116,-0.000111605525064925,0.025562227932850633
28.146,314,28,146000000,,-0.0032856442976280332,5.315592075790692e-05,0.003586478774474067
28.15,315,28,149000000,,-0.0027510715194933822,-0.0026594230292437573,0.004166270738220649
28.16,316,28,159000000,,-0.0011328075485241684,0.0006483187468692705,0.010430187440530597
28.169,317,28,168000000,,0.0013331779304308073,0.001997742003646232,0.026013010136482204
28.179,318,28,179000000,,0.0017285607229388616,-7.081037648672887e-05,0.027377502045307943
28.189,319,28,189000000,,0.0009035924186463172,0.0011854681238687654,0.02735101925660985
28.201,320,28,201000000,,-0.0018696463653560915,0.0006428142258427086,0.013455523791865303
28.214,321,28,211000000,,-0.0015460864596246997,0.0015385040568866334,0.008151875459396576
28.22,322,28,220000000,,0.0014102150573575439,7.983197227425789e-05,0.022754858655056096
28.231,323,28,231000000,,0.0007367448731057002,-0.0009116163411003828,0.02386034773505712
28.246,324,28,243000000,,-0.0012759291114741588,-0.00010604577951163518,0.01666660422413843
28.249,325,28,249000000,,-0.0019881472356016163,0.001444490066124948,0.010047091010133218
28.259,326,28,259000000,,-0.0004302980692223267,0.0016955782650048246,0.01313940944643028
28.27,327,28,270000000,,0.0014059522806916063,0.00039645398501088607,0.022641429903647675
28.284,328,28,283000000,,0.0013995318297907113,-0.0006602038306976792,0.027060202518620825
28.289,329,28,289000000,,-0.0003601535766638908,-0.0006533075490440379,0.02395214582215706
28.3,330,28,299000000,,-0.0014051234421477612,0.00081067246237846,0.016966467142516265
28.31,331,28,310000000,,-0.0009625842155399451,0.002072603605017406,0.012216895566588885
28.321,332,28,321000000,,0.000268083945863815,0.0016112868393171598,0.014532516537617945
28.329,333,28,329000000,,0.0014898119482565368,0.0003446161007683014,0.023662430389510762
28.342,334,28,342000000,,0.0007484004196247992,-0.0009378454517131731,0.026219830531857946
28.353,335,28,353000000,,-0.0007756542737051987,-0.00011516501410434088,0.021468673129298628
28.361,336,28,360000000,,-0.0006447434153539912,-0.0012604751351671713,0.021840120455254707
28.37,337,28,370000000,,-0.0011745690697482546,0.0035149003974944424,0.011462686701834836
28.382,338,28,379000000,,0.00018420750931251516,0.0029888214545380183,0.014113747663689679
28.389,339,28,389000000,,0.0017345998660950562,0.0001094188901999769,0.021329327169162405
28.4,340,28,400000000,,0.0007744460859322605,-0.0007750084792676519,0.02498995013780704
28.409,341,28,409000000,,0.0006819742759411881,-0.0020788358314414524,0.025802025718483217
28.421,342,28,421000000,,-1.7537147725404587e-05,-0.0014866079540352306,0.024789151414663445
28.43,343,28,430000000,,-0.001636491246311089,0.004996269322666645,0.011225231718609101
28.443,344,28,442000000,,0.0008295685351211631,0.002583658653283658,0.017990733539532844
28.45,345,28,449000000,,0.0014720054336582475,-0.001023049547389188,0.020005584523408174
28.46,346,28,460000000,,0.00023905831721871267,-0.0004260626018777234,0.020191286116974873
28.475,347,28,474000000,,-0.0007414251964133475,0.0017441234393125178,0.017630376360807526
28.484,348,28,483000000,,-0.0005399225755466952,0.0022770846617637787,0.01584024578505995
28.49,349,28,489000000,,0.00028222974169276466,0.003126027790467525,0.015898135565593816
28.5,350,28,500000000,,0.001253801323044228,0.0011734371846389073,0.01923872017945485
28.509,351,28,509000000,,0.00047695871931907445,-8.967300197100397e-05,0.021570618963505546
28.523,352,28,514000000,,-0.00016870135967441205,0.0006277496151416573,0.019878374216766043
28.531,353,28,530000000,,5.893984965804448e-05,0.0022405938883158305,0.018161692418622918
28.546,354,28,543000000,,0.0007384487298259453,0.0024589385037649767,0.017919252241296355
28.55,355,28,550000000,,0.0012971718016464699,0.0011742354105458317,0.018945193125544872
28.568,356,28,559000000,,0.0006465818282834285,0.0002480859932290746,0.019638211372406723
28.572,357,28,571000000,,-0.00020975415011141645,0.0004270021191153893,0.019246965242590692
28.579,358,28,579000000,,-0.00023455522025492992,0.0017778718535690818,0.018988746274063693
28.59,359,28,588000000,,0.000632337482214804,0.002583560486149778,0.01945778470745459
28.604,360,28,601000000,,0.001249428439521008,0.0022033543686833202,0.01977564313944072
28.615,361,28,614000000,,0.001102445206070037,0.0003663002419974565,0.018177033390686968
28.619,362,28,619000000,,0.0007576312262551013,-0.00011847967675272377,0.017664007595231297
28.634,363,28,632000000,,-6.886027007534871e-05,0.0013581017307605382,0.01799204017810625
28.642,364,28,641000000,,-7.79992843190602e-05,0.0027933759047288876,0.01981920823749242
28.654,365,28,653000000,,0.0006280197967542024,0.0027135218311534672,0.02166671119945161
28.66,366,28,660000000,,0.0015023448602093767,0.002297043614159956,0.022066330007854004
28.669,367,28,669000000,,0.0012059788243176449,0.0011039075940264989,0.017325274168831645
28.686,368,28,686000000,,0.0002605000213822342,0.0007848623815643906,0.015016841938838331
28.69,369,28,689000000,,-2.268794056826159e-05,0.001612831080739928,0.0166669199749459
28.7,370,28,700000000,,0.0008265326841589469,0.0025391267405246044,0.021456521527771766
28.71,371,28,710000000,,0.0014264566995179366,0.002075907569098572,0.02217389336768611
28.719,372,28,719000000,,0.0011765048918866163,0.0012515455943059733,0.019146262773197406
28.733,373,28,733000000,,0.0003252649725651877,0.0012983638574807321,0.014149143245915876
28.744,374,28,735000000,,0.00010317103983222009,0.0020255719108360957,0.01451750852518261
28.749,375,28,749000000,,0.0007268459524562824,0.0027371603854190497,0.019973005460013946
28.759,376,28,758000000,,0.0014989234068427384,0.0023593813420480104,0.02346195249808689
28.77,377,28,770000000,,0.0014403605869427439,0.001710003514766703,0.021718561484383555
28.784,378,28,784000000,,0.0009275331479106215,0.0013443073564409203,0.016562314528926505
28.789,379,28,789000000,,0.00026905753932093596,0.0019047880419145137,0.01106532375242882
28.8,380,28,799000000,,0.0006273707713462198,0.002630502252253033,0.015766084484660308
28.809,381,28,809000000,,0.0013234998011581712,0.0024860151512438346,0.021836360658957055
28.819,382,28,818000000,,0.0016738734100559469,0.0020675732398620105,0.024572395778317786
28.829,383,28,829000000,,0.0014846956927226454,0.0016829744878396396,0.021924928099689905
28.839,384,28,839000000,,0.0006492621980554143,0.0022112847826617444,0.011639207911490507
28.849,385,28,849000000,,0.000718813178971183,0.0026067512595937315,0.011727269596431077
28.86,386,28,858000000,,0.0012179074924772906,0.0026780828244902816,0.01941165493785985
28.879,387,28,878000000,,0.0014459820320967432,0.0020416561909890876,0.02388589861831167
28.88,388,28,880000000,,0.0017780153256124784,0.0015283812788814818,0.024808223969733794
28.89,389,28,888000000,,0.0012979795284315105,0.0021099027606045475,0.016920558012251046
28.903,390,28,900000000,,0.000976002615605493,0.00280432911477021,0.010955410602813076
28.909,391,28,908000000,,0.0010196214352399535,0.003079892703097536,0.0130811312512843
28.919,392,28,919000000,,0.0014681114737960035,0.0025617632864067008,0.023421801331773524
28.93,393,28,928000000,,0.001601679561201498,0.002162129372000912,0.025013637947360917
28.939,394,28,939000000,,0.0015065044956830247,0.0022313184977797622,0.019422543827895326
28.95,395,28,949000000,,0.0014535908258066841,0.002764130012952448,0.011668751514964892
28.959,396,28,959000000,,0.001510848373758321,0.0031220496678898706,0.01051952751397638
28.969,397,28,969000000,,0.001398027911691448,0.0028391369598098383,0.019863862981611746
28.979,398,28,978000000,,0.0014796695800492728,0.002425496297537479,0.024838662547205726
28.989,399,28,989000000,,0.0015539646851307487,0.0024270795061201575,0.02200707250879635
29.0,400,28,999000000,,0.0017447106712994002,0.002821108818809524,0.014860690305732376
29.009,401,29,9000000,,0.0018957625788823154,0.003231658180634345,0.009875174156434557
29.02,402,29,19000000,,0.001716408604910089,0.0031286107124458137,0.015263471662078101
29.031,403,29,30000000,,0.001610650688122102,0.0029808336761142466,0.020587278668460676
29.039,404,29,39000000,,0.0015841920521591519,0.0029106585186263953,0.024881599575180643
29.05,405,29,49000000,,0.0017165303725783232,0.003113537527787165,0.02639589815964955
29.059,406,29,59000000,,0.0016567234476016282,0.0027469966633596596,0.02635629147059738
29.07,407,29,69000000,,0.0022142873473032934,0.0030568088268144874,0.01597086912306021
29.079,408,29,79000000,,0.0025835410067827354,0.0033535513892061376,0.005636179344015894
29.09,409,29,90000000,,0.0021958446055698544,0.0035846155585519835,0.0069142001824201525
29.1,410,29,100000000,,0.0013026131617129735,0.0031009944502911804,0.019493361018608203
29.11,411,29,110000000,,0.001515791801947578,0.0023156788016379277,0.023625539076328687
29.12,412,29,120000000,,0.002759961216843795,0.0032163494134440267,0.012968819874244135
29.135,413,29,134000000,,0.0015789693607478946,0.0032498906082894545,0.018100565452114713
29.137,414,29,139000000,,0.0013887006376095915,0.003946918409267696,0.021458895442948118
29.15,415,29,149000000,,0.001574636776040251,0.0033699828838971253,0.022519182925638464
29.161,416,29,161000000,,0.002600913447948334,0.0033001090776659534,0.016827522518196563
29.169,417,29,169000000,,0.0033460450140820356,0.003306017879935276,0.010902464197320584
29.18,418,29,179000000,,0.002808308416998079,0.003362621942512168,0.012097923598966501
29.19,419,29,189000000,,0.0016192588709628408,0.003558596027581267,0.018578295047579706
29.2,420,29,198000000,,0.0012485999414474616,0.003774318435396529,0.022309531394489723
29.209,421,29,208000000,,0.0018932751736500616,0.004127727892765867,0.021413966764079483
29.22,422,29,220000000,,0.0021667372682351678,0.004969133875656732,0.02225206814982927
29.23,423,29,230000000,,0.0037234871922392446,0.0029651963484737176,0.012344751210671714
29.239,424,29,239000000,,0.0029966312938596285,0.002320018702332444,0.010953391806853004
29.25,425,29,248000000,,0.0012425124535379258,0.004202313239837622,0.01898504370613019
29.259,426,29,259000000,,0.0016962034263266188,0.004482552700670355,0.019417554178325223
29.269,427,29,269000000,,0.00217870837764793,0.005533360424768205,0.01975061770783739
29.279,428,29,279000000,,0.004276612738051545,0.0016418066464119318,0.010663034861525216
29.289,429,29,288000000,,0.0034567153409180798,0.0032588938124394353,0.013262798137943977
29.3,430,29,299000000,,0.0015073938169910222,0.004668031212272792,0.018272897049876745
29.31,431,29,304000000,,0.0018251274834555392,0.005484730515036671,0.01921465752983384
29.319,432,29,319000000,,0.002862094896401441,0.003498289203103948,0.01727555753601189
29.329,433,29,328000000,,0.004232218676777645,0.0028851846981231915,0.013648747362871649
29.338,434,29,338000000,,0.0035251892787652476,0.0031888335006349617,0.014116414725398494
29.351,435,29,348000000,,0.002127862921096886,0.004599427973396683,0.016691867641435612
29.363,436,29,358000000,,0.0016352251063075913,0.005625852869108897,0.018252929465760376
29.37,437,29,369000000,,0.0027165121814423897,0.005065198479248802,0.01764815619282028
29.38,438,29,379000000,,0.00434921412561818,0.0028964832652598554,0.015107216295284328
29.389,439,29,389000000,,0.00423895427931068,0.0028071383920265916,0.014528458179513645
29.399,440,29,399000000,,0.002614058150742879,0.004242257125212796,0.01562622581974707
29.409,441,29,408000000,,0.0018653248481369437,0.005915868411371632,0.01656290817453023
29.422,442,29,421000000,,0.002940308068500885,0.005131621728125719,0.016176415282897122
29.429,443,29,429000000,,0.004322057179676705,0.004347122477773099,0.015824132436649225
29.44,444,29,439000000,,0.004451689167049891,0.002284888444000873,0.015321125908656724
29.449,445,29,449000000,,0.0031873576796911424,0.003496093464907835,0.015638626994764326
29.462,446,29,461000000,,0.0021253266822283106,0.005950366345675291,0.015535450613007332
29.469,447,29,468000000,,0.002455548474574161,0.007360395673077185,0.015333945124452074
29.479,448,29,479000000,,0.003962643595066003,0.004979473893567807,0.015386045450126774
29.489,449,29,489000000,,0.004873763195616005,0.0022470273690449252,0.01577919172231743
29.499,450,29,499000000,,0.00399359468359713,0.002438370427282701,0.01623147231947869
29.509,451,29,509000000,,0.002627837193365023,0.005479731393316846,0.015325645197803524
29.519,452,29,519000000,,0.0026803010761534225,0.007738162378476189,0.014030396761281521
29.529,453,29,528000000,,0.0040661031446180725,0.005947610144903456,0.014242886807146781
29.541,454,29,539000000,,0.004791556159385987,0.002115628408737512,0.016062469117192498
29.554,455,29,550000000,,0.004318337360018224,0.002157070905340328,0.01682081175780024
29.56,456,29,560000000,,0.0031493315321267008,0.004632067074022913,0.01587205957849318
29.569,457,29,569000000,,0.0030085691207723483,0.008078103456353918,0.013194905830117927
29.581,458,29,581000000,,0.004027756501296936,0.007574399466887899,0.012634008956914553
29.589,459,29,589000000,,0.005117235682709096,0.003912090832055282,0.014600655389057911
29.6,460,29,600000000,,0.004319233840485269,0.0012056528399851667,0.01719394189426855
29.61,461,29,609000000,,0.0033622483795547804,0.004156111682256488,0.016550515287794068
29.625,462,29,625000000,,0.0033680547451702273,0.00786105064274083,0.013351502061960828
29.634,463,29,634000000,,0.0039128153195062965,0.009531477423858369,0.010732950197674635
29.639,464,29,639000000,,0.005120835910128071,0.005717502558278242,0.012497512924741456
29.65,465,29,649000000,,0.005083990794126074,0.0026522932040628734,0.015748971323948712
29.66,466,29,660000000,,0.0035281795491210553,0.001827273290092968,0.017390047646772926
29.669,467,29,668000000,,0.003529169571848568,0.006867240937030816,0.01453102848771872
29.686,468,29,685000000,,0.004426726286291417,0.009965001391126212,0.010221462352014361
29.69,469,29,689000000,,0.005219248986285444,0.008595446811629817,0.009157413921715787
29.701,470,29,701000000,,0.005032679310969916,0.0021532882651837714,0.015495882856250205
29.709,471,29,709000000,,0.00438138029877754,0.0013297848789144385,0.018386598411245583
29.72,472,29,719000000,,0.004486556074594002,0.004143153846174217,0.018681149165831773
29.73,473,29,730000000,,0.0038478182378132047,0.007515733686514524,0.014440881089532658
29.739,474,29,739000000,,0.004704809442424711,0.006949235424161166,0.006345495539551582
29.75,475,29,750000000,,0.005099671948256047,0.006222009919405228,0.011579850365288791
29.764,476,29,760000000,,0.003729482207450355,0.0015404069471057268,0.017567559294319954
29.771,477,29,771000000,,0.003936577064311665,0.0045879914522852,0.01682517091933261
29.78,478,29,780000000,,0.0054784902094667165,0.009844105486337344,0.011465471168842611
29.79,479,29,790000000,,0.006768550116301381,0.008807454668371364,0.008666604505085516
29.8,480,29,800000000,,0.006133286504881532,0.0051685335892297695,0.011841230242989553
29.812,481,29,809000000,,0.004306321447001916,0.0019826336092311657,0.016008957571023868
29.819,482,29,819000000,,0.0026584294240272316,0.0022177380628715894,0.017890300641126806
29.832,483,29,829000000,,0.004921570411753411,0.009233193096351181,0.012834990977957955
29.839,484,29,839000000,,0.007141348156768689,0.011051893648238054,0.008263966485461316
29.849,485,29,849000000,,0.007967801063082017,0.009730475096915017,0.008528788068963143
29.859,486,29,859000000,,0.004887436966815072,0.0005640412885792997,0.01426523225813386
29.869,487,29,869000000,,0.0026319569142253807,0.0011856320144074477,0.018343742981369413
29.884,488,29,878000000,,0.003531674936937632,0.006857073207351101,0.015583270851136099
29.889,489,29,888000000,,0.006996739828266945,0.012163425224893665,0.007528424674281688
29.9,490,29,899000000,,0.00825907968186976,0.008949358827146963,0.007847452883495872
29.91,491,29,910000000,,0.005837703158359279,0.0037932741463874917,0.012399243576433256
29.923000000000002,492,29,917000000,,0.003684571505459136,0.002131959389650505,0.016252815310240233
29.928,493,29,928000000,,0.002724306058079257,0.004107615356110109,0.016924006892580123
29.94,494,29,938000000,,0.007149571249650987,0.010452312903727855,0.009533024448860485
29.954,495,29,950000000,,0.009112004780321578,0.009423901822719783,0.007060433325351922
29.959,496,29,959000000,,0.007432820571409549,0.005989701332556375,0.009857595116568193
29.969,497,29,968000000,,0.0028160090189772256,0.0013588445526099822,0.015590537470907948
29.979,498,29,978000000,,0.0020531087475674286,0.003179280994591054,0.017749539593502863
29.989,499,29,988000000,,0.005598605112401873,0.00937667274749586,0.012966199794429567
29.999,500,29,998000000,,0.009760120272279576,0.011336346132044687,0.00712475084838087
30.009,501,30,9000000,,0.00868305938832422,0.007182400872212277,0.008024004823568841
30.019,502,30,19000000,,0.0037913618776354223,0.0025759144623629733,0.013782349042167357
30.029,503,30,28000000,,0.0015429273796017293,0.003466097558501981,0.016679403424950088
30.04,504,30,40000000,,0.005282517769421437,0.008750740085080068,0.013133656264071186
30.053,505,30,52000000,,0.010620719924859502,0.01180033240398625,0.0070498411575346896
30.059,506,30,59000000,,0.011176045070749532,0.009316036959683627,0.005132569801764035
30.07,507,30,70000000,,0.005551087473104876,0.003724342857822004,0.010769324288089086
30.088,508,30,83000000,,0.0019565881559008933,0.0022288959480227413,0.014877948904907333
30.094,509,30,93000000,,0.0021286323455524873,0.005945348525877961,0.016878040934299038
30.102,510,30,102000000,,0.009383829741249848,0.011064992444946525,0.008636776732560162
30.11,511,30,109000000,,0.012385558802326533,0.01207934306585938,0.004804177272679433
30.12,512,30,119000000,,0.008584336544706684,0.007273488373622442,0.007958045746642377
30.13,513,30,128000000,,0.0010021177595377743,-0.00038078210609482094,0.01636092920134002
30.139,514,30,139000000,,0.00211423399753552,0.0051586270949419534,0.015161761281931613
30.149,515,30,148000000,,0.008264449873859742,0.010238205901189845,0.010544930785935328
30.16,516,30,159000000,,0.012882913286293752,0.010501649055027838,0.0057093004526640595
30.169,517,30,168000000,,0.011271126857330909,0.008110312063106763,0.004773747113317869
30.179,518,30,179000000,,0.002882396931242184,0.002920091167770803,0.011965125670453715
30.192,519,30,188000000,,0.0010689822146698303,0.0058394267794669484,0.014982314243710116
30.2,520,30,199000000,,0.006647892345475704,0.010132389975917522,0.012031136032095031
30.21,521,30,209000000,,0.012923001284109977,0.013973946060137583,0.007994320639168386
30.219,522,30,219000000,,0.01179914196488772,0.004067244128231414,0.004975516024448951
30.233,523,30,228000000,,0.003937448653917097,0.004003547981062703,0.010238432107869594
30.24,524,30,240000000,,-0.0003652065664024075,0.006174271776726593,0.014129330451840392
30.249,525,30,248000000,,0.0020224290855520655,0.011118528871417042,0.013973259579389045
30.26,526,30,258000000,,0.014212358568332058,0.007947101943148464,0.006481929481309866
30.27,527,30,269000000,,0.014535255494344293,0.00749412703264306,0.004741953334456626
30.28,528,30,278000000,,0.007064104731442248,0.006376860134808833,0.007850595321593769
30.289,529,30,288000000,,0.0029834645518018823,0.008919779168352498,0.010794461309295351
30.299,530,30,298000000,,0.0015350354077486176,0.0038768383955627398,0.013852317323015121
30.309,531,30,309000000,,0.011258611151962649,0.010622486797678323,0.00951421344324119
30.319,532,30,319000000,,0.015874824455729103,0.015370720865990735,0.007381803675558684
30.33,533,30,329000000,,0.009470471366134721,0.00020769878617303995,0.005442243146660402
30.339,534,30,338000000,,0.0015676256296592943,0.0034130644572202573,0.010189569370274763
30.363,535,30,359000000,,-0.0008370298998949104,0.008632782538801408,0.012767823332152326
30.363,536,30,360000000,,0.007217243322011733,0.01211436336171109,0.011521610971530307
30.371,537,30,367000000,,0.01612635990064335,0.010642243659884395,0.00597479203189659
30.379,538,30,379000000,,0.01626527326261383,0.009176004173820425,0.004329581733853765
30.39,539,30,390000000,,0.004454281867335539,0.00503765677948379,0.008480316073629146
30.405,540,30,403000000,,-0.0007963439089606747,0.007424187277987352,0.012548958846671624
30.41,541,30,409000000,,0.005715276858984037,0.00988474331428128,0.011569889506090818
30.419,542,30,418000000,,0.013992656044997494,0.01541361999103762,0.00908963591943119
30.429,543,30,428000000,,0.017225905727266823,0.0053005514042697,0.004371350682871877
30.439,544,30,438000000,,0.01471982249027925,0.006430729420398871,0.004506177825209826
30.45,545,30,448000000,,0.016808154057520577,0.012763308831939019,0.0045626757704218535
30.458,546,30,458000000,,-0.00474465539321452,0.0010055586056669074,0.01188629926147287
30.469,547,30,468000000,,0.004228478972806165,0.00038604520149334264,0.012111853425295962
30.479,548,30,479000000,,0.015197862483933499,0.011661044969526592,0.005702668586383801
30.497,549,30,489000000,,0.009365541068437622,0.009868809521177118,0.0059733837926398995
30.51,550,30,499000000,,0.0014567599132501944,0.01064115741417498,0.009612587671764728
30.511,551,30,499000000,,0.00400612343495175,0.018256376546950257,0.00958845485319131
30.518,552,30,518000000,,0.006157018755109085,-0.0004251933894047202,0.012011541523352222
30.53,553,30,529000000,,0.017481066113716262,0.0070348242643781455,0.006970658738402529
30.538,554,30,538000000,,0.01342246194600861,0.007486191088300764,0.004713828603992828
30.552,555,30,551000000,,0.0041256967632693695,0.012211295666041339,0.007129155540015966
30.56,556,30,559000000,,-0.0031717466650939487,0.006672415462712558,0.010822738856775873
30.569,557,30,569000000,,0.008072480231015802,0.012999233632636227,0.010293580268331546
30.58,558,30,580000000,,0.01785551031639472,0.010064053114284755,0.00687692251139847
30.601,559,30,601000000,,0.018850514438845972,0.004828666058255601,0.0036850623130519258
30.603,560,30,603000000,,0.0036100663777807523,0.0046336723537651345,0.004732516523137429
30.611,561,30,611000000,,-0.0012611464762329239,0.007603880358102895,0.007429440576002704
30.619,562,30,619000000,,0.0024747412539937817,0.013287212801921286,0.009987981126267493
30.63,563,30,630000000,,0.011185574757647811,0.0176589161633949,0.009241067234808461
30.651,564,30,651000000,,0.022643040463060166,0.004086228655363558,0.0037756466596058063
30.652,565,30,652000000,,0.017389111593277315,0.0016751092624611693,0.0006212065146401213
30.659,566,30,659000000,,0.009026856586387763,0.005752120148305911,0.0041893944480692665
30.674,567,30,673000000,,0.0016722136236458835,0.010758981425216696,0.00947228910497749
30.679,568,30,679000000,,0.008949436984909206,0.011974907493683021,0.009499988917375227
30.694,569,30,692000000,,0.018341199503718313,-0.00011223227988189834,0.003943002631143767
30.699,570,30,698000000,,0.018856061566008386,0.00856068741118833,0.0032008196356352863
30.709,571,30,709000000,,0.00448803285084276,0.007633557569939179,0.005147569601640456
30.718,572,30,718000000,,-0.0009749738065492313,0.013830679090434405,0.008961587510428339
30.729,573,30,728000000,,0.0071833343603711864,0.01445650056308655,0.009226802477666987
30.739,574,30,738000000,,0.01964077912173148,0.008209182769172766,0.006445213340166833
30.748,575,30,748000000,,0.019484468976031264,0.0016510286603242646,0.003012248295529138
30.76,576,30,758000000,,0.012677338618752997,0.005170868123485649,0.0028711327394258124
30.771,577,30,770000000,,-0.0014169030973949712,0.009522623975778875,0.0059241642694200245
30.78,578,30,778000000,,-0.0012754732489130027,0.01534985222094774,0.010025525937971529
30.789,579,30,789000000,,0.013893515650172755,0.013300760068246811,0.008343096319537545
30.799,580,30,798000000,,0.022318350437388924,0.004545934220791897,0.004362204517219279
30.814,581,30,813000000,,0.0189902336469842,0.004297914488084256,0.0024150620694936356
30.82,582,30,819000000,,-0.0002645501830612243,0.0058715612425428235,0.004250206170857942
30.83,583,30,828000000,,-0.00410370249608657,0.016913783912795462,0.007424832190624966
30.84,584,30,838000000,,0.006681602396079402,0.015762643163938484,0.009160374711850073
30.849,585,30,849000000,,0.02259143337088397,0.006311677389787568,0.005631219105804766
30.86,586,30,853000000,,0.020395206461226452,0.0014195992989320437,0.001997882545781895
30.869,587,30,869000000,,0.0059868451641817205,0.006682698526391719,0.0027504716643280726
30.879,588,30,879000000,,-0.0015194676627420128,0.015721912309259546,0.006139247910286301
30.891,589,30,891000000,,0.006256591128210441,0.01802953896157214,0.0088538837749953
30.906,590,30,898000000,,0.019440876106300777,0.011616157285713679,0.007108694701861918
30.91,591,30,909000000,,0.023966473908146366,-0.0012399175078,0.0028964005683056876
30.923000000000002,592,30,920000000,,0.013863047430835405,0.000904584452539158,0.0011758130891212776
30.929,593,30,929000000,,-0.0009804201726025703,0.012380082573212025,0.003908760557788199
30.94,594,30,939000000,,-0.00013548784528983043,0.02027619926332574,0.007690961475062104
30.948,595,30,948000000,,0.015225262797878253,0.014528317252069763,0.00791083866644694
30.962,596,30,962000000,,0.0233679782660659,0.005771965890632695,0.005061382107443688
30.97,597,30,968000000,,0.0204601164281999,-0.003941123596005205,0.0005595876067480653
30.982,598,30,981000000,,0.012557937449923335,0.007820105508703401,0.0007303978880781846
30.993,599,30,993000000,,-0.006980877844697613,0.01386640915935899,0.00570587834442003
31.0,600,30,999000000,,-0.0008744195174616365,0.01811566516574778,0.009655199165595905
31.011,601,31,11000000,,0.019528964862130915,0.009256241530349027,0.006499233798790375
31.019,602,31,19000000,,0.02570590417280487,0.003535439168298104,0.002222064786700258
31.03,603,31,30000000,,0.011344578115550208,0.003789040241145833,0.0008403064390660134
31.04,604,31,39000000,,-0.00025635070192841494,0.015804194144015557,0.004088898577245337
31.051,605,31,50000000,,0.001963121813049055,0.02172660928245688,0.0073694281828636755
31.06,606,31,59000000,,0.01734357950357212,0.013915476635587735,0.007762612116306484
31.069,607,31,69000000,,0.024142435566093287,0.001168121201920667,0.00397587571696075
31.079,608,31,79000000,,0.016737737607182217,-0.0020778018747105737,2.4649123654095495e-06
31.09,609,31,90000000,,0.0028429732265249307,0.010846315440301471,0.0014819210048578543
31.102,610,31,100000000,,-0.00483630087281472,0.02366034174321705,0.006177399505895383
31.11,611,31,109000000,,0.008450160132493823,0.021525269638616302,0.008306304634708142
31.12,612,31,119000000,,0.022691686936911825,0.008377100379935979,0.0058630360168689995
31.137,613,31,132000000,,0.023640940544957925,-0.005605104747683389,0.0006882111679074598
31.14,614,31,139000000,,0.013295225702592296,0.0019138164851505643,-0.0010178322562315115
31.15,615,31,149000000,,-0.002911124497331404,0.01811603110214107,0.002862307807335606
31.16,616,31,159000000,,0.0008180080749296123,0.024636449367947427,0.006713750077475253
31.177,617,31,176000000,,0.015637582583672417,0.018866023043026918,0.007329774623420712
31.183,618,31,182000000,,0.03184130437357534,-0.0012383427293801777,0.003296695392429907
31.192,619,31,192000000,,0.028507952049382987,-0.006659581726660554,-0.001546629802680076
31.2,620,31,200000000,,0.00657915495927586,0.004875348490918421,-0.0009677643423053467
31.211,621,31,211000000,,-0.00461259656181281,0.022607735389248523,0.004319865748095488
31.222,622,31,222000000,,0.0033575145545204693,0.02402676773247072,0.00841481247951777
31.23,623,31,229000000,,0.02356170407209367,0.006991205971433677,0.0060406153680759595
31.239,624,31,238000000,,0.026951295092160276,-0.0014222726216255414,0.0011932550306629677
31.25,625,31,249000000,,0.012755244842298546,-0.0018002559281914687,-0.001674644316730865
31.261,626,31,260000000,,0.0002828921205013579,0.01847042440072262,0.0012791391075100888
31.269,627,31,268000000,,0.00030250264328123564,0.025910960919441568,0.0070958323675351116
31.278,628,31,278000000,,0.01648819786897006,0.015519452192579771,0.007441623560158039
31.29,629,31,289000000,,0.02919918079308672,0.0031075077575083796,0.0034643185838533104
31.3,630,31,300000000,,0.028317802450910583,-0.0010250245543281487,-0.00024404324544376882
31.309,631,31,309000000,,0.01037706025705025,-0.0033336460656335117,-0.0029673274671645385
31.323,632,31,323000000,,-0.006426676438705698,0.020061252824155863,0.002927694781742334
31.33,633,31,329000000,,-0.0029233920842996375,0.02829167745337876,0.008530780725334254
31.341,634,31,340000000,,0.021092032490654503,0.012170201197544249,0.006365653270371238
31.349,635,31,348000000,,0.03215081624869573,0.00017802089818425883,0.0007760411003092911
31.359,636,31,358000000,,0.017967172967786986,-0.003280428613991025,-0.0027230608276833587
31.371,637,31,368000000,,0.0009537307505249754,0.015582471562247388,0.00019161861148772955
31.379,638,31,378000000,,-0.0012142528682826635,0.02804973301721638,0.005257890196436681
31.392,639,31,391000000,,0.01934061924720358,0.01020097653904142,0.007694639354437173
31.4,640,31,400000000,,0.03507429780571393,0.005691700413271979,0.004793141304580488
31.412,641,31,408000000,,0.02811028126152354,-0.006745344762436397,-0.001243706001305198
31.429,642,31,428000000,,0.009963476815403874,0.0007930485285717014,-0.0033220413303162175
31.43,643,31,430000000,,-0.01060213209693244,0.0189930764271593,0.001047894923585686
31.44,644,31,439000000,,-0.0049222278721517115,0.03002352446376262,0.006476772147984863
31.452,645,31,449000000,,0.019517117452658175,0.01602474113286895,0.006787632525463247
31.459,646,31,458000000,,0.03145423971201352,0.008947843099119496,0.0030855893545163257
31.469,647,31,468000000,,0.022961386059580147,-0.011309912944693157,-0.00387711553419047
31.48,648,31,479000000,,0.00448227761715187,0.003706592174379757,-0.003824001263810278
31.489,649,31,488000000,,-0.004225750308029914,0.029574944108119276,0.003585050392055141
31.499,650,31,499000000,,0.0008843020146209889,0.043187006821807226,0.005518617498106857
31.51,651,31,510000000,,0.022721373514374928,0.013640352415028544,0.007258471520764959
31.52,652,31,520000000,,0.03503180746896055,-0.019287982397553985,-0.0009736526718055576
31.528,653,31,528000000,,0.01947800330642584,-0.010883834847968525,-0.005590368169617592
31.54,654,31,538000000,,0.0015970244427174723,0.016414290224530892,-0.003925638130879645
31.55,655,31,549000000,,-0.008606887412237151,0.028687083559544448,0.004400107048907385
31.566,656,31,560000000,,0.015554011761895208,0.027868351096285014,0.008972291344498933
31.57,657,31,570000000,,0.034183642347222834,0.004775024949852997,0.006118785015892662
31.583,658,31,580000000,,0.03512775697942443,-0.006660885141735495,-0.002032145449421736
31.591,659,31,590000000,,0.018040280000109238,-0.00539242213190788,-0.006674219674757506
31.599,660,31,599000000,,-0.00673263346890764,0.012864447549633833,-0.002686399307940887
31.615,661,31,614000000,,-0.0053518663633548465,0.03022549635476106,0.0056056706757384766
31.626,662,31,626000000,,0.02008314057592251,0.024022238141040007,0.009874581004845548
31.639,663,31,638000000,,0.03723222071306148,0.0056198557734325845,0.004894605198041635
31.643,664,31,642000000,,0.035197304919842146,-0.011681756959179742,-0.007388806047229149
31.649,665,31,648000000,,0.02810768888172522,-0.006294561820285786,-0.01241488300085894
31.661,666,31,661000000,,8.603875288028077e-06,0.016041255804869398,-0.0005880742712135066
31.671,667,31,671000000,,-0.0031088980158193637,0.02774447263753959,0.0088596206412168
31.68,668,31,679000000,,0.01707667918052694,0.015932975100974443,0.008371830222688188
31.69,669,31,689000000,,0.02954983451668739,-0.004278205196468236,4.906682513276025e-05
31.699,670,31,699000000,,0.022739287294787164,0.0038663374353879454,-0.007214747233141804
31.71,671,31,709000000,,0.003782168654476917,-0.001775296240635424,-0.005876195116306749
31.721,672,31,718000000,,-0.001687837561744964,0.028647952856663057,0.0029231100949059633
31.729,673,31,729000000,,0.016609634409613477,0.04164672090802973,0.008937780401815445
31.739,674,31,739000000,,0.02468397299166745,-0.011376461663402579,0.005029980611920816
31.749,675,31,748000000,,0.025057021766090877,-0.010189880597814326,-0.0031015398639924387
31.763,676,31,763000000,,0.01133899501947162,0.0022029572541891057,-0.007738715191443471
31.77,677,31,770000000,,-0.0035681841387824884,0.022925562190172458,-0.004520371904799762
31.789,678,31,789000000,,0.0015904248001191268,0.036090693630012105,0.0032869303979759304
31.79,679,31,790000000,,0.01778671076630535,0.032027913904159114,0.01204460619242909
31.8,680,31,799000000,,0.03322566771475716,0.006775903220207722,0.007139749617903516
31.811,681,31,811000000,,0.029460838278031018,-0.015971454189605494,-0.004537553973511216
31.825,682,31,825000000,,0.013326423879016978,-0.008170854032964853,-0.008840459189443404
31.829,683,31,829000000,,-0.005307187809836861,0.019222202234423717,-0.00646810170881841
31.839,684,31,838000000,,-0.0017397659233034457,0.03560971826018931,0.0063028868550100235
31.85,685,31,849000000,,0.01702806949736366,0.034383692396191656,0.008511480321903754
31.865,686,31,862000000,,0.03367117501759998,0.006244742672414637,0.005110511196901959
31.869,687,31,869000000,,0.042516269785109306,0.0023738248443343577,1.499831758556159e-05
31.879,688,31,878000000,,0.041366840551617455,-0.019865356358967454,-0.009259431125847664
31.891,689,31,891000000,,0.03977444663758401,-0.007987503926113566,-0.012482143476283885
31.9,690,31,900000000,,-0.01510176863076734,-0.004455877569865421,-0.007832972516975348
31.911,691,31,909000000,,-0.02746548627927262,0.005604540673122802,0.01632123097971068
31.92,692,31,920000000,,0.01381580458575504,0.024727397268603922,0.007505377199403104
31.93,693,31,928000000,,0.02938604891275295,0.011898823741777784,-0.0061831308626219186
31.941,694,31,940000000,,0.02490827367177527,0.013264930223215827,-0.009400525151365684
31.951,695,31,951000000,,0.0072694808783515955,0.017805141143602866,-0.004158253015185348
31.961,696,31,961000000,,0.0032877481697537623,0.02981336409778694,0.007140446162599347
31.97,697,31,970000000,,0.01598361020393887,0.018778927730157036,0.013355333603088724
31.98,698,31,979000000,,0.03374402086319823,0.007327313534374184,0.0056551820856548295
31.989,699,31,989000000,,0.024952344117667183,-0.02422646104679159,-0.008461245162882762
32.0,700,31,999000000,,0.00817017783438694,0.0010518903355693533,-0.011154724825813658
32.009,701,32,9000000,,-0.004504875637095369,0.031077142001443618,-0.0033772681059229216
32.021,702,32,20000000,,0.003793354065456564,0.04622631305634362,0.006605333210755013
32.035,703,32,29000000,,0.026595933798031178,0.015484251616007194,0.012118329825280298
32.039,704,32,39000000,,0.042937721637035284,-0.010154151961197637,0.002566028138235111
32.05,705,32,49000000,,0.025597960164522118,-0.018895505380943846,-0.009015907707018385
32.069,706,32,69000000,,0.011303014689168757,-0.002452727028998793,-0.011674665681825656
32.078,707,32,70000000,,-0.01925389663879531,0.031065892910006596,-0.0018842275710902537
32.08,708,32,80000000,,-0.011101177620518758,0.05360062315060097,-0.002221347769476606
32.091,709,32,90000000,,-0.01093718293163377,0.05688381669914122,0.006067781258581255
32.102,710,32,102000000,,0.026169202830339185,0.024751396145486854,0.014871699654763567
32.111,711,32,109000000,,0.05081785926640616,0.014104943523383635,0.011654171602793612
32.122,712,32,121000000,,0.06995202887688685,-0.039508968944683455,-0.010098785190497093
32.13,713,32,129000000,,-0.0076017809373647586,-0.025208005458254273,-0.01579777683043675
32.141,714,32,140000000,,-0.01636908427984658,0.03458428582301194,0.0050253475183902755
32.15,715,32,150000000,,0.00833594126722735,0.03363614174477271,0.010010668567721613
32.159,716,32,159000000,,0.021637612906655734,0.05758209473657622,0.009448045098192038
32.169,717,32,169000000,,0.04421309244144255,-0.025140560431070214,-0.008860345435958004
32.181,718,32,178000000,,0.02521916334897775,-0.020139125406035283,-0.017523138354178576
32.189,719,32,189000000,,-0.004522446125804898,0.018319684392522982,-0.008846967149684505
32.2,720,32,199000000,,-0.009236725193575206,0.046894770288085745,-0.0018475117374948946
32.212,721,32,212000000,,0.01811818799161174,0.012882183086809914,0.01694158331805723
32.219,722,32,219000000,,0.04330899591884879,0.0020663449087655987,0.009574040616337293
32.229,723,32,229000000,,0.03556773669308819,-0.016064803948496763,-0.007183970856164207
32.242,724,32,242000000,,0.010021731969932085,-0.007878359302003883,-0.016264579086683793
32.251,725,32,251000000,,-0.0074055076779681265,0.018329575343679384,-0.010730843132661153
32.261,726,32,260000000,,-0.005860890688370028,0.04303061329749746,0.0027610629393957807
32.271,727,32,269000000,,0.0189251339740195,0.030191940738871118,0.01590993998980453
32.281,728,32,280000000,,0.035062125304947754,0.030008525050240605,0.012875379322505131
32.289,729,32,289000000,,0.03698382562590173,-0.0344522706143586,-0.008701652274475653
32.299,730,32,300000000,,0.020550596980545788,-0.01951298503294356,-0.018607393985508713
32.309,731,32,309000000,,-0.006437539483917728,0.015582660330217865,-0.014419157107876616
32.319,732,32,318000000,,-0.004668292897249767,0.04546095055911477,-0.010578973634971615
32.33,733,32,329000000,,-0.00526843178333627,0.04983731593395848,0.0006090484419614115
32.339,734,32,338000000,,0.009483079781066066,0.0464302163693153,0.014844558581084057
32.358,735,32,358000000,,0.029494788830731086,0.03799182289112683,0.022858099637773164
32.36,736,32,360000000,,0.06178412366103164,-0.03782425291283956,0.005723211077003364
32.37,737,32,370000000,,0.06390817498464565,-0.05580027687352421,-0.022942462716975073
32.384,738,32,380000000,,0.00823877465991815,-0.006443438180580031,-0.02676903698777059
32.388,739,32,388000000,,-0.04809734361039143,0.03146515908169015,0.002578650619504815
32.4,740,32,400000000,,-0.037042734068662785,0.06323507205667912,0.002210192259827178
32.41,741,32,409000000,,0.05143108939066052,-0.03226650446174596,0.011306164832143185
32.42,742,32,420000000,,0.06436242629150485,0.002872545294056549,-0.006198351016822646
32.431,743,32,431000000,,0.026759763346557976,0.006888351791056234,-0.01609071544498916
32.439,744,32,438000000,,-0.0016176020013989201,0.017121358002648263,-0.01680026482228556
32.448,745,32,448000000,,-0.019629496763060937,0.017380909508258317,0.0035787073451149032
32.462,746,32,461000000,,0.0181010093990454,0.007290637743794449,0.022529888128976536
32.469,747,32,468000000,,0.04277638370427332,0.023560135107675108,0.009862898407251566
32.478,748,32,478000000,,0.03845028524057917,-0.004246163935709096,-0.00586737949186651
32.488,749,32,487000000,,0.016471585987663705,-0.015196038833988101,-0.020150649248506104
32.503,750,32,503000000,,0.005073365179454956,0.007619805803761306,-0.02256131505217792
32.509,751,32,508000000,,-0.02130465272060049,0.0301047207605347,0.004817538829233369
32.519,752,32,518000000,,0.0034118308443095036,0.04448245150665549,0.016160870520495703
32.529,753,32,528000000,,0.036981862380540576,0.01269153086225836,0.013711368119447905
32.539,754,32,538000000,,0.04664625778478938,-0.014166421841268364,-0.004024241505071741
32.55,755,32,548000000,,0.02175107122871458,-0.02208615889859703,-0.021845145018093124
32.561,756,32,559000000,,-0.00015345275703350196,0.006724041669725708,-0.02153557209028443
