Time,header.seq,header.stamp.secs,header.stamp.nsecs,header.frame_id,torques.x,torques.y,torques.z
223.621,90,223,621000000,,-0.0008433876379686336,-0.0034556105521441234,0.01586742702845769
223.631,91,223,630000000,,-0.003511475018038623,-0.001676892043153089,0.014094649871150491
223.641,92,223,640000000,,-0.0025999318800853707,-0.00025971140268495605,0.013107444587736624
223.651,93,223,650000000,,0.0006649838336668394,-0.00043378069869160624,0.012802158601760063
223.661,94,223,660000000,,0.0042370084606011505,-0.0019591525206522496,0.01276690625592616
223.671,95,223,670000000,,0.0043309288574382146,-0.002857972535781064,0.012640724070977539
223.681,96,223,680000000,,0.0007660845312163799,-0.0017305276041309618,0.012000218282241354
223.691,97,223,690000000,,-0.003433979972574531,0.00044734180473813396,0.011066443956532881
223.701,98,223,700000000,,-0.004744964117938418,0.0016949712181108729,0.01071847947580667
223.711,99,223,710000000,,-0.0031549047119186556,0.001410744981215207,0.010987033632165619
223.721,100,223,720000000,,0.0012825089174904125,-0.0011334661503973338,0.011701858537683092
223.731,101,223,730000000,,0.004112520140664289,-0.0033663438460967378,0.012407039937315907
223.741,102,223,740000000,,0.00376827778345137,-0.0037845113626336943,0.012540836321102842
223.751,103,223,750000000,,0.0010853544409397365,-0.002245529063977351,0.012272907375392765
223.761,104,223,761000000,,-0.00268561635980973,0.0007620659549633648,0.011409184931026908
223.771,105,223,771000000,,-0.004457300615961136,0.002881559013616746,0.011192520681980525
223.781,106,223,780000000,,-0.0025509179093539036,0.0019270399984871464,0.011477071804584113
223.791,107,223,790000000,,0.000578488958327626,-0.000934711745321748,0.012228930136234103
223.8,108,223,800000000,,0.003678167487703182,-0.00448987399962635,0.01277713179963491
223.811,109,223,810000000,,0.0033174752345569583,-0.004868753885586747,0.012765657170136028
223.821,110,223,820000000,,0.0004952421265688351,-0.0022238327401140354,0.01232516349065832
223.831,111,223,830000000,,-0.0024507768364784633,0.0015687657250415341,0.011941269480107894
223.841,112,223,840000000,,-0.003422325812988819,0.0036728860567198205,0.011795734047664003
223.85,113,223,850000000,,-0.001892247353015573,0.002273856337548313,0.012298225304502045
223.86,114,223,860000000,,0.0005420824538570828,-0.0012014263838367096,0.012822882831043908
223.871,115,223,870000000,,0.0028783732175080923,-0.005440228864056115,0.013035007570476341
223.881,116,223,881000000,,0.002458778292557007,-0.005627607882396764,0.012896161541169314
223.891,117,223,890000000,,0.0001588807238730172,-0.002444628542608664,0.012583810564320091
223.901,118,223,900000000,,-0.0019408956304351702,0.0023132487914428587,0.012413820551605812
223.911,119,223,910000000,,-0.002428969276502343,0.004368834169402916,0.012628590843128753
223.921,120,223,920000000,,-0.0011407410552936384,0.002561011447335349,0.013055763611874405
223.931,121,223,930000000,,0.000825296825775156,-0.0022582477443507344,0.013292269708058892
223.941,122,223,940000000,,0.00179711798554383,-0.006094385365675868,0.013163511275061514
223.951,123,223,950000000,,0.0013800491502815662,-0.006320987420680458,0.013110400080830123
223.961,124,223,961000000,,-8.098598619755106e-05,-0.002647476964439484,0.012929367902273876
223.971,125,223,970000000,,-0.0014076993107042673,0.003217674216544845,0.013060713110581667
223.981,126,223,980000000,,-0.0014169327237588025,0.005585766288526405,0.013419594076419192
223.991,127,223,990000000,,-0.00026404125298348525,0.0025495434859383326,0.013749520240715268
224.001,128,224,0,,0.0004915189299747869,-0.0022873331309383213,0.013665586333454235
224.011,129,224,10000000,,0.0007334467066756609,-0.007139427296271946,0.013183622619572693
224.021,130,224,20000000,,6.951056918438943e-05,-0.0067394010866426105,0.01284272821418217
224.031,131,224,30000000,,-0.0005149578493231291,-0.0017293109716573212,0.013181860989418974
224.041,132,224,40000000,,-0.00040047484389762745,0.0036144579747387244,0.013831922518797016
224.051,133,224,50000000,,0.0001956277684366837,0.0052501709731589494,0.014415068113768045
224.06,134,224,60000000,,0.00048098950801499804,0.0019872753090215485,0.01442867187013443
224.07,135,224,70000000,,2.176418087830801e-05,-0.00361646179740242,0.01375516134531414
224.081,136,224,81000000,,-0.000720593709387621,-0.007023617378317686,0.01312890868200682
224.091,137,224,90000000,,-0.001218509057087118,-0.006170800510712062,0.012870564757073034
224.101,138,224,100000000,,-0.0005654588188335496,-0.000990273591717912,0.013678194236181837
224.111,139,224,110000000,,0.0006297750810129972,0.003649520553905085,0.014657202393441742
224.12,140,224,120000000,,0.001649093142378034,0.005308028598139596,0.015367130710120486
224.131,141,224,130000000,,0.0012096783784843659,0.0017869272174616466,0.015068366430275123
224.141,142,224,140000000,,-0.0008642092849051122,-0.004780515595396384,0.013663741447778922
224.15,143,224,150000000,,-0.0024229825247722046,-0.007484987477588459,0.012788351766858604
224.161,144,224,160000000,,-0.002213429010592304,-0.005229956036873546,0.013063149363426396
224.171,145,224,170000000,,-0.00044587729882946195,-0.0005492949395370071,0.014234703329336467
224.181,146,224,181000000,,0.0023503157193424944,0.0046276045457657195,0.01577863371578342
224.191,147,224,190000000,,0.002991947134820195,0.004313196469077835,0.016140341417698253
224.2,148,224,200000000,,0.0010444458374528948,-0.00016512616489074063,0.01528463782735796
224.211,149,224,210000000,,-0.0017726063958919058,-0.004599640867255674,0.013730763194740375
224.221,150,224,220000000,,-0.004004816895354437,-0.006957498654856594,0.012628293380849046
224.231,151,224,230000000,,-0.003180424102070541,-0.00460309631745214,0.013337803612899287
224.241,152,224,240000000,,0.0008516641373971787,0.0012358339039180207,0.015193098567324441
224.251,153,224,250000000,,0.003670190081725137,0.0040067597142767995,0.0166662917299062
224.261,154,224,260000000,,0.004055453028305643,0.0031305719448681667,0.016874705922688325
224.271,155,224,270000000,,0.0004075046003405098,-0.001616078456012673,0.015005769605901248
224.281,156,224,280000000,,-0.003784817432241631,-0.005256742712273608,0.01317619026169865
224.291,157,224,290000000,,-0.005245114512546583,-0.005499278985867557,0.012672589000946996
224.301,158,224,300000000,,-0.0030248318349696234,-0.0028302779269330476,0.01402051488825163
224.311,159,224,311000000,,0.0018812991574162692,0.001329815590043048,0.01618029889312226
224.321,160,224,320000000,,0.005457874841624453,0.003300263921448848,0.017517022173123023
224.331,161,224,330000000,,0.004144658751214943,0.0010764100647895811,0.01695032777250887
224.341,162,224,340000000,,-0.00028562164452501106,-0.0021468316609917597,0.015157413512220462
224.351,163,224,350000000,,-0.005369730553220384,-0.00463294750644191,0.013150569318496058
224.361,164,224,360000000,,-0.0064145057155982075,-0.004145898482484391,0.012915814969015406
224.371,165,224,370000000,,-0.0021943133817863524,-0.0012468147616374382,0.014822051185414412
224.381,166,224,380000000,,0.004431871799726038,0.001626323363547121,0.017300175122804826
224.391,167,224,390000000,,0.006398800979820203,0.0014880602453729587,0.01815167172352181
224.401,168,224,400000000,,0.0030367220587205,-0.0009447284751324498,0.01664355400578331
224.411,169,224,410000000,,-0.002467951873878614,-0.0028617100312320724,0.014683982867143704
224.421,170,224,420000000,,-0.007301551250945206,-0.0033636459672629925,0.012861060661419586
224.431,171,224,430000000,,-0.00653934841274924,-0.002008841401420149,0.013478854544894567
224.441,172,224,440000000,,-0.00029146975538634157,-0.00018468670777054984,0.01594584760367823
224.45,173,224,450000000,,0.006300182762879019,0.0003535468414695483,0.018131488694807983
224.461,174,224,460000000,,0.006334028568521156,-0.0008709002180728176,0.018086821523047227
224.471,175,224,470000000,,0.0011656738376179753,-0.0020600786565325327,0.016185955810505793
224.481,176,224,481000000,,-0.004406117030492046,-0.0019867877508388627,0.014351175709130418
224.491,177,224,490000000,,-0.007562848920221002,-0.0009777960467260228,0.013252180108768592
224.501,178,224,500000000,,-0.004601360254469213,-0.00016373823938964295,0.014867143124016229
224.511,179,224,510000000,,0.002211427113076502,-0.0004659918970564581,0.017163170212914886
224.521,180,224,520000000,,0.006927531707648825,-0.0017634475114151737,0.018725036578120982
224.531,181,224,530000000,,0.005538007475529695,-0.0028235647467474883,0.01803190455165182
224.541,182,224,540000000,,-0.0014980387527789522,-0.0020705892947998276,0.01539229248626597
224.551,183,224,550000000,,-0.00623298545703673,-0.00016228974152935076,0.014208131560966761
224.561,184,224,560000000,,-0.006596586688311392,0.0013649910195483689,0.014240974782301212
224.571,185,224,570000000,,-0.001337168735888551,0.00018847333784686592,0.016465269665101315
224.581,186,224,580000000,,0.004578132883219753,-0.0024398256898040256,0.01820113751413308
224.591,187,224,590000000,,0.0062246509114912245,-0.004155124257301463,0.01848569069499591
224.601,188,224,600000000,,0.002221151867720941,-0.0035261204883428763,0.016834243255201012
224.611,189,224,611000000,,-0.0030439855565391966,-0.0006811575744099588,0.01545921625215482
224.621,190,224,620000000,,-0.006846928342200696,0.0028199205744750045,0.014406579337602197
224.631,191,224,630000000,,-0.0048261283632230565,0.0026329213136095713,0.01556693197464287
224.641,192,224,640000000,,0.0016272079415617343,-0.001382476067116411,0.017566274053801043
224.651,193,224,650000000,,0.0051530197077179095,-0.0048611341955153,0.018451728856585314
224.661,194,224,660000000,,0.004613608842647178,-0.006006716415843001,0.01796881214423536
224.671,195,224,670000000,,-0.000702220713905779,-0.002318416476238536,0.016295307132233157
224.681,196,224,680000000,,-0.004578889937062774,0.0022203643526596015,0.015518887396846913
224.691,197,224,690000000,,-0.005166619594048019,0.004801291715532943,0.01568270342913542
224.701,198,224,700000000,,-0.0013558698539961134,0.0014839020502415519,0.0170639325054639
224.711,199,224,710000000,,0.0029674211445647643,-0.004294440015870728,0.01796011479040851
224.721,200,224,721000000,,0.00413564858802194,-0.007345201333302006,0.018029008034359646
224.731,201,224,730000000,,0.0017392761336782149,-0.005763362969039406,0.01703044181040103
224.741,202,224,740000000,,-0.0023547677328807793,0.00029793102917601857,0.016250819244818984
224.751,203,224,750000000,,-0.004434908840669209,0.006044682708604076,0.016311826735567546
224.761,204,224,760000000,,-0.0027553185275757328,0.005101694792647804,0.017255230455101342
224.771,205,224,770000000,,0.0007353382420008873,-0.0011398427022301346,0.01790257745096855
224.781,206,224,780000000,,0.0028779033300697174,-0.007633088289958552,0.01776199241368801
224.791,207,224,791000000,,0.001965277760923034,-0.008700447638033623,0.017020764694300763
224.801,208,224,800000000,,-0.0011629203351374378,-0.002199105973102521,0.016641975209019114
224.811,209,224,811000000,,-0.0025430609092099215,0.0042398322466647535,0.017125888757407743
224.821,210,224,820000000,,-0.0019771384788350747,0.007027573999297189,0.017818608380759715
224.831,211,224,830000000,,0.00011862644536690052,0.0016974701595972564,0.018063049113295426
224.841,212,224,840000000,,0.0010560236668544273,-0.0052254104907944665,0.017770175948968635
224.851,213,224,850000000,,0.0006255148120576653,-0.00959944269316016,0.016865743126186696
224.861,214,224,860000000,,-0.0007628707296081585,-0.00644457075851765,0.016520606992463237
224.871,215,224,870000000,,-0.0014903331327539165,0.0018000923077836034,0.017311933020327016
224.881,216,224,880000000,,-0.0005337010373079839,0.007839200065302693,0.0185258156816765
224.891,217,224,890000000,,0.0006319966945056422,0.0047631405111893295,0.018820298117184147
224.901,218,224,900000000,,0.0004913858129902001,-0.002294612035536669,0.018053677213286285
224.91,219,224,910000000,,-0.0009984012945798973,-0.009485497320725067,0.01641356896241843
224.921,220,224,920000000,,-0.0019866811098124167,-0.008556346764980263,0.016200980603492312
224.931,221,224,930000000,,-0.001438858386155763,-0.0002491617384353176,0.017387230664039376
224.941,222,224,940000000,,0.0007464942054824758,0.006319677608650795,0.019021315571353066
224.951,223,224,950000000,,0.002191702888857455,0.006571512907216258,0.0197602251785585
224.961,224,224,961000000,,0.001293262482999511,0.000721871346603103,0.019020641817180377
224.971,225,224,970000000,,-0.001961306231078502,-0.007797281731601514,0.01643844799131321
224.981,226,224,980000000,,-0.0038241021172656857,-0.008936078459172466,0.015641281300070618
224.991,227,224,990000000,,-0.002462786987100323,-0.003127821557713261,0.01691189263188506
225.001,228,225,0,,0.0011754228408972114,0.004123091851606631,0.019169306373611153
225.011,229,225,11000000,,0.003719064468659289,0.006345297669616024,0.02046450357736282
225.021,230,225,21000000,,0.0023943735628356006,0.0019748627180418534,0.019578239661037184
225.031,231,225,31000000,,-0.001825688719568419,-0.005100779362508982,0.017072621435873802
225.041,232,225,41000000,,-0.005400006667405021,-0.008705177061639816,0.015233569685938565
225.051,233,225,50000000,,-0.004430035495337284,-0.004690987750770097,0.016215364635865807
225.061,234,225,60000000,,0.0005130296659446856,0.001975481015304764,0.01892010304430739
225.071,235,225,70000000,,0.004541713953730019,0.005236781283662036,0.020922373492422725
225.081,236,225,80000000,,0.004526385123335251,0.002821092352126505,0.02054892050540546
225.091,237,225,90000000,,-0.0007172709612833893,-0.002988456373945761,0.017867408226281002
225.101,238,225,100000000,,-0.006095454804611361,-0.006539295988501487,0.01537323066253652
225.111,239,225,110000000,,-0.006599843086620889,-0.005227457368773553,0.015537705878415386
225.121,240,225,120000000,,-0.0015673098078982462,-0.00018112313216673973,0.018166662977552407
225.131,241,225,130000000,,0.005220673965525786,0.004286497623349287,0.02129358229490072
225.14,242,225,140000000,,0.00687130300746866,0.0032433700298972624,0.021594826642569426
225.151,243,225,150000000,,0.0009380181295268575,-0.002029967958649667,0.01878883842298809
225.161,244,225,160000000,,-0.0054601274458069135,-0.004751598830714632,0.01610455394625131
225.171,245,225,171000000,,-0.008318043341981756,-0.004229210131892961,0.015129360678911786
225.181,246,225,180000000,,-0.002908491440609976,-0.00017582124093216674,0.017897217001806475
225.191,247,225,190000000,,0.005379539773823568,0.002523222217112749,0.02118431862651792
225.201,248,225,200000000,,0.007610837382496079,0.001668842626826767,0.022006875097403095
225.211,249,225,210000000,,0.002488312967243336,-0.0017443026422505965,0.019503807638636673
225.221,250,225,220000000,,-0.005336653377048441,-0.0032244157769245082,0.016328828074079704
225.231,251,225,230000000,,-0.008715554946136099,-0.0023014523431772876,0.015339984552010678
225.241,252,225,241000000,,-0.005333442883169771,-0.0001912420885007123,0.017290259504419234
225.251,253,225,250000000,,0.0031365802094669463,0.0009803945238658217,0.02040482774474543
225.261,254,225,260000000,,0.008414634788260765,-0.0002458631240627603,0.02203342525958938
225.271,255,225,270000000,,0.004956032779041154,-0.0019902408470733454,0.020619056393037384
225.281,256,225,280000000,,-0.003594296094848469,-0.0023341966977654836,0.017334567643912297
225.291,257,225,290000000,,-0.009276470317396441,-0.0005030133105312522,0.015397437350212092
225.3,258,225,300000000,,-0.006571654711798066,0.0011382226444033102,0.017083520200294394
225.311,259,225,311000000,,0.001957745418732645,0.0004987282931422461,0.02000814864336608
225.321,260,225,320000000,,0.008264758511849575,-0.002171355641762785,0.02181623522593326
225.331,261,225,330000000,,0.004968610536121364,-0.0034615947582024133,0.020360059162884362
225.341,262,225,340000000,,-0.002233029912624136,-0.001877013023880426,0.01795037241742094
225.351,263,225,350000000,,-0.008381331669691816,0.0015204182646200515,0.016164265182707582
225.361,264,225,361000000,,-0.009154164075621297,0.0016561671218644778,0.01719955442109891
225.371,265,225,370000000,,-0.006091399952870131,0.002396893051178086,0.019003828713027044
225.381,266,225,380000000,,-0.0012233145084659266,0.001328810760885639,0.0211558794579806
225.391,267,225,391000000,,0.01294666432728516,-0.003584657956641206,0.021261855253581638
225.401,268,225,400000000,,0.0018010056302933716,-0.004219892379042896,0.018190749321347642
225.411,269,225,410000000,,-0.0075004293915880765,0.0017067651707873737,0.017060893065632174
225.421,270,225,420000000,,-0.006829511586311016,0.004229294205533149,0.018088532999626455
225.43,271,225,430000000,,0.00017929369602468154,0.000993267231575781,0.01985804995163595
225.441,272,225,440000000,,0.0064187810952292205,-0.005384961236240896,0.020899114613468897
225.451,273,225,450000000,,0.0045087243407747595,-0.006576519105957651,0.01991559415294826
225.461,274,225,460000000,,-0.0010534903915083115,-0.0022653015136082965,0.018671098012961115
225.471,275,225,470000000,,-0.006051202594029864,0.0045358474300499305,0.017775971632976263
225.481,276,225,481000000,,-0.004802140244043877,0.006395919896748703,0.01859669280382399
225.491,277,225,490000000,,0.00013931336700016898,0.0013276493174622667,0.019952070419450404
225.501,278,225,500000000,,0.0048906349992994145,-0.006827275139761927,0.020111877343386392
225.511,279,225,510000000,,0.003644180896797041,-0.008117855890717264,0.01941524022340218
225.521,280,225,520000000,,-0.0012884286105512457,-0.002328033547617974,0.018644523401314034
225.531,281,225,530000000,,-0.004798907821817647,0.005805843503738216,0.018420806564794782
225.541,282,225,541000000,,-0.0035812630640082977,0.007960133113014278,0.019518117334179675
225.551,283,225,550000000,,0.0006424219874988237,0.0015293902796903644,0.020004900517771932
225.561,284,225,560000000,,0.0033779341376125446,-0.0071605480744687915,0.019703333311582433
225.571,285,225,570000000,,0.002044062855636778,-0.009301157339397523,0.018758275629500207
225.581,286,225,580000000,,-0.0015388497130353123,-0.0024104929414322717,0.018564375298689262
225.591,287,225,590000000,,-0.003298572494020605,0.006781855863201815,0.0192223860953608
225.601,288,225,600000000,,-0.001335405609904598,0.008424869548318299,0.020358613346963848
225.611,289,225,610000000,,0.000974445454693777,0.0014888087151043714,0.020171550253023238
225.62,290,225,620000000,,0.0017236854956304993,-0.007792894968579066,0.01900673307622871
225.631,291,225,630000000,,2.4006283428306026e-05,-0.00958151374462992,0.017995029555676768
225.641,292,225,640000000,,-0.002124557856259224,-0.0008052788895120265,0.018559290172372456
225.651,293,225,650000000,,-0.001473596788318731,0.007153482439367306,0.020057849788223392
225.661,294,225,660000000,,0.0007874752419905734,0.00810508838728616,0.021148484444562816
225.671,295,225,670000000,,0.0014822619211669863,0.0009209454738562364,0.020402522225239403
225.681,296,225,680000000,,-0.00021079334823965448,-0.008915360033257866,0.017828890153355537
225.694,297,225,692000000,,-0.002234167828802938,-0.008172712351125697,0.017360712661569556
225.701,298,225,700000000,,-0.002086354088923082,-0.009343421632483579,0.018697494021925123
225.712,299,225,710000000,,-0.0005436534728768022,0.013637203210830307,0.02133617479700056
225.721,300,225,721000000,,0.002094599814468121,0.011771460246529553,0.02209689119743071
225.731,301,225,731000000,,0.0020346819766208436,0.0006742116060163564,0.020125934375417497
225.741,302,225,740000000,,-0.0017262460051449186,-0.0095360308680263,0.01709321576889015
225.751,303,225,750000000,,-0.003807364134318001,-0.007468852296256316,0.01702407727309567
225.761,304,225,760000000,,-0.0018590544761901066,0.0005968332352994429,0.019297405292582236
225.771,305,225,770000000,,0.002428754717643148,0.008148470180465966,0.0219476892023133
225.781,306,225,780000000,,0.0042685623129154,0.006904019024640353,0.022149079312023263
225.791,307,225,790000000,,0.0011291330705566886,-0.0013643435460264828,0.019591750595867093
225.801,308,225,800000000,,-0.004329502959195407,-0.008716661791508812,0.01631742655256709
225.811,309,225,810000000,,-0.005071338494093686,-0.005175812013596749,0.016934763630403745
225.821,310,225,820000000,,-0.0009427177484640489,0.0021472263077824847,0.01969400719707072
225.831,311,225,830000000,,0.0050549637229158,0.0077839189420286295,0.022747367741930306
225.84,312,225,840000000,,0.00492856756217318,0.004048161690899904,0.021934742255408098
225.851,313,225,850000000,,-0.000825982724977223,-0.003300738678148236,0.018557361265717307
225.861,314,225,860000000,,-0.0062231928727882364,-0.006409916480278266,0.01606333352602555
225.871,315,225,870000000,,-0.005610080495318088,-0.0031769593850151647,0.01720469584546341
225.881,316,225,880000000,,0.0015931905298051173,0.004175142803102761,0.020944466540897943
225.89,317,225,890000000,,0.006475471225297737,0.006098495084567537,0.022935881827398516
225.901,318,225,900000000,,0.0053626043011083075,0.0022937992838162062,0.02170616116485865
225.911,319,225,910000000,,-0.0019089438833530573,-0.003426118864457159,0.0180401836278195
225.921,320,225,920000000,,-0.008081776065798327,-0.004814878716627535,0.015616176893140609
225.931,321,225,930000000,,-0.005060286226651081,-0.00048772654313867587,0.01778215937404994
225.941,322,225,940000000,,0.0034370378656196714,0.004087048744188287,0.021456409096157113
225.95,323,225,950000000,,0.007850534060740976,0.0038163086463396307,0.02279314727592224
225.961,324,225,960000000,,0.004367497839791866,0.00028976512172950906,0.0210718793083588
225.971,325,225,970000000,,-0.004308932654439915,-0.003288419836642695,0.017250548110399902
225.981,326,225,980000000,,-0.00884644531924265,-0.0020199322405724004,0.01578139368415802
225.991,327,225,990000000,,-0.003977714226996727,0.001335662818651888,0.018454851582232656
226.001,328,226,1000000,,0.005211982034293875,0.003541152646407916,0.02187758219252315
226.011,329,226,10000000,,0.008767036137210367,0.0019051875953826204,0.02252445386401657
226.021,330,226,21000000,,0.002818566020267078,-0.0012745408969560635,0.019999200017836685
226.031,331,226,30000000,,-0.006293604496523981,-0.0018270681495827696,0.016784472981583864
226.041,332,226,40000000,,-0.008315181461708331,0.0009677864214155912,0.016857498809619294
226.051,333,226,50000000,,-0.0015553843166853708,0.002672567835987895,0.019295479391293793
226.061,334,226,60000000,,0.007222476084508222,0.0019119744322142079,0.021977732423317162
226.071,335,226,70000000,,0.007591904729875167,-0.0009627031424683653,0.02157642902108519
226.081,336,226,81000000,,0.00026428095465038856,-0.0015173984165266865,0.019217196494977697
226.09,337,226,90000000,,-0.008214672340950954,0.0010848419761638277,0.01661315350062339
226.101,338,226,100000000,,-0.0068048089582636246,0.003287809052225246,0.017635998287831474
226.111,339,226,110000000,,0.0017763307708488253,0.0027062815469722115,0.0204029089602226
226.121,340,226,120000000,,0.008485697809949202,-0.0005299817813833744,0.02179034184005127
226.131,341,226,130000000,,0.005304726371676511,-0.0026838598311265203,0.02032703297801852
226.14,342,226,140000000,,-0.002487794165330807,-0.0004296373900672086,0.018345735205449614
226.151,343,226,150000000,,-0.00803742834053248,0.004172696181650539,0.017363828682794794
226.161,344,226,160000000,,-0.004103957227823954,0.004778391741936404,0.018711379103741807
226.171,345,226,170000000,,0.005332069178869357,0.0005661153344701372,0.020716343825817413
226.181,346,226,180000000,,0.0077194674003305454,-0.003447612427973555,0.020844188224116544
226.191,347,226,190000000,,0.0027978882738424553,-0.002832208838634824,0.01959370448419257
226.201,348,226,200000000,,-0.00490070526306883,0.0023391571226947135,0.018192977375057033
226.211,349,226,210000000,,-0.006466633888441001,0.006795649958184898,0.018267822536013417
226.221,350,226,220000000,,5.686255979906927e-05,0.004058627481467993,0.019554133165743327
226.231,351,226,230000000,,0.006241793464236503,-0.0022462327718925403,0.020056309558888822
226.241,352,226,240000000,,0.005836816342298567,-0.004892698778275987,0.01975204182356725
226.251,353,226,250000000,,-0.0010752981267262154,-0.0005729612440959023,0.018705168317502834
226.26,354,226,260000000,,-0.0051742037403511455,0.005636629829683742,0.01880255012091609
226.27,355,226,270000000,,-0.0031975592163178183,0.007691160921724142,0.019302587262711442
226.281,356,226,280000000,,0.0028576894663564167,0.0016016532424788117,0.01955645564321111
226.291,357,226,290000000,,0.00577270586759462,-0.005034322610724251,0.01906054941628925
226.301,358,226,301000000,,0.0025160891386065603,-0.004481903959649694,0.01871881628242276
226.311,359,226,310000000,,-0.0021837719469406432,0.0020514570919628024,0.018963164162511082
226.321,360,226,320000000,,-0.004038955052099728,0.00911302421199958,0.01972506495360924
226.331,361,226,331000000,,-3.106435784015131e-05,0.006482655154078841,0.019760219941634495
226.341,362,226,340000000,,0.004406328377122095,-0.00201261870909789,0.018771315667987516
226.351,363,226,351000000,,0.004160366025365529,-0.006471268590419124,0.01815639018206449
226.361,364,226,360000000,,0.00026941915039245523,-0.002835015163764559,0.018368319146054333
226.371,365,226,370000000,,-0.003074903373826771,0.007033261790660141,0.019904160884490835
226.381,366,226,381000000,,-0.0011937564025302691,0.009805429121932772,0.02040649267075384
226.391,367,226,390000000,,0.002479735144374945,0.003184565856506345,0.01924138091131264
226.401,368,226,400000000,,0.0035309372673744265,-0.005246242907560168,0.0174646951620051
226.411,369,226,410000000,,0.0014937139847133849,-0.006163108875598731,0.01730710149561307
226.421,370,226,420000000,,-0.0015796623271704174,0.002430253440425,0.019309705412174166
226.431,371,226,430000000,,-0.001175580959222097,0.009323498593973292,0.02073339273684616
226.441,372,226,441000000,,0.0014766319179685592,0.00872573129524115,0.020541946371122367
226.451,373,226,450000000,,0.003174033450006017,-1.375076480614876e-05,0.018153170525431753
226.461,374,226,461000000,,0.0019088243470445933,-0.007022924745726251,0.016246527587944273
226.471,375,226,470000000,,-0.0006331849090214719,-0.003899885036997855,0.017386855514596046
226.481,376,226,481000000,,-0.0010638416431826613,0.005865110306061984,0.02038040158290474
226.491,377,226,490000000,,0.0015561585115940898,0.010888346770119475,0.02147506589029014
226.501,378,226,500000000,,0.003235244207105874,0.004493319612964895,0.019262736690952402
226.511,379,226,510000000,,0.0019117672858919995,-0.0036551814336852288,0.01652176912958245
226.521,380,226,520000000,,-0.0009738069653662837,-0.00592648431781686,0.015950226310234825
226.531,381,226,530000000,,-0.001074191432614148,0.0019544860002195627,0.019017310968707027
226.541,382,226,540000000,,0.0014490073994152099,0.008997842315433956,0.021317308469741388
226.551,383,226,550000000,,0.003956170558987299,0.009266328286225629,0.02115484344107009
226.561,384,226,561000000,,0.0030676179577833434,0.0008848578524450037,0.017836927174244017
226.571,385,226,571000000,,-0.0008318517507146545,-0.0062771056416828,0.014807642798171497
226.581,386,226,580000000,,-0.0021808786344621927,-0.0030169045964241305,0.01664560812596182
226.591,387,226,590000000,,0.00035005110688827404,0.00595044005801438,0.02042372348365952
226.601,388,226,600000000,,0.004310880622839287,0.010298956266405505,0.02202690413068802
226.611,389,226,610000000,,0.004594522931900453,0.004365791201842479,0.019041554728218456
226.621,390,226,620000000,,0.0007381901267616453,-0.002673000878748592,0.01584691078666154
226.631,391,226,630000000,,-0.002984912976608587,-0.004551293098130673,0.014837951340611836
226.641,392,226,640000000,,-0.0010835278643147057,0.002797608247698743,0.018790903026819957
226.651,393,226,650000000,,0.00361627513819171,0.008475632740219482,0.02140571238183672
226.661,394,226,660000000,,0.006287563806319633,0.007721731861954505,0.021100179479982436
226.671,395,226,670000000,,0.0030383066664313577,0.0007737583235505343,0.017068961553323984
226.681,396,226,680000000,,-0.0029950124863215013,-0.00422305642498391,0.014161620591319531
226.691,397,226,690000000,,-0.003396296686160396,-0.0008711875661224708,0.016231931900740546
226.701,398,226,700000000,,0.0017382946982764816,0.00625434167163402,0.020117901477646985
226.711,399,226,710000000,,0.007151518480175665,0.008597962360753041,0.021657990321871927
226.72,400,226,720000000,,0.00575130033111488,0.004026034414604542,0.019003909719474837
226.731,401,226,730000000,,-0.00126406599525375,-0.002362790331845154,0.01475937144195242
226.741,402,226,740000000,,-0.004412980058077648,-0.0017754523011055128,0.014896886442402993
226.751,403,226,750000000,,-0.0009675598241017452,0.003744084184055705,0.018120575520182883
226.761,404,226,760000000,,0.006450983088759571,0.00806084421414688,0.021354020615632456
226.771,405,226,770000000,,0.007580119893755774,0.005213369358492318,0.019933111556513748
226.78,406,226,780000000,,0.0016850788537943703,0.00011776524803478426,0.016271507624109005
226.791,407,226,790000000,,-0.0038113137909685938,-0.001079065377744924,0.014673288342708325
226.801,408,226,801000000,,-0.0034257308738313906,0.002192778459184871,0.01638292306756584
226.811,409,226,810000000,,0.00427680368577211,0.006742640155047396,0.020003746634175184
226.82,410,226,820000000,,0.008479131114931666,0.006222350590360028,0.020417069188253954
226.831,411,226,830000000,,0.005004468467752356,0.001745276794453934,0.017652071198756232
226.841,412,226,840000000,,-0.0016752046404073515,-0.00013820427777088838,0.015159565330227207
226.851,413,226,850000000,,-0.004728150940073264,0.002004218655923598,0.01535188790843332
226.861,414,226,860000000,,0.0012074752271240858,0.00549452639781928,0.018357004221008544
226.871,415,226,870000000,,0.007510337543724681,0.005957419101779042,0.019671345430297124
226.881,416,226,881000000,,0.007749360053551755,0.0028951760343757524,0.018748742909633586
226.891,417,226,890000000,,0.0006305387288103102,0.0007341318698046463,0.01594582414234558
226.901,418,226,900000000,,-0.004301827218150304,0.001956904557327857,0.015055466314050733
226.911,419,226,910000000,,-0.0021583633206999227,0.004920569568421845,0.016549726137423743
226.921,420,226,921000000,,0.006298450395320017,0.005982701452043871,0.018895808305039345
226.931,421,226,930000000,,0.009148754483949872,0.0033964102624579424,0.018777540325205386
226.94,422,226,940000000,,0.004612185121295281,0.0012938765953689297,0.0171989759864309
226.951,423,226,950000000,,-0.002795120356558186,0.0019801296854165284,0.015671754955986043
226.961,424,226,960000000,,-0.0036978269006763976,0.005174846677783174,0.015902259597365572
226.971,425,226,970000000,,0.0033479304205001003,0.006057936060795946,0.017405753759664626
226.981,426,226,980000000,,0.008970220096825967,0.0036715053023755884,0.018026527937000967
226.991,427,226,990000000,,0.006541773767844244,0.0012492822665542992,0.017373436298408988
227.0,428,227,0,,-0.0006574539593746597,0.0022421330844090764,0.016287758618089922
227.011,429,227,10000000,,-0.003723196623133496,0.0054930353121501714,0.015988524339534793
227.021,430,227,20000000,,0.0010245773346842513,0.006670188416133799,0.016506417498631805
227.031,431,227,30000000,,0.007162927429731372,0.0045058413277322285,0.016873746433049234
227.041,432,227,40000000,,0.008776988725802628,0.0013398002164530794,0.017039613970728267
227.051,433,227,50000000,,0.002263806465107937,0.0014718028804898366,0.01697978333027733
227.061,434,227,60000000,,-0.00265191115113264,0.004808962128917358,0.016572363160354132
227.071,435,227,71000000,,-0.0015771962116528358,0.007518243612076103,0.01611650833176106
227.081,436,227,81000000,,0.0050541810641481855,0.0058499647583585435,0.015845972403452778
227.091,437,227,90000000,,0.00920922325282797,0.001808689886667803,0.015963003975407706
227.101,438,227,100000000,,0.005068928452500708,0.0006356661726436841,0.016795947986016344
227.11,439,227,110000000,,-0.0011597209963709104,0.004426134986980202,0.017122394885543162
227.121,440,227,120000000,,-0.001736073988907515,0.008036140595734558,0.01652463582325135
227.131,441,227,130000000,,0.0036797687778956888,0.006758230361207215,0.015297831507858274
227.141,442,227,141000000,,0.008029480075248866,0.002616428176007067,0.01487384911053383
227.151,443,227,150000000,,0.007162277550598428,1.5645085030479948e-05,0.015812025107849324
227.161,444,227,160000000,,0.0014619214451878104,0.002755658431536685,0.017355631118082224
227.171,445,227,171000000,,-0.0020088574592274804,0.00788342380541014,0.01728453215122182
227.181,446,227,180000000,,0.0018869961524808914,0.008699108487243874,0.01537227040881614
227.191,447,227,190000000,,0.007206156990090402,0.0036523612013701114,0.013724746323093269
227.201,448,227,200000000,,0.008230810980972041,-0.0005992337301552134,0.014413275372246674
227.211,449,227,210000000,,0.003258789096109276,0.0018832749175744681,0.01699470021634942
227.221,450,227,220000000,,-0.0006945219267569885,0.0071478109867801915,0.017947545817365754
227.23,451,227,230000000,,0.0003860155521247329,0.009572888381832154,0.016328764164600638
227.241,452,227,240000000,,0.005939115228855796,0.005669520959332175,0.01306036141113466
227.251,453,227,250000000,,0.00785935456264176,0.00041077293833866914,0.012905587410566667
227.261,454,227,260000000,,0.004544828026720224,0.0006189917011553785,0.015890960093314557
227.271,455,227,270000000,,0.0007373528007447962,0.005320686482843698,0.018204635740195006
227.281,456,227,280000000,,0.0006013151832225881,0.010119487712347556,0.017221107820674916
227.291,457,227,290000000,,0.004577977518530849,0.007943375949206213,0.013387814062261109
227.301,458,227,300000000,,0.007394327859370535,0.0015014508553947601,0.011572035226421484
227.311,459,227,310000000,,0.005695750199937401,0.00017683045571093535,0.014193157520005474
227.321,460,227,320000000,,0.0018883981658652867,0.004299615054299448,0.01796720232233843
227.331,461,227,330000000,,0.001104658112305314,0.009584946824481645,0.018091886470273776
227.341,462,227,340000000,,0.004010335510806492,0.008978555993421115,0.014210205566096737
227.351,463,227,350000000,,0.006922239005042402,0.0036207727377819627,0.010740646197922685
227.361,464,227,360000000,,0.006255533220418975,3.105476189784514e-05,0.012171299788197816
227.37,465,227,370000000,,0.0029884365057990052,0.0025548059582823856,0.01683366337249793
227.38,466,227,380000000,,0.0015812458405164674,0.00799669618249377,0.01866433363410233
227.391,467,227,390000000,,0.0035863864637926844,0.010609685956675425,0.015531773211508537
227.401,468,227,400000000,,0.006494949901989827,0.00588665278642096,0.010729533323386251
227.411,469,227,410000000,,0.006674144149238398,0.0007804544857266207,0.010076673249622466
227.421,470,227,420000000,,0.0038722268193777396,0.0010963017044853915,0.01512807449449628
227.431,471,227,431000000,,0.002165136113696169,0.0063572032876540695,0.018583899796622227
227.441,472,227,441000000,,0.0033761064210787333,0.010985793528249918,0.016980888405834393
227.451,473,227,450000000,,0.006203966103053371,0.00803549018252124,0.011495546300902226
227.461,474,227,460000000,,0.0068260969198406,0.002434609187165782,0.009003567495363875
227.471,475,227,470000000,,0.004882430725179134,0.00011776000169539183,0.012102914430280897
227.481,476,227,480000000,,0.002628283903930786,0.004587758015842815,0.01769935999271938
227.491,477,227,490000000,,0.003213122264270971,0.01058074578583482,0.018354996182311324
227.501,478,227,500000000,,0.00574036717027678,0.010137591109471716,0.013568704032722798
227.511,479,227,510000000,,0.007186982945979537,0.004434561300901858,0.008578459661768605
227.521,480,227,520000000,,0.005585586956884744,0.0001970803487151714,0.009652220715203882
227.531,481,227,530000000,,0.0031562156958801005,0.002903718401044229,0.01574116351604395
227.541,482,227,540000000,,0.0031614608129876655,0.009485487081732916,0.01887165039100931
227.551,483,227,550000000,,0.005580963354958589,0.010917246626297575,0.015037233214775661
227.561,484,227,560000000,,0.007467754319856351,0.005929450814940562,0.00844950473308674
227.571,485,227,571000000,,0.006056259781483045,0.0014306020767829008,0.008258034945146512
227.581,486,227,580000000,,0.0033536773379207016,0.002375060986699596,0.014278120773585087
227.59,487,227,590000000,,0.003312557265507181,0.007996676959252706,0.01824287565956353
227.601,488,227,600000000,,0.005536940251596593,0.010900286529971773,0.016128749466367595
227.611,489,227,610000000,,0.007675973861539732,0.0084152910873804,0.010045990496872648
227.621,490,227,620000000,,0.0068208347278576635,0.0027949273293007178,0.006995553473454123
227.631,491,227,630000000,,0.0039100611461010395,0.00147989037071077,0.011582703697737135
227.641,492,227,640000000,,0.0031731637330436394,0.005826824483846432,0.016513013234947985
227.651,493,227,650000000,,0.00509016488723859,0.010651007393792416,0.017184180332305017
227.66,494,227,660000000,,0.0077540087481813074,0.010076685380243889,0.011724072860268525
227.671,495,227,670000000,,0.007673073698786772,0.004749679397801434,0.006764100306476933
227.681,496,227,680000000,,0.004662084244437588,0.001415889388106706,0.009228535511286332
227.691,497,227,690000000,,0.003261860401011858,0.004488998446739445,0.014665239358519655
227.701,498,227,700000000,,0.004878271166480623,0.01016461074120861,0.01724753241203834
227.71,499,227,710000000,,0.0076311284390211285,0.010755231907724084,0.013189960966108336
227.721,500,227,720000000,,0.008343045541394489,0.005933821304366125,0.007118943722271506
227.731,501,227,730000000,,0.005846380435315266,0.0024346778741875215,0.0072859578234701836
227.741,502,227,740000000,,0.003394360186707977,0.0036210296124053218,0.01262117385399558
227.751,503,227,750000000,,0.004083153152023891,0.008531109664908578,0.016695792205162804
227.761,504,227,760000000,,0.007576368520942576,0.01121063593523687,0.014031658164516621
227.771,505,227,770000000,,0.009012325624813222,0.007803933806268495,0.008377614214099213
227.78,506,227,780000000,,0.006989273676563048,0.003649391457838721,0.006632194683142752
227.791,507,227,790000000,,0.003954667979207211,0.003064317169563755,0.01045989081539304
227.801,508,227,800000000,,0.0038190512715164148,0.007788266621892575,0.01593776342823664
227.811,509,227,810000000,,0.006625917886472706,0.010819373530179687,0.014966298167619888
227.821,510,227,820000000,,0.009379040627216303,0.008598062873757802,0.00944655955496028
227.831,511,227,831000000,,0.008275380462543341,0.005435105884778262,0.00621185306713409
227.841,512,227,841000000,,0.004981128547100962,0.003107120566941719,0.008334506828686087
227.85,513,227,850000000,,0.0035616512764704783,0.006030791716598358,0.013487505571750867
227.861,514,227,860000000,,0.0057803332472958725,0.010359071159740534,0.015108281734095437
227.871,515,227,870000000,,0.009273651161391255,0.010720090621676453,0.011542589048080072
227.881,516,227,880000000,,0.009629290376528536,0.006639403583796945,0.007010096794886643
227.891,517,227,890000000,,0.00629690363124496,0.003288628433477082,0.006987173993268619
227.901,518,227,900000000,,0.003505497644744237,0.00539978945116593,0.01190734442630667
227.911,519,227,910000000,,0.004953808469929497,0.009444983910647305,0.014091638082859919
227.921,520,227,920000000,,0.00879180045855264,0.011217921956939506,0.012329764402816268
227.931,521,227,930000000,,0.010642589044646069,0.008328023115202473,0.00793528442215441
227.941,522,227,940000000,,0.007942259214603628,0.0041447558392426875,0.0063955661800599445
227.951,523,227,950000000,,0.004295521269618506,0.004274689970734127,0.009402038431327128
227.961,524,227,960000000,,0.003993798521623569,0.008387593240066488,0.01317890816883965
227.971,525,227,970000000,,0.008115011493573757,0.011561551807606128,0.012570193788258582
227.981,526,227,980000000,,0.010776537332221565,0.009536202978363939,0.009340663649140511
227.991,527,227,990000000,,0.009085718597068644,0.004779437447949124,0.006547208420109854
228.001,528,228,0,,0.0054543604425363965,0.004165486702193785,0.008070008884675597
228.011,529,228,10000000,,0.0038960041352116537,0.00807343949676153,0.011739857578477376
228.021,530,228,20000000,,0.006752709234855676,0.011160817367722838,0.012227575584306895
228.031,531,228,30000000,,0.011102906855401676,0.010293715842388097,0.009682311744943802
228.041,532,228,40000000,,0.010604536414981698,0.0060494354077548764,0.007203546875847195
228.051,533,228,51000000,,0.006453030882312997,0.004187720412283791,0.007495854120958734
228.061,534,228,60000000,,0.004042779601209664,0.006669845201142306,0.00961842943049735
228.071,535,228,70000000,,0.006039930561127741,0.011198458413610009,0.011586629085517757
228.081,536,228,80000000,,0.010060320694547799,0.01147343567637322,0.010480976996116931
228.091,537,228,90000000,,0.012004599389477157,0.007798711698119758,0.00805934625894706
228.101,538,228,100000000,,0.008439477972909505,0.0041097969642242445,0.0070710990028950765
228.111,539,228,111000000,,0.004771191261315865,0.00554861286708349,0.00831381574597119
228.121,540,228,120000000,,0.0046049034673816425,0.009995720923969366,0.01004885304198055
228.13,541,228,130000000,,0.00884305460707754,0.012252628459885832,0.01024268570259778
228.141,542,228,140000000,,0.012648580924835612,0.00906189781287404,0.008693093191653189
228.151,543,228,150000000,,0.0108645196566223,0.005238872868677016,0.007543465350698514
228.161,544,228,160000000,,0.005581335861455542,0.004907258954476699,0.007678586479620347
228.171,545,228,170000000,,0.004252312019827854,0.009293996602443028,0.008866009640707617
228.181,546,228,180000000,,0.007367691928411475,0.012398501064525808,0.009405673027704627
228.191,547,228,190000000,,0.012194472023083639,0.010968169742959716,0.009092294058093765
228.201,548,228,200000000,,0.012666440969177283,0.006310984593548356,0.00816543031201836
228.211,549,228,211000000,,0.008147469370242817,0.004138847571284566,0.007432452268075328
228.221,550,228,220000000,,0.004047254380655271,0.007106384167140571,0.007464319183930251
228.231,551,228,230000000,,0.00609469405450146,0.012343326844116558,0.008228282519792407
228.241,552,228,240000000,,0.01151150750859652,0.012023779049815494,0.008744437299131548
228.25,553,228,250000000,,0.013474967175246558,0.007856723227429035,0.008635053414034262
228.261,554,228,260000000,,0.010260775261981506,0.004224645062336717,0.007928145653368598
228.271,555,228,270000000,,0.005139104915224826,0.005740586330877534,0.006899290988608856
228.28,556,228,280000000,,0.0042796061993659405,0.011005250073602892,0.006724685604328493
228.291,557,228,291000000,,0.009663218003834477,0.012422410802467705,0.007838516405175106
228.301,558,228,300000000,,0.014271172599826862,0.010689378685657587,0.008893361463865638
228.31,559,228,310000000,,0.012083920423908635,0.004519851470425936,0.008484383957515792
228.321,560,228,320000000,,0.00652219311966744,0.0050544193880875925,0.006884089828154248
228.331,561,228,330000000,,0.004375660294922732,0.010411799398791475,0.0057312342514949126
228.341,562,228,340000000,,0.00852519271450967,0.01373021072607297,0.0064616420078847155
228.351,563,228,350000000,,0.013403659347147765,0.011481651617137451,0.008109018280814437
228.36,564,228,360000000,,0.014142407977791224,0.005454299467762455,0.009348461387036155
228.371,565,228,370000000,,0.009421359141695321,0.003927386607382333,0.007873820937513794
228.381,566,228,380000000,,0.0044084514911442085,0.007999972441493291,0.005382549654305971
228.391,567,228,390000000,,0.00619755026261161,0.013871355062901061,0.004703182462733406
228.401,568,228,400000000,,0.012540731785323087,0.013191704260223043,0.007085773318165596
228.411,569,228,410000000,,0.015300005556797478,0.008094887427004812,0.009153315017698093
228.421,570,228,420000000,,0.01173998694291975,0.003263566002449222,0.008923022409946598
228.431,571,228,430000000,,0.006108813527660953,0.0057901228452740035,0.00600807672652673
228.441,572,228,441000000,,0.00444496117137546,0.01220800573929296,0.0035049792856951343
228.451,573,228,450000000,,0.009737370429069619,0.015006737000407996,0.004801496089199215
228.461,574,228,460000000,,0.01594535915181632,0.01017429855956786,0.00891040424930082
228.471,575,228,470000000,,0.014759250110669715,0.0046407379719924455,0.009846733062317831
228.481,576,228,480000000,,0.00832150405353357,0.003920470198163169,0.007202917245811739
228.491,577,228,490000000,,0.0037778050452081545,0.01067946498146606,0.0027571449398095457
228.501,578,228,500000000,,0.008067567876019924,0.015386309702276068,0.0030284337624015365
228.511,579,228,510000000,,0.014286061600065979,0.013159679130370824,0.0065262854021904985
228.521,580,228,520000000,,0.0166320640986972,0.006343560936254699,0.010240811474497744
228.531,581,228,530000000,,0.011598091513366288,0.0026967176795876634,0.00906470227348305
228.541,582,228,540000000,,0.004350866826815406,0.007818686223012678,0.0035162225899624793
228.551,583,228,550000000,,0.00567362895432412,0.014845203006290959,0.0013339798983831117
228.561,584,228,560000000,,0.012139892988847815,0.015392795653787669,0.0040358931164891625
228.571,585,228,570000000,,0.017401859935336814,0.009289591943666619,0.0093198994469481
228.581,586,228,580000000,,0.01429994181719093,0.0025202184957349508,0.010578664791815838
228.591,587,228,590000000,,0.006606341213723535,0.004980295192551116,0.005505204886807832
228.601,588,228,600000000,,0.0041258031997840824,0.012195667155457836,0.001061843067036411
228.611,589,228,611000000,,0.009235787753391131,0.016882270645334273,0.0012213671304551078
228.621,590,228,620000000,,0.016646505173702166,0.012976970216513513,0.006922383719584653
228.631,591,228,630000000,,0.017746273334723714,0.004820803169559225,0.011250064929724033
228.641,592,228,641000000,,0.010004704563755268,0.0021797317025545907,0.008179604442217962
228.651,593,228,650000000,,0.003921181887463893,0.00952646903601953,0.0015783808694375054
228.661,594,228,660000000,,0.00627881477942206,0.01627465929761506,-0.0006314954418003352
228.671,595,228,670000000,,0.015239759907884787,0.01557072368867691,0.004396241700834045
228.681,596,228,680000000,,0.01877894900017807,0.008203436556337788,0.00990594783354037
228.691,597,228,690000000,,0.015029457140238612,0.0013774515293530545,0.011127986681852964
228.701,598,228,700000000,,0.006320549227077397,0.004474482623795365,0.004848137694261583
228.711,599,228,710000000,,0.003682212243691553,0.014865321332706474,-0.0019392608638802347
228.721,600,228,720000000,,0.0104639769929964,0.018078591418761825,-0.00021100473086583908
228.731,601,228,730000000,,0.0186622074614335,0.012522541254380924,0.007274058295702482
228.741,602,228,741000000,,0.018668171172006625,0.0034005843421491266,0.012091001257706702
228.751,603,228,750000000,,0.010335750357437898,0.0013542702419307388,0.008353775797003643
228.761,604,228,760000000,,0.0028609127146646852,0.010740283665026325,-0.0007652794104288721
228.771,605,228,770000000,,0.00747048589641283,0.01846422703305073,-0.0025776721073070153
228.781,606,228,780000000,,0.01693841745875047,0.01578564473319022,0.0038645706508242854
228.791,607,228,790000000,,0.0201121088969734,0.006111046492757323,0.011123546191976936
228.801,608,228,800000000,,0.01357082035388485,0.000571839030908369,0.010563663053623029
228.811,609,228,810000000,,0.005494301233418743,0.005406079395416377,0.0035890150457824127
228.821,610,228,820000000,,0.0036857706016789086,0.015940907866651102,-0.0036492207702627684
228.831,611,228,830000000,,0.011882500144601956,0.019814716485092525,-0.0019276581945002844
228.84,612,228,840000000,,0.021184926505103924,0.011613440923425951,0.008189801102151985
228.851,613,228,850000000,,0.01948618390523332,0.0024266735227549416,0.012213203943158812
228.861,614,228,861000000,,0.00835706066658469,-0.0008584467924085942,0.007308290534232544
228.871,615,228,870000000,,0.0032910127383280014,0.01222882934742238,-0.001001465285990405
228.881,616,228,880000000,,0.006929289220912485,0.019904507199992642,-0.004877954665691521
228.89,617,228,890000000,,0.018684672029302497,0.016988159266215525,0.002902066413923897
228.9,618,228,900000000,,0.02320908198807366,0.006207995757941831,0.01206533932359739
228.911,619,228,910000000,,0.016033887109110204,-0.0005717691621479806,0.01178549592080257
228.921,620,228,921000000,,0.004920908509216552,0.0040729191915695835,0.0032485136169886483
228.931,621,228,930000000,,0.00254299398329272,0.016381376888521787,-0.00535322915299386
228.94,622,228,940000000,,0.013195759270422014,0.02142965967626976,-0.003190447498775806
228.951,623,228,950000000,,0.021722725987034532,0.013733691154871833,0.005874120613929165
228.961,624,228,960000000,,0.021336658420003096,0.0016837592370728821,0.013043640984510933
228.971,625,228,970000000,,0.010778898247529544,-0.001057366067630728,0.00883957188265851
228.981,626,228,980000000,,0.001357127520540717,0.011074367216098007,-0.003106917112158025
228.991,627,228,990000000,,0.007110453870683519,0.02140100957317751,-0.006546508882894136
229.001,628,229,0,,0.01804328931402177,0.01937710636459307,-0.00016697693073283726
229.011,629,229,11000000,,0.024361348512066283,0.006293864497236758,0.01169928556425755
229.021,630,229,20000000,,0.016341813762466698,-0.002071974192630421,0.012268912860336333
229.031,631,229,30000000,,0.0054204318133973094,0.0027778621663328822,0.004084453055938317
229.04,632,229,40000000,,0.001927701579192296,0.01785203540488392,-0.007105287888600107
229.051,633,229,50000000,,0.01141730941293274,0.02291564752243449,-0.006034507153232884
229.06,634,229,60000000,,0.023611825231562952,0.016171675742516583,0.004376208455285244
229.07,635,229,70000000,,0.024413904303315366,0.0022444874836004304,0.013372945161023449
229.081,636,229,80000000,,0.011411089535967308,-0.0030777163462878,0.009700432834853981
229.091,637,229,90000000,,0.001868099405990392,0.007288202859769222,-0.0006727815684172984
229.101,638,229,100000000,,0.003314782745542623,0.01971638365461206,-0.00852006500417666
229.111,639,229,110000000,,0.01897789956237835,0.024773339575574795,-0.002366014096909036
229.121,640,229,120000000,,0.026386419363464086,0.008918308618212672,0.009463408318969198
229.13,641,229,130000000,,0.01961422437919287,-0.003115025939044412,0.013173193052120075
229.141,642,229,140000000,,0.007033786079424063,-0.0005078756709903307,0.006018227081150365
229.151,643,229,150000000,,-9.480245481905975e-05,0.01589336349101256,-0.007128768884432826
229.161,644,229,160000000,,0.008699154793821499,0.02443822296622933,-0.008793742328066463
229.171,645,229,170000000,,0.024422982346556495,0.018391522238025693,0.0020987101777164086
229.181,646,229,180000000,,0.026848442549759058,0.0047801196056570594,0.0115566043742877
229.191,647,229,190000000,,0.016359907158596157,-0.00481575734144638,0.012439643653403255
229.201,648,229,200000000,,0.002209299750197495,0.002844137169094924,0.0014687683388095616
229.21,649,229,210000000,,0.001007784065239035,0.021243339526466315,-0.010063546403816414
229.221,650,229,221000000,,0.013837190739323591,0.02554993454585223,-0.007434824469366453
229.231,651,229,230000000,,0.028229080827654747,0.013731145289165296,0.006462496888586779
229.241,652,229,240000000,,0.024735259832993364,-0.001658329678375866,0.013944950885846467
229.251,653,229,250000000,,0.009387465589476856,-0.0038084982545641168,0.008361416302891911
229.261,654,229,260000000,,-0.000301428609325265,0.009051457606230806,-0.0029210310224122953
229.271,655,229,270000000,,0.003180775678042199,0.024955779308857118,-0.011469787932530477
229.281,656,229,280000000,,0.021480338783938464,0.024488164083730005,-0.003937390119575939
229.291,657,229,290000000,,0.029886886954004335,0.008574912319479745,0.009331699897964939
229.301,658,229,301000000,,0.02256011180707023,-0.004210208140728524,0.01349282342130078
229.311,659,229,311000000,,0.004184615813788318,-0.0018742655280254202,0.004419598727529719
229.321,660,229,320000000,,-0.0017691338140668695,0.014197375982202533,-0.006795937923754442
229.331,661,229,330000000,,0.009753962729304577,0.028194654297889525,-0.011059153890774803
229.341,662,229,340000000,,0.024797134937471016,0.022242909486501823,-0.0017100708836126988
229.351,663,229,350000000,,0.030768803779841,0.0028575129107791877,0.012825718154073486
229.361,664,229,360000000,,0.017178918666035017,-0.00736243522282609,0.012529712831274187
229.371,665,229,370000000,,0.00043783484335000334,0.0023707863618354103,0.0007178176777648529
229.381,666,229,380000000,,-0.001161933837033476,0.019691880633004557,-0.009551057176101552
229.391,667,229,390000000,,0.015031468372845934,0.029060336537351197,-0.009724300099193395
229.401,668,229,400000000,,0.02905874587248664,0.018884837513617695,0.0015743726133296684
229.411,669,229,410000000,,0.030574312236366957,-7.746884425111067e-05,0.013454253845553883
229.421,670,229,420000000,,0.012897899000713735,-0.008825916499372187,0.010901074196361132
229.431,671,229,430000000,,-0.002582167402625157,0.005963343796414564,-0.0026626036090144824
229.441,672,229,441000000,,0.0011804588500767235,0.025440655253263438,-0.012005820635477876
229.451,673,229,450000000,,0.019771844790675414,0.028065043153557526,-0.007396984628655608
229.461,674,229,460000000,,0.032050410842208554,0.014792207741936418,0.004660322572405723
229.471,675,229,470000000,,0.02905941108387293,-0.004092630939267197,0.014454280968862719
229.48,676,229,480000000,,0.008339715092386674,-0.008311165329148563,0.00835307940130391
229.491,677,229,490000000,,-0.003991555350883458,0.007854446022441411,-0.004135769893100198
229.501,678,229,500000000,,0.0013645475620223842,0.02786050257215214,-0.01319994631816793
229.51,679,229,510000000,,0.02160706822631458,0.02959705832603006,-0.007424866440416535
229.521,680,229,520000000,,0.03565819372700689,0.012441639003532677,0.007290372060316913
229.53,681,229,530000000,,0.03004657194032423,-0.007679464877717894,0.015454621244042155
229.541,682,229,540000000,,0.005103684998742675,-0.008533638755310052,0.006168842377726904
229.55,683,229,550000000,,-0.0060456854679275885,0.010635169052815877,-0.006431356488772353
229.561,684,229,560000000,,0.0030888337635336313,0.030444198962678894,-0.01361145849485477
229.571,685,229,570000000,,0.027548219210405206,0.02795824987850554,-0.004048858575313918
229.581,686,229,580000000,,0.03663984169937185,0.009381478894487557,0.008461533401080358
229.591,687,229,590000000,,0.026322299216807094,-0.009819291751895763,0.014282097306645952
229.601,688,229,600000000,,0.003674027981343483,-0.008125157196051122,0.005059884696862671
229.611,689,229,610000000,,-0.00808840320247782,0.014246908416284216,-0.009309162619719567
229.621,690,229,620000000,,0.004609657330390787,0.032796078299132905,-0.014322394983696453
229.631,691,229,630000000,,0.030953382095016444,0.027211168261513596,-0.0027286900957212085
229.641,692,229,640000000,,0.038204008020880496,0.004346058866734906,0.010942273680580768
229.651,693,229,650000000,,0.022163056295489893,-0.012097652299432755,0.012903692903160343
229.661,694,229,660000000,,-0.000946502897752893,-0.004179101586552146,0.0015839808982181288
229.671,695,229,670000000,,-0.0069452567998362245,0.02005484939908376,-0.011457123307718312
229.681,696,229,680000000,,0.01072176364359273,0.0338275802379051,-0.013183878395721195
229.691,697,229,690000000,,0.031244125929526793,0.026055641530752238,-0.0031443533394820804
229.701,698,229,700000000,,0.039587905941499336,0.003828983770143849,0.011172533889143677
229.711,699,229,710000000,,0.024351100694296465,-0.013745891921722065,0.01382579224817123
229.721,700,229,720000000,,-0.0012215929841721887,-0.0089921616024369,0.002521122796494135
229.731,701,229,730000000,,-0.010947623517458541,0.017613763870723262,-0.011495660804116254
229.741,702,229,740000000,,0.009027643801329035,0.03712498212944631,-0.014026822114011996
229.75,703,229,750000000,,0.032391459311184694,0.028440049936143897,-0.003209179149636087
229.761,704,229,760000000,,0.0417415301260199,0.0010639515962052506,0.012525355993081477
229.771,705,229,770000000,,0.022054290608667416,-0.015278638340580577,0.012316461546508232
229.781,706,229,781000000,,-0.003953191740332215,-0.0050100380594759585,4.0849342898624345e-05
229.791,707,229,790000000,,-0.01088909133848016,0.021520076651391846,-0.01308648769794437
229.801,708,229,800000000,,0.007651208685887024,0.035832479028567135,-0.014118285539629523
229.811,709,229,810000000,,0.03703702731067573,0.026921489779741105,-0.0010523498788928987
229.82,710,229,820000000,,0.04237543093873018,0.0012562723776689023,0.011734708270482744
229.831,711,229,830000000,,0.022201075812451856,-0.016076667602550526,0.012043808367945467
229.841,712,229,840000000,,-0.004445225028120289,-0.006184755487688863,-7.529038064659193e-05
229.851,713,229,850000000,,-0.011190844065081536,0.018402342514227284,-0.011522400489065486
229.861,714,229,860000000,,0.0064281413634719045,0.03761989799508233,-0.014831754810358836
229.871,715,229,870000000,,0.034491021008702744,0.03132885902797183,-0.003793841109175295
229.881,716,229,880000000,,0.046224754740995716,0.005673954273911594,0.010578917248621476
229.891,717,229,890000000,,0.026705678420720202,-0.0185409953236988,0.013139575494388132
229.901,718,229,900000000,,-0.003401733014551548,-0.010647952432970472,0.0009312280367749629
229.911,719,229,910000000,,-0.01362238765607714,0.015313666596583682,-0.01084372921318375
229.921,720,229,920000000,,0.0025376366027398617,0.038135298754628184,-0.015186159692103313
229.931,721,229,930000000,,0.032755770189378655,0.03472723314189312,-0.005099259667771466
229.941,722,229,940000000,,0.04870231475546516,0.005965404506946583,0.010999956532937711
229.951,723,229,950000000,,0.03030495680559162,-0.0174538862414923,0.012784096449980811
229.961,724,229,961000000,,-0.001335503610475644,-0.013466377920992091,0.001880614201368769
229.971,725,229,970000000,,-0.01491379177282966,0.011573560553503212,-0.010125566910859949
229.981,726,229,980000000,,-0.0017701518196848176,0.037400368605166934,-0.015792317582866033
229.991,727,229,990000000,,0.03290671034575091,0.03678265182951202,-0.005458146533645016
230.001,728,230,0,,0.04903650962760016,0.010404565372096884,0.008604598576603168
230.011,729,230,10000000,,0.03720788962891463,-0.0137557469391819,0.012770099435993849
230.021,730,230,20000000,,0.00232544464563985,-0.018561588997956867,0.0034223185121360373
230.031,731,230,30000000,,-0.01603727031141245,0.004945213980581195,-0.008758162315423486
230.041,732,230,40000000,,-0.007996201552163964,0.03512039498587713,-0.0161569926660722
230.051,733,230,50000000,,0.02373088801555544,0.041885163917350116,-0.009434819940531004
230.061,734,230,60000000,,0.0498943951409356,0.020833221511134255,0.005309886536075167
230.071,735,230,70000000,,0.046063998320969426,-0.010465802380391954,0.013576395048778564
230.081,736,230,80000000,,0.014613919319332624,-0.024304448352721844,0.007431093281463894
230.091,737,230,90000000,,-0.016381794062264518,-0.005004933325121844,-0.006766311774836935
230.101,738,230,100000000,,-0.01681287430809092,0.029307271130561044,-0.016009727623258842
230.111,739,230,111000000,,0.014173553528010278,0.04522647802617979,-0.011987107016053525
230.121,740,230,120000000,,0.047322794636420834,0.02995147214537244,0.0019977252373376843
230.131,741,230,130000000,,0.052768558160506504,-0.0029703134394305324,0.012667146814288625
230.141,742,230,140000000,,0.02529448479407705,-0.025454906056434627,0.009645598608178286
