Time,header.seq,header.stamp.secs,header.stamp.nsecs,header.frame_id,position_controller_output.thrust.num,position_controller_output.orientation_set_point.w,position_controller_output.orientation_set_point.x,position_controller_output.orientation_set_point.y,position_controller_output.orientation_set_point.z,position_controller_output.euler_set_point.phi,position_controller_output.euler_set_point.theta,position_controller_output.euler_set_point.psi
94.141,1,94,141000000,,10.06587201681984,0.9999999999952731,1.5017728268875284e-06,-1.385455860989178e-06,2.2975909078717303e-06,3.0035392873553274e-06,-2.77091862288799e-06,4.595177654475623e-06
94.141,2,94,141000000,,10.06594883997581,0.9999999999553761,1.5349400715175298e-06,-1.6165399904664548e-06,9.180334613527813e-06,3.0698504621628786e-06,-3.233108163321206e-06,1.836066426477985e-05
94.151,3,94,151000000,,10.06613145486399,0.9999999997835645,1.6810108899767504e-06,-2.077543159475209e-06,2.0633198641418368e-05,3.361936046539805e-06,-4.15515568732629e-06,4.126639030122831e-05
94.162,4,94,161000000,,10.066648555096869,0.9999999993232644,1.8763010563140736e-06,-2.7160172825215632e-06,3.664114820459457e-05,3.752403074169248e-06,-5.432172061043952e-06,7.328228623413667e-05
94.171,5,94,171000000,,10.067365029401687,0.9999999983564597,2.074496602261374e-06,-3.4897416828085684e-06,5.7189148474272045e-05,4.148594047106192e-06,-6.979720631591138e-06,0.00011437828253382054
94.181,6,94,181000000,,10.068468637756286,0.9999999966039445,2.319452842024403e-06,-4.434803574031567e-06,8.226216502663094e-05,4.638176035406976e-06,-8.86998872448269e-06,0.00016452430967059555
94.191,7,94,191000000,,10.069747042865444,0.9999999937267636,2.57994144851605e-06,-5.520528107473034e-06,0.00011184516306210208,5.158647976267541e-06,-1.1041633253851273e-05,0.00022369029811477746
94.201,8,94,201000000,,10.071245863821087,0.999999989326287,2.8688730746930315e-06,-6.755906918072511e-06,0.00014592310802291934,5.735774402828111e-06,-1.3512650962086178e-05,0.00029184617833668175
94.211,9,94,211000000,,10.072818259458868,0.9999999829453342,3.170207312043143e-06,-8.127393397890266e-06,0.00018448096510506677,6.337415818076744e-06,-1.625595620508555e-05,0.000368961880806624
94.221,10,94,221000000,,10.074697471956993,0.9999999740682748,3.50675998028672e-06,-9.654996790203956e-06,0.00022750369986228013,7.009126685081281e-06,-1.9311588682606888e-05,0.0004550073359949203
94.231,11,94,231000000,,10.076665078511763,0.9999999621227832,3.783445958492935e-06,-1.1320998350649666e-05,0.0002749762765021774,7.560665620437981e-06,-2.2644076561382683e-05,0.0005499524743718857
94.241,12,94,241000000,,10.077158636403835,0.9999999464851231,3.976196375892602e-06,-1.2689168909660152e-05,0.00032688365776075616,7.944096564961936e-06,-2.5380935971157367e-05,0.0006537672264078361
94.251,13,94,251000000,,10.07765687552757,0.9999999264607129,4.0041772473039475e-06,-1.4560577367509152e-05,0.00038321081009174546,7.997194367859337e-06,-2.9124221485600017e-05,0.0007664215225730872
94.261,14,94,261000000,,10.078455345496517,0.9999999012984486,4.616110627054818e-06,-1.7223637054370306e-05,0.000443942711399925,9.216927732207174e-06,-3.445136929289204e-05,0.0008878852933379549
94.271,15,94,271000000,,10.079533728804954,0.9999998702162669,5.057931225575991e-06,-1.9884472776024084e-05,0.0005090643128781726,1.009561619549326e-05,-3.977409002574077e-05,0.001018128469172754
94.282,16,94,282000000,,10.080412417736909,0.9999998323785575,5.230861991345962e-06,-2.1980874095822896e-05,0.0005785605725641926,1.0436287705154966e-05,-4.396779357789776e-05,0.001157120980547801
94.291,17,94,291000000,,10.08134627507697,0.9999997868595664,5.345193415783775e-06,-2.4596930477438585e-05,0.0006524164635759677,1.0658289681322206e-05,-4.920082507389747e-05,0.001304832757933411
94.301,18,94,301000000,,10.082448974198904,0.999999732705533,5.262939776932988e-06,-2.756888759074882e-05,0.0007306169451696514,1.0485592163625649e-05,-5.514545085739002e-05,0.0014612337317998997
94.311,19,94,311000000,,10.083501608977562,0.9999996689338471,5.327524643409212e-06,-2.9929821926447057e-05,0.000813146985069455,1.060637108957254e-05,-5.9868288192358897e-05,0.0016262938326175836
94.321,20,94,321000000,,10.084686967366466,0.9999995944669636,5.476684174868055e-06,-3.24210412270034e-05,0.0008999915500857761,1.0895006604611304e-05,-6.485191414281867e-05,0.0017999829908567774
94.331,21,94,331000000,,10.085924519287001,0.999999508185406,5.928950152723519e-06,-3.527023408707463e-05,0.0009911356135032072,1.1787979332969015e-05,-7.055218632714186e-05,0.0019822711369877964
94.341,22,94,341000000,,10.087234924545893,0.9999994089289478,6.440103932400753e-06,-3.8453439507139334e-05,0.0010865641321929445,1.2796636033634578e-05,-7.69208288045842e-05,0.002173128201480957
94.351,23,94,351000000,,10.088612614907486,0.9999992954992857,6.857679818205807e-06,-4.1668032987828264e-05,0.001186262061865314,1.361649160820068e-05,-8.335227737265646e-05,0.002372524114806576
94.361,24,94,361000000,,10.090061787071859,0.9999991666339465,7.3127243168987816e-06,-4.49979311305059e-05,0.001290214370929522,1.4509322549922785e-05,-9.001465734708322e-05,0.002580428807434966
94.371,25,94,371000000,,10.09158712173928,0.999999021025532,7.79078126960831e-06,-4.8454924010789785e-05,0.0013984060217625553,1.5446028043400746e-05,-9.69315426519863e-05,0.0027968122098364447
94.381,26,94,381000000,,10.093184945881797,0.9999988573198171,8.279472056748737e-06,-5.203332261539968e-05,0.0015108219761998144,1.6401699106908104e-05,-0.00010409154412054833,0.0030216442524813284
94.391,27,94,391000000,,10.094862306400112,0.9999986741142287,8.76700226503448e-06,-5.575436478507013e-05,0.0016274471957840092,1.735250682154549e-05,-0.00011153711762006915,0.00325489486583993
94.401,28,94,401000000,,10.096618520132852,0.9999984699612574,9.28965117641942e-06,-5.9603587319449556e-05,0.0017482666440647538,1.837086813026435e-05,-0.00011923947410443583,0.0034965339803825677
94.411,29,94,411000000,,10.098455076215693,0.9999982433678059,9.83448892339672e-06,-6.357491733541284e-05,0.0018732652816577954,1.9430758083158844e-05,-0.00012718645687156174,0.003746531526579556
94.421,30,94,421000000,,10.10037323863343,0.9999979927947116,1.0395242357078589e-05,-6.767802229085084e-05,0.0020024280691272045,2.0519402429915348e-05,-0.0001353974047581901,0.004004857434901211
94.431,31,94,431000000,,10.102370745481352,0.9999977166611538,1.097175829759414e-05,-7.188111630142323e-05,0.0021357399664810373,2.163642797028318e-05,-0.0001438087704860376,0.004271481635817849
94.441,32,94,440000000,,10.104454218416887,0.9999974133378433,1.154747654716493e-05,-7.622331573681196e-05,0.002273185932680229,2.2748354083816673e-05,-0.000152498736859263,0.0045463740597997855
94.451,33,94,451000000,,10.106622307568612,0.9999970811566463,1.2134902452574396e-05,-8.06776911694187e-05,0.0024147509275144943,2.3880101319587474e-05,-0.0001614135176025774,0.004829504637317332
94.461,34,94,461000000,,10.108876643182228,0.9999967184042476,1.2734277667234124e-05,-8.525526140907484e-05,0.0025604199097754186,2.50318935862922e-05,-0.00017057517429486664,0.005120843298840811
94.471,35,94,471000000,,10.111218245277692,0.9999963233276351,1.333643658588561e-05,-8.994134748595486e-05,0.0027101778365058423,2.618526143825009e-05,-0.00017995432280314244,0.005420359974840536
94.481,36,94,481000000,,10.113648954977055,0.9999958941251392,1.4002341271222642e-05,-9.479134661326212e-05,0.0028640096714729764,2.7461601389150762e-05,-0.000189662121642437,0.005728024595786816
94.491,37,94,491000000,,10.116169912008216,0.999995428965371,1.4684009887809386e-05,-9.975428309551865e-05,0.0030219003667692375,2.876499110098417e-05,-0.0001995964027854813,0.006043807092149973
94.501,38,94,501000000,,10.118782561671198,0.9999949259736958,1.533790285757693e-05,-0.00010481940615116458,0.0031838348737705316,3.0008195368322887e-05,-0.00020973541682717137,0.006367677394400325
94.511,39,94,511000000,,10.121488622269124,0.9999943832389426,1.5991764120153165e-05,-0.00010994174667166908,0.0033497981495262336,3.124678403854154e-05,-0.00021998939844842041,0.006699605433008183
94.521,40,94,521000000,,10.124287775928599,0.9999937988005055,1.6661087666298203e-05,-0.00011517738130799829,0.0035197751509221556,3.2511172594957695e-05,-0.00023047062274517626,0.0070395611384438655
94.531,41,94,531000000,,10.127183117050915,0.9999931706632881,1.7277217491308303e-05,-0.00012055344484238455,0.0036937508238741286,3.3663611212186874e-05,-0.00024123288089701107,0.007387514441177684
94.541,42,94,541000000,,10.130176184094823,0.999992496798418,1.8050846961421924e-05,-0.00012602213489423816,0.003871710145998045,3.512558181211964e-05,-0.00025218215661711727,0.007743435271679955
94.551,43,94,551000000,,10.133267188094814,0.9999917751279125,1.8845657190538395e-05,-0.00013168099099954305,0.004053638055396536,3.662343150199334e-05,-0.0002635126058764751,0.008107293560421
94.561,44,94,561000000,,10.136455892789341,0.99999100357248,1.956209083945815e-05,-0.00013735338020552033,0.004239519486641406,3.7959206480270165e-05,-0.0002748701602234467,0.00847905923787113
94.571,45,94,571000000,,10.139747186557187,0.9999901799929847,2.0348655352001937e-05,-0.00014302422525093735,0.004429339409130325,3.9429907006768585e-05,-0.00028622590761442007,0.008858702234500663
94.581,46,94,581000000,,10.143142993078067,0.9999893022173688,2.1272239618040994e-05,-0.00014867380135868475,0.00462308278237548,4.116936335599398e-05,-0.0002975411127970456,0.00924619248077991
94.591,47,94,590000000,,10.146639999710828,0.999988368006227,2.2344538382536037e-05,-0.0001545032197455921,0.00482073456223036,4.31989209978913e-05,-0.0003092182842348196,0.009641499907179189
94.601,48,94,601000000,,10.150242755473279,0.9999873751092073,2.3511901571840627e-05,-0.00016054936023809712,0.0050222796906097935,4.541056425078055e-05,-0.0003213308388611744,0.010044594444168812
94.611,49,94,611000000,,10.153952729833431,0.9999863212592669,2.4645083142060353e-05,-0.00016675537092165657,0.005227703092616511,4.7545999586346305e-05,-0.00033376386038785135,0.010455446022219102
94.621,50,94,621000000,,10.157769975045394,0.9999852041772889,2.5838124544013417e-05,-0.00017292089651683746,0.005436989724172428,4.97951492237371e-05,-0.0003461176461657616,0.010874024571800376
94.631,51,94,631000000,,10.161697620906354,0.9999840215256306,2.7007049131325264e-05,-0.0001790447369178243,0.005650124514452222,5.198998844756644e-05,-0.00035838894616495884,0.011300300023382939
94.641,52,94,641000000,,10.16572501290564,0.9999827708372744,2.8305004744798112e-05,-0.00018561699523497293,0.00586709244559733,5.443097378965167e-05,-0.0003715597391275178,0.011734242307437118
94.651,53,94,651000000,,10.169867045670998,0.9999814498384323,2.9369138778413846e-05,-0.0001919723129571659,0.006087878375230934,5.6399783961436404e-05,-0.00038429510462818274,0.012175821354433222
94.661,54,94,661000000,,10.17412621299127,0.9999800560374538,3.14842318209964e-05,-0.00019821753429583258,0.006312467495595395,6.0464729114240956e-05,-0.0003968246589001433,0.012625007094841567
94.671,55,94,671000000,,10.178495156687182,0.9999785869745806,3.300492367814867e-05,-0.0002045900330677778,0.006540844434358515,6.333205608261937e-05,-0.0004096030759485957,0.013081769459132466
94.681,56,94,681000000,,10.182982792279722,0.9999770397852634,3.5121108547126526e-05,-0.00021263922852056468,0.0067729944166339635,6.736020185854986e-05,-0.00042574445556224644,0.013546078377776242
94.691,57,94,691000000,,10.187622795490217,0.999975412555054,3.710544308832248e-05,-0.0002195432019361311,0.007008902147847762,7.113155481424798e-05,-0.00043959575885723625,0.014017903781243204
94.701,58,94,701000000,,10.192302186197008,0.9999737022861369,3.779911027149906e-05,-0.00022758726479264144,0.007248552367225309,7.229688363870335e-05,-0.00045571055296928284,0.014497215600003673
94.711,59,94,711000000,,10.197155217983001,0.9999719065722806,3.993811727937138e-05,-0.00023547253899643654,0.007491930580846322,7.634571129135617e-05,-0.000471530292209143,0.014983983764527958
94.721,60,94,721000000,,10.202186224314051,0.9999700231655618,4.193918653690747e-05,-0.00024199239579451498,0.007739021323830976,8.013029953848658e-05,-0.00048461943874418534,0.015478178205286384
94.731,61,94,731000000,,10.207225813409547,0.9999680487144456,4.307084712419595e-05,-0.0002502799574255228,0.007989809451371349,8.213957398234601e-05,-0.0005012321980288698,0.01597976885274926
94.741,62,94,741000000,,10.212420048786877,0.9999659811694525,4.5453235265993265e-05,-0.00025744888537454925,0.008244280313587336,8.665842807384816e-05,-0.0005156297358032292,0.01648872563738691
94.751,63,94,751000000,,10.217821913402735,0.9999638178673743,4.8072269639749076e-05,-0.0002636724668727132,0.00850241859660304,9.1657366105103e-05,-0.0005281433389528033,0.017005018489669628
94.761,64,94,761000000,,10.223350556150452,0.9999615560823119,4.893461004579715e-05,-0.0002694597852918924,0.008764208707553855,9.314226772475103e-05,-0.0005397566248836324,0.01752861734006776
94.771,65,94,771000000,,10.228906615778353,0.9999591923390014,5.110237377959878e-05,-0.00027696644189545655,0.009029636474928375,9.719877936424403e-05,-0.0005548331792686741,0.01805949211905159
94.781,66,94,781000000,,10.234635190882035,0.9999567247857689,5.3450000390989946e-05,-0.00028307271702079196,0.00929868639389218,0.00010163098233526158,-0.0005671149939586169,0.01859761275709146
94.791,67,94,791000000,,10.240574022228186,0.9999541503116532,5.484118381339408e-05,-0.0002892366424108416,0.00957134311938392,0.00010414059010428247,-0.0005794966020106276,0.01914294918465767
94.801,68,94,801000000,,10.246592122669663,0.999951465998918,5.754239399945721e-05,-0.0002954030551960976,0.00984759221956755,0.00010926120417539967,-0.0005919107788341648,0.019695471332220542
94.811,69,94,810000000,,10.252739517172634,0.9999486691780934,6.094659519717037e-05,-0.0003011485162229048,0.0101274184293791,0.00011578724079466954,-0.0006035006160207113,0.020255149130250394
94.821,70,94,821000000,,10.25900082257605,0.9999457567703802,6.381073809337922e-05,-0.0003075001506625581,0.010410806345256448,0.00012121192786253972,-0.0006162956232102283,0.020821952509217544
94.831,71,94,831000000,,10.265413899421633,0.9999427259634202,6.747806553941867e-05,-0.0003139606956972733,0.010697741267988427,0.00012823108675939264,-0.0006293291951161363,0.021395851399592283
94.841,72,94,841000000,,10.271966919942239,0.9999395741182668,6.994314204075903e-05,-0.0003201826979077246,0.010988207459628594,0.00013284139126558568,-0.0006418638447555138,0.021976815731844956
94.851,73,94,851000000,,10.278637513710724,0.9999362976709287,7.283324706609638e-05,-0.0003278328371466216,0.011282190439133043,0.00013825990014012791,-0.0006572673913133965,0.022564815436445864
94.861,74,94,860000000,,10.285477679788977,0.9999328942354848,7.716013809600626e-05,-0.00033494932354530434,0.011579675345645354,0.00014655274514376761,-0.0006716407222236299,0.023159820443865334
94.871,75,94,871000000,,10.29250981938419,0.9999293609070359,8.120598297912253e-05,-0.000341817839476338,0.011880646539639099,0.00015427849632309914,-0.000685517000400994,0.023761800684573668
94.881,76,94,880000000,,10.299636309827905,0.9999256943339142,8.53365251498468e-05,-0.00034947348399615126,0.012185089117488987,0.00016214367777800986,-0.0007009747560059558,0.024370726089041197
94.891,77,94,891000000,,10.30691084197041,0.999921891884194,8.961720051659881e-05,-0.0003568641297454754,0.01249298793261591,0.00017030384730497134,-0.0007159117458849505,0.024986566587738217
94.901,78,94,901000000,,10.314330532362089,0.9999179508233687,9.363292925216724e-05,-0.00036338223851978924,0.012804327683200917,0.00017794481121830114,-0.0007291027246261774,0.025609292111135065
94.911,79,94,911000000,,10.321902440498672,0.9999138678125481,9.755904697033301e-05,-0.00036990142154728455,0.01311909338791172,0.00018539579754453967,-0.0007422989629222342,0.026238872589702047
94.921,80,94,921000000,,10.329617041890135,0.9999096397704642,0.00010179496610564943,-0.00037643645454348376,0.013437270090352605,0.00019345503557794728,-0.0007555406441072354,0.02687527795390947
94.931,81,94,931000000,,10.33749801096541,0.9999052639113506,0.00010606765718131184,-0.00038236676537509005,0.013758842526935527,0.00020159343002076774,-0.0007675798946449787,0.027518478134227663
94.941,82,94,941000000,,10.345529590561561,0.9999007365182339,0.00011035763965908468,-0.0003893959960899663,0.01408379573279181,0.00020972508864929357,-0.0007818232751321758,0.028168443061126924
94.951,83,94,951000000,,10.353710052243574,0.9998960549062544,0.00011530843373756968,-0.0003962771329843926,0.014412114740990568,0.00021917058411764003,-0.0007957956445915653,0.02882514266507758
94.961,84,94,961000000,,10.362058417672612,0.9998912162298882,0.00011968418522405743,-0.0004027625400502747,0.014743783922281168,0.00022746591972082943,-0.0008089667358120992,0.029488546876549948
94.971,85,94,971000000,,10.370574788024694,0.9998862171310263,0.00012350813181918297,-0.0004094911345722441,0.015078788219151753,0.00023463897876990395,-0.0008226138816946103,0.030158625626014356
94.981,86,94,981000000,,10.379227030017937,0.999881054814064,0.00012742464240075646,-0.0004154803838659527,0.015417112665016853,0.00024200804261673934,-0.000834791066042923,0.030835348843941093
94.991,87,94,991000000,,10.388052449906654,0.9998757259957197,0.00013113874403089418,-0.0004212076215217743,0.0157587420596198,0.0002489695810272528,-0.0008464438170852989,0.031518686460800506
95.001,88,95,1000000,,10.397028696691793,0.9998702272617934,0.00013526381432138853,-0.00042710973901203045,0.01610366158428316,0.0002567365575618567,-0.0008584652144470082,0.03220860840706287
95.011,89,95,11000000,,10.406178044826552,0.9998645554480541,0.00013943907759606718,-0.0004333016692489138,0.01645185597651354,0.00026458325281754856,-0.0008710741351986512,0.032905084613198556
95.021,90,95,21000000,,10.415485897252639,0.9998587073799825,0.00014367103338483453,-0.00043977762309517255,0.016803310111613443,0.0002725221378119934,-0.0008842593846170948,0.03360808500967781
95.031,91,95,31000000,,10.42495153692103,0.9998526800548789,0.00014768835575070574,-0.00044622047336238867,0.017158008698986205,0.00028002080350123274,-0.0008973776689999439,0.034317579526971
95.041,92,95,41000000,,10.434569104321067,0.9998464702718987,0.00015175286613072482,-0.0004525672250143364,0.017515936709175596,0.00028760498049830403,-0.0009103117979041337,0.03503353809554843
95.051,93,95,51000000,,10.444343782564232,0.99984007477299,0.0001559173949616534,-0.0004589255193939874,0.017877079042038658,0.00029537655429565633,-0.0009232790776137372,0.03575593064588041
95.061,94,95,61000000,,10.454278169950312,0.9998334903185951,0.00016006928552649764,-0.0004653951072029872,0.018241420519070004,0.00030310646671675984,-0.0009364751480020842,0.036484727108437275
95.071,95,95,71000000,,10.464367948491704,0.9998267137138832,0.00016412441515045018,-0.00047195101665892654,0.018608945953786794,0.00031062707247715287,-0.0009498469756092901,0.037219897413689286
95.081,96,95,81000000,,10.474609269468184,0.9998197417413941,0.0001680255734180676,-0.0004785922786786908,0.01897964017070882,0.0003178237052060565,-0.0009633902958055768,0.037961411492106814
95.091,97,95,91000000,,10.484985674049886,0.9998125712968898,0.00017204354230880304,-0.0004849496815709599,0.01935348809717084,0.0003252518178094503,-0.0009763770165906691,0.03870923927416015
95.101,98,95,101000000,,10.495531440239178,0.9998051986711521,0.0001753924344930409,-0.000492268822518407,0.019730474374387387,0.00033129130967669265,-0.0009912671700019766,0.03946335069031962
95.112,99,95,111000000,,10.50618619761057,0.9997976212002136,0.00017916017313992133,-0.0004989481159949086,0.020110584148746082,0.00033817973089024435,-0.0010049004795530693,0.04022371567105555
95.121,100,95,121000000,,10.51701796380951,0.9997898350420644,0.0001823506072231572,-0.0005065320351642445,0.020493801992678907,0.00034386321833601346,-0.0010203254512734592,0.04099030414683822
95.131,101,95,131000000,,10.527965110967795,0.9997818373931249,0.00018575698069555002,-0.0005138052496996058,0.020880112962740265,0.00034997648227586404,-0.0010351437515582,0.041763086048137985
95.141,102,95,141000000,,10.539044359068095,0.9997736248489635,0.00018910520664801146,-0.0005211412831242769,0.021269501812406773,0.0003559561686965064,-0.0010500911594340126,0.04254203130542513
95.151,103,95,151000000,,10.550253981106307,0.9997651941430822,0.0001923323183714233,-0.0005285505777983329,0.021661953342473093,0.0003616756523897756,-0.0010651857308978745,0.04332710984916999
95.161,104,95,161000000,,10.56159275868983,0.9997565419931373,0.00019539138605417132,-0.0005360592425315803,0.022057452360116712,0.00036703965299276093,-0.001080477351843103,0.04411829160984287
95.171,105,95,171000000,,10.57305940332815,0.9997476650964949,0.0001982969211211427,-0.0005436987946203574,0.02245598370275997,0.0003720754172993932,-0.0010960293251726925,0.04491554651791409
95.181,106,95,181000000,,10.584596775024302,0.9997385603192813,0.00020127149759563873,-0.0005511076526408496,0.022857532256794696,0.00037724407440650114,-0.0011111285105959462,0.04571884450385398
95.191,107,95,191000000,,10.596371225457027,0.9997292238685787,0.00020382307180433806,-0.0005593795928415524,0.02326208274759399,0.0003815113459540827,-0.001127939189892668,0.04652815549813282
95.201,108,95,201000000,,10.60821322916014,0.9997196529639135,0.0002065416925290737,-0.0005673631864734311,0.02366962013333359,0.0003861092984858305,-0.0011441860322332228,0.04734344943122095
95.211,109,95,211000000,,10.620177270437065,0.9997098441629247,0.00020921560014746903,-0.0005754057941401609,0.02408012916795366,0.0003905983713236026,-0.0011605538114537104,0.0481646962335887
95.22,110,95,221000000,,10.632263186989702,0.999699794188668,0.00021177273055817135,-0.0005835015358340561,0.024493594619879728,0.00039483449390911613,-0.0011770271531659907,0.04899186583570635
95.231,111,95,231000000,,10.644380874185149,0.9996894999319531,0.00021430279260228224,-0.0005913001326125097,0.024910001289999692,0.0003990142235022584,-0.0011929099163677634,0.04982492816804423
95.241,112,95,241000000,,10.656701365416069,0.9996789577040177,0.00021651136652000338,-0.0005995739570873758,0.02532933393729044,0.00040251040186489994,-0.001209731409446338,0.05066385316107267
95.251,113,95,251000000,,10.669246651365855,0.9996681641703873,0.0002184936464009797,-0.0006083298707099522,0.025751577417756338,0.0004055116938608729,-0.0012275094304907168,0.05150861074526197
95.261,114,95,261000000,,10.681815356614354,0.9996571163995973,0.00022055808243627323,-0.0006168420768182809,0.02617671659369587,0.0004086714409213574,-0.0012448084378866924,0.05235917085108245
95.271,115,95,271000000,,10.6945036923175,0.9996458109142105,0.00022260773799839275,-0.0006254406563571742,0.026604736259748813,0.00041177875781007794,-0.0012622834397352748,0.053215503409004425
95.281,116,95,281000000,,10.707311535351533,0.9996342444473184,0.00022461367546742329,-0.0006340852622434732,0.0270356211842051,0.0004147776172402007,-0.0012798521739655461,0.05407757834949821
95.291,117,95,291000000,,10.720238049907014,0.9996224137162166,0.00022652564577622862,-0.000642772469220339,0.027469356123681482,0.00041756749749794197,-0.0012975049256370261,0.05494536560303412
95.301,118,95,301000000,,10.733282910706253,0.9996103154347294,0.0002282869328215315,-0.0006515099892880704,0.027905925827516637,0.0004200343426388547,-0.0013152537074395156,0.05581883510008248
95.311,119,95,311000000,,10.746446869038465,0.999597946294017,0.0002298874101900524,-0.0006603256017533888,0.028345315074310956,0.00042215607943046256,-0.0013331530878445022,0.0566979567711136
95.321,120,95,321000000,,10.759729702899758,0.9995853029727456,0.00023137193617010521,-0.0006692474354504593,0.028787508676183952,0.00042402044093987657,-0.0013512614555098441,0.05758270054659779
95.331,121,95,331000000,,10.773131420265264,0.9995723821647677,0.00023280025462592906,-0.0006782780832895598,0.029232491449320632,0.00042574630579254153,-0.0013695871700447903,0.05847303635700539
95.341,122,95,341000000,,10.78665207150538,0.9995591805844605,0.0002342190213013624,-0.0006873992927505714,0.029680248196134115,0.0004274276075821007,-0.0013880963507277788,0.05936893413280667
95.351,123,95,350000000,,10.800290787366793,0.999545694979512,0.0002356177286200106,-0.0006965720660675841,0.030130763673815758,0.00042904531366479555,-0.0014067103678995158,0.06027036380447197
95.361,124,95,361000000,,10.814047202703593,0.9995319221099987,0.00023692872236777318,-0.0007057688294169385,0.030584022597287746,0.0004304655934661531,-0.0014253698987116066,0.061177295302471624
95.371,125,95,371000000,,10.827922172381536,0.9995178587266854,0.0002380908745659746,-0.0007149811123644231,0.031040009683731683,0.0004315665843217168,-0.0014440539689042425,0.0620896985572759
95.381,126,95,381000000,,10.841916337639509,0.9995035015440515,0.00023909678584574503,-0.0007242387295468415,0.03149870969055133,0.0004323314543733817,-0.0014628212944643928,0.06300754349935517
95.391,127,95,391000000,,10.856029169772757,0.9994888472584172,0.0002399865195451224,-0.0007335849819284154,0.031960107408852474,0.0004328372786104911,-0.0014817605480191686,0.06393080005917971
95.401,128,95,401000000,,10.87026019226364,0.9994738925880088,0.0002408224406383746,-0.0007430312718719268,0.03242418763908663,0.00043320761506523113,-0.0015008982227418723,0.0648594381672199
95.411,129,95,411000000,,10.884609276850815,0.9994586342754784,0.00024165307407828028,-0.0007525688263498163,0.032890935166835444,0.00043353963237222336,-0.0015202197995037394,0.06579342775394596
95.421,130,95,421000000,,10.899076370781655,0.9994430691180527,0.00024245885931256463,-0.0007621503255019466,0.03336033471759972,0.00043379700079876815,-0.0015396293465729856,0.06673273874982825
95.431,131,95,431000000,,10.913662192241071,0.9994271939273341,0.00024318343725601536,-0.0007717343169854241,0.03383237098541204,0.00043386961807899334,-0.0015590401018664843,0.06767734108533706
95.441,132,95,441000000,,10.928366678277522,0.9994110055056682,0.00024377199772060735,-0.0007813025059494621,0.03430702866406187,0.0004336490535624972,-0.0015784114873811563,0.06862720469094279
95.451,133,95,451000000,,10.943189678259914,0.999394500612516,0.0002442092722773255,-0.000790887999372003,0.034784292481863724,0.0004331024148372063,-0.0015978082077179117,0.06958229949711567
95.461,134,95,461000000,,10.958132040703045,0.999377675978516,0.00024453281476994275,-0.0008005504627103499,0.035264147209870846,0.00043230039239490367,-0.0016173517093278713,0.07054259543432603
95.471,135,95,471000000,,10.973193452889465,0.9993605283528726,0.0002448041090705459,-0.000810326332028755,0.03574657763270622,0.00043136293273386537,-0.0016371188520978657,0.07150806243304422
95.481,136,95,481000000,,10.988373375154477,0.999343054552578,0.0002450644120195634,-0.000820185648204303,0.036231568506754776,0.00043037421528856787,-0.0016570525563474384,0.07247867042374054
95.491,137,95,491000000,,11.003672432230939,0.999325251441505,0.0002453038308334313,-0.000830071790238957,0.036719104540097566,0.0004293182560793749,-0.0016770388611075013,0.07345438933688526
95.501,138,95,501000000,,11.01909102613806,0.9993071159100338,0.0002454715469283229,-0.0008399245517928177,0.037209170402429464,0.00042809776511422545,-0.0016969535625444227,0.07443518910294879
95.511,139,95,511000000,,11.03462850969853,0.9992886448054931,0.00024551905836404545,-0.0008497482273443563,0.037701750770267904,0.00042661546408865215,-0.001716801349105099,0.07542103965240136
95.521,140,95,521000000,,11.050284636618168,0.9992698349553397,0.00024542759897503146,-0.0008595727202323148,0.03819683034442427,0.0004248315393233641,-0.0017366401662046588,0.07641191091571331
95.531,141,95,531000000,,11.066059555144847,0.9992506831616408,0.0002452256814774866,-0.0008694530864489037,0.038694393866425765,0.00042279860402512603,-0.0017565818027779983,0.07740777282335495
95.541,142,95,541000000,,11.081953977306677,0.9992311862348379,0.0002449611728037269,-0.0008794390854169938,0.03919442609144421,0.00042060814237599397,-0.0017767290810367109,0.07840859530579665
95.551,143,95,551000000,,11.097967531275945,0.9992113410625331,0.0002446762138860391,-0.0008895068793457473,0.03969691175741748,0.00041834583110604253,-0.0017970374709428136,0.07941434829350864
95.561,144,95,561000000,,11.114099672182547,0.9991911445914033,0.0002443701017053983,-0.0008995950292337547,0.04020183555707013,0.0004160148394115922,-0.0018173840275800943,0.08042500171696132
95.571,145,95,571000000,,11.130350313497495,0.9991705937852862,0.0002440011809542856,-0.0009096523054481253,0.04070918214439384,0.0004135359169784799,-0.0018376628796825838,0.08144052550662495
95.581,146,95,581000000,,11.146720179964026,0.9991496856008291,0.00024353113432901895,-0.0009196504446618161,0.04121893617514567,0.00041083480718342075,-0.0018578141625573653,0.08246088959296988
95.591,147,95,591000000,,11.162789940559094,0.9991284173269044,0.0002428291919538229,-0.0009292493295638888,0.041731082175066325,0.00040767866176620344,-0.0018771469762372932,0.08348606390646635
95.601,148,95,601000000,,11.17981725570971,0.9991067846989746,0.00024223774642664423,-0.0009396393677331051,0.042245605300545636,0.00040465222417764024,-0.0018980682350768373,0.0845160183775848
95.611,149,95,611000000,,11.19654465508224,0.9990847857638353,0.00024146906207549794,-0.0009497428081994886,0.04276248983071093,0.00040127014710704016,-0.001918399993445437,0.08555072293679541
95.621,150,95,621000000,,11.213390511279407,0.9990624171227673,0.00024067197602898577,-0.0009599109498481947,0.0432817206310245,0.00039780021527611857,-0.0019388565167628702,0.08659014751456863
95.631,151,95,631000000,,11.230355437653577,0.9990396758247762,0.00023985479780822433,-0.0009700774426602497,0.04380328238109092,0.00039426453357103427,-0.0019593058161476635,0.08763426204137467
95.641,152,95,641000000,,11.247438836491025,0.9990165589297618,0.00023898839900322598,-0.0009801936123928362,0.04432715972363765,0.0003906091136917727,-0.001979647946386447,0.0886830364476839
95.651,153,95,651000000,,11.264640778720443,0.9989930634830403,0.00023803806276471824,-0.0009902444571899937,0.04485333729574306,0.00038676599286460245,-0.001999849623839824,0.08973644066396662
95.661,154,95,661000000,,11.28196091953916,0.9989691865104373,0.00023698033343645192,-0.0010002474293034768,0.04538179974479702,0.0003826868348144228,-0.0020199432832105134,0.09079444462069314
95.671,155,95,671000000,,11.299399547969427,0.9989449249913013,0.0002358122580046283,-0.001010275173289774,0.04591253174000127,0.0003783591312227423,-0.0020400734050621443,0.09185701824833382
95.681,156,95,681000000,,11.316957118663215,0.9989202759305715,0.00023456169588696588,-0.0010203801023497881,0.04644551797588351,0.00037383350535854674,-0.002060346883417339,0.09292413147735885
95.691,157,95,691000000,,11.334633521431968,0.9988952364294402,0.00023327355940058826,-0.0010305312578626372,0.046980743154464905,0.00036920225345155185,-0.0020807057606446696,0.0939957542382387
95.701,158,95,701000000,,11.352427650905197,0.9988698036394761,0.0002319683997343047,-0.0010406736963231762,0.04751819194954515,0.00036451140748609617,-0.002101042045086313,0.09507185646144359
95.711,159,95,711000000,,11.3703385508513,0.9988439747436137,0.00023063327743942338,-0.001050750371194485,0.048057848998136865,0.0003597405308583632,-0.002121240423706799,0.09615240807744385
95.721,160,95,721000000,,11.38836592202209,0.9988177469229829,0.0002292334378061488,-0.0010607305271247737,0.048599698913429,0.00035482330410297163,-0.0021412359387289054,0.09723737901670985
95.731,161,95,731000000,,11.406509693769134,0.9987911172995314,0.00022773508050441714,-0.001070656139808628,0.04914372631086376,0.0003496883101120957,-0.00216110886738521,0.09832673920971186
95.741,162,95,741000000,,11.424769902214456,0.9987640829669673,0.0002261220442628391,-0.00108060610034644,0.04968991582232647,0.00034429552570561825,-0.0021810148215294944,0.0994204585869202
95.751,163,95,751000000,,11.44254695713816,0.9987366415488512,0.00022421509434610132,-0.0010902312930447346,0.05023825187086368,0.0003383218573984656,-0.002200238004262207,0.10051850707880516
95.761,164,95,761000000,,11.461639907733431,0.9987087888157582,0.0002226366140798826,-0.0011006869748197922,0.05078871984292179,0.00033289414890441617,-0.002221148194552065,0.10162085461583713
95.771,165,95,771000000,,11.480249577852819,0.9986805235230188,0.0002208520653848752,-0.001110717273091306,0.05134130371634024,0.00032707079409105766,-0.0022411829576906165,0.10272747112848633
95.781,166,95,781000000,,11.498339084191679,0.9986518430263149,0.000218876429257127,-0.001120235815596746,0.051895988139454,0.00032089203487071924,-0.0022601706651910764,0.10383832654722315
95.791,167,95,791000000,,11.517815614036921,0.9986227430611211,0.00021723792347231113,-0.0011304803225671708,0.05245275839273859,0.0003152846647847018,-0.0022806381550752076,0.10495339080251785
95.801,168,95,801000000,,11.536773621018874,0.9985932224458263,0.00021529729455455613,-0.0011402519464824563,0.05301159833313914,0.0003090965045052963,-0.0023001242668398594,0.10607263382484078
95.811,169,95,811000000,,11.555848159856092,0.9985632779072401,0.00021323054789444356,-0.0011500273432246877,0.053572492801727226,0.0003026295453514507,-0.0023195988111657786,0.10719602554466229
95.821,170,95,821000000,,11.575037599925086,0.9985329067357638,0.00021106943625633285,-0.001159835320530936,0.05413542645577749,0.0002959440099727427,-0.0023391222688574228,0.10832353589245261
95.831,171,95,831000000,,11.594342116796984,0.9985021062961277,0.00020887553542447632,-0.0011696517255907217,0.05470038398446753,0.00028916533549226697,-0.0023586527542148886,0.10945513479868216
95.841,172,95,841000000,,11.613760709486694,0.9984708740118884,0.0002066867264005193,-0.001179427448713116,0.05526735004888691,0.00028237449559524204,-0.00237809620790769,0.11059079219382113
95.851,173,95,851000000,,11.633292011639114,0.998439207352169,0.00020451111218857475,-0.0011891020906867702,0.055836309274480515,0.00027559447674476264,-0.0023973328855192533,0.11173047800833993
95.861,174,95,861000000,,11.652935534095423,0.9984071037778729,0.00020230152175401564,-0.0011986550495535564,0.05640724621930925,0.00026873367957052323,-0.0024163163277137467,0.11287416217270889
95.871,175,95,871000000,,11.672691149804818,0.9983745606911363,0.00019998489543123665,-0.0012081392183487815,0.05698014540567137,0.0002616405463175401,-0.002435143666288987,0.11402181461739821
95.881,176,95,881000000,,11.69180334865445,0.9983415761247059,0.00019727715125738898,-0.001217153322093924,0.057554991098551396,0.00025379423328053595,-0.002452980561274862,0.11517340527287835
95.891,177,95,891000000,,11.712550971523203,0.9983081456835081,0.00019495210932296214,-0.0012270734061803094,0.05813176882296228,0.0002465814186623683,-0.0024726630950530413,0.11632890406961954
95.901,178,95,901000000,,11.732651916494204,0.9982742686911548,0.00019235033396773963,-0.0012365580941430016,0.05871046239443881,0.00023883972651901402,-0.002491436785844786,0.1174882809380921
95.911,179,95,911000000,,11.752863887030935,0.9982399421231347,0.0001897844959711877,-0.001246000230758318,0.05929105678996013,0.0002311483179214619,-0.0025101220790577326,0.11865150580876632
95.921,180,95,921000000,,11.773186450019189,0.9982051636407103,0.00018724023019632747,-0.0012553238277375753,0.05987353659344479,0.00022348769128356568,-0.0025285656177838267,0.1198185486121126
95.931,181,95,931000000,,11.792795969401768,0.9981699315370085,0.00018438842548274302,-0.0012640394123476586,0.060457886008993704,0.00021526036187208885,-0.0025457504859531005,0.12098937927860119
95.941,182,95,941000000,,11.814161610741536,0.9981342413863166,0.00018189714764139998,-0.0012736216670445172,0.06104409040553803,0.0002076220749000119,-0.002564701096382172,0.12216396773870243
95.951,183,95,951000000,,11.833968580811094,0.998098093443222,0.00017874515430957847,-0.0012822154676646771,0.06163213316663393,0.0001987597101900193,-0.0025815893851697394,0.12334228392288663
95.961,184,95,961000000,,11.855591101732466,0.9980614825938481,0.00017604534749082854,-0.0012917673975470537,0.062222000189614254,0.00019065610431976958,-0.002600437286024946,0.12452429776162412
95.971,185,95,971000000,,11.876474051443996,0.9980244085723478,0.00017306387132952523,-0.001300826645170685,0.06281367520493646,0.00018202515580350347,-0.0026182580334888897,0.1257099791853852
95.981,186,95,981000000,,11.89746295931058,0.9979868684606497,0.00017014840407143217,-0.0013098161698032436,0.06340714321926046,0.0001735089466218568,-0.0026359389760659364,0.12689929812464013
95.991,187,95,991000000,,11.918556411257846,0.9979488600858243,0.00016726429374947567,-0.0013186762279578008,0.06400238877624535,0.00016504614707348183,-0.0026533566191433346,0.12809222450985935
96.001,188,96,1000000,,11.939754165116883,0.9979103812470695,0.00016430769561232204,-0.0013274024512066566,0.06459939632103469,0.0001564304747250946,-0.002670488902301126,0.12928872827151308
96.011,189,96,11000000,,11.961056327538543,0.9978714297062085,0.00016120856184267197,-0.0013360317671202557,0.06519815033422668,0.00014751776939581377,-0.0026874000940649333,0.13048877934007166
96.021,190,96,21000000,,11.982463110949274,0.9978320032286524,0.00015794953245657005,-0.001344607477208373,0.0657986353610197,0.00013826802855386233,-0.0027041737681969265,0.1316923476460054
96.031,191,96,31000000,,12.003974382565753,0.9977920995939304,0.00015460835370087497,-0.0013531641144815035,0.06640083607208822,0.00012883200786214272,-0.0027208885308942737,0.13289940311978463
96.041,192,96,41000000,,12.025589338993244,0.997751716647071,0.00015130667718469106,-0.0013616999113020569,0.06700473720166375,0.0001194527522799662,-0.002737556795709078,0.13410991569187963
96.052,193,96,51000000,,12.046323874000889,0.9977108531371961,0.00014779752449013738,-0.0013696364726646251,0.06761032305848584,0.00010971567570737385,-0.0027529911014830557,0.13532385529276084
96.062,194,96,61000000,,12.069130314634782,0.9976695047875922,0.00014483549258736348,-0.0013784587089686903,0.06821757904783979,0.00010092606388473226,-0.0027702566317283498,0.1365411918528984
96.071,195,96,71000000,,12.091055805420488,0.9976276719067602,0.0001415114397693458,-0.0013866050460873997,0.0688264887006167,9.14814985238686e-05,-0.0027861142034877034,0.1377618953027627
96.081,196,96,81000000,,12.113082406997812,0.997585351658347,0.00013805300427368185,-0.0013946383888450023,0.06943703681627364,8.176051631383387e-05,-0.0028017173036262296,0.13898593557282407
96.091,197,96,91000000,,12.134170624513802,0.9975425428214255,0.00013415045122903822,-0.001402062449162945,0.0700492076037256,7.121511975892892e-05,-0.002816031868952065,0.1402132825935529
96.101,198,96,101000000,,12.157439356642618,0.9974992408431599,0.00013083320205636433,-0.0014105667806698725,0.07066298678481099,6.166256330615034e-05,-0.002832572503249877,0.14144390629541934
96.111,199,96,111000000,,12.178702702946167,0.9974554471370686,0.0001269566341571728,-0.0014179509551117382,0.0712783576809449,5.1128949077361686e-05,-0.002846788173814279,0.1426777766088938
96.121,200,96,121000000,,12.202199596483332,0.9974111565752941,0.00012374145855954065,-0.0014263144814329824,0.07189530620413125,4.175176095600005e-05,-0.002863040724629137,0.14391486346444665
96.131,201,96,131000000,,12.224727055242669,0.9973663699112081,0.00012020768178672188,-0.0014339573509693111,0.07251381583235196,3.1818891681831365e-05,-0.0028777990830746265,0.14515513679254813
96.141,202,96,141000000,,12.24735262732766,0.9973210845077535,0.00011655848939128477,-0.0014414150168781724,0.07313387131244951,2.166004798253447e-05,-0.002892159954797736,0.1463985665236685
96.151,203,96,151000000,,12.270075750855204,0.9972752984900773,0.00011275795851101506,-0.0014487407962077675,0.07375545713555957,1.1196421355390053e-05,-0.0029062239405564967,0.14764512258827817
96.161,204,96,161000000,,12.29289543056781,0.9972290099564683,0.0001088565103641382,-0.0014560133997010242,0.0743785579080562,5.17388392317105e-07,-0.0029201549328274254,0.1488947749168474
96.171,205,96,171000000,,12.314657714775738,0.997182217985105,0.00010462752913619039,-0.0014626967876604949,0.0750031579701417,-1.074837954881901e-05,-0.002932849448643655,0.15014749343984657
96.181,206,96,181000000,,12.338821699505369,0.9971349181775996,0.0001011038069513688,-0.0014704877282710079,0.07562924298717506,-2.07955652344084e-05,-0.0029478463993503545,0.15140324808774597
96.191,207,96,191000000,,12.361928252476039,0.997087111701056,9.730804343095361e-05,-0.001477564945253809,0.07625679650118293,-3.1299684004650296e-05,-0.00296136705493838,0.15266200879101588
96.201,208,96,201000000,,12.385128234448997,0.9970387961101497,9.34706940015896e-05,-0.0014844421102792609,0.07688580328040956,-4.1877416973094594e-05,-0.0029744702739282376,0.15392374548012666
96.211,209,96,211000000,,12.40842065278426,0.9969899698101474,8.950868027381856e-05,-0.0014911138811678978,0.07751624775200848,-5.2692828302460606e-05,-0.0029871323631519317,0.15518842808554856
96.221,210,96,221000000,,12.43180617124322,0.9969406310959765,8.541316154596763e-05,-0.0014976601551901685,0.07814811442771553,-6.377521895009183e-05,-0.0029995107734062405,0.15645602653775204
96.231,211,96,231000000,,12.45528359831102,0.9968907782529619,8.125306461229754e-05,-0.0015041770118372308,0.07878138792671976,-7.500178396646631e-05,-0.0030118073956687873,0.1577265107672072
96.242,212,96,241000000,,12.477597372622165,0.9968404106804793,7.677942211406993e-05,-0.001510076554905509,0.07941605258442364,-8.677537339623798e-05,-0.0030228103069766888,0.1589998507043846
96.251,213,96,251000000,,12.502511390423141,0.9967895240946021,7.301630543347645e-05,-0.001517093650292979,0.08005209398093352,-9.732971900730242e-05,-0.003036140996253822,0.16027601627975432
96.261,214,96,261000000,,12.52625996566752,0.9967381200793507,6.894924712728849e-05,-0.0015233229757209618,0.08068949568434972,-0.00010838414304525366,-0.0030478398368729183,0.16155497742378683
96.271,215,96,271000000,,12.55009610912837,0.9966861963305442,6.48223462112305e-05,-0.0015293210847491996,0.08132824244525985,-0.00011953947614782651,-0.003059054975841358,0.16283670406695233
96.281,216,96,281000000,,12.574020342309927,0.9966337514338282,6.057675915466666e-05,-0.0015351094878034125,0.08196831871065377,-0.00013091561928620942,-0.0030698194271380555,0.16412116613972136
96.291,217,96,291000000,,12.598032524832638,0.9965807838664326,5.6224022630708636e-05,-0.0015407936863153892,0.08260970900470826,-0.00014250615160312332,-0.0030803449309857573,0.16540833357256396
96.301,218,96,301000000,,12.622130490546246,0.9965272921650677,5.183132563119891e-05,-0.0015464542589980624,0.08325239794081887,-0.00015419012667790448,-0.0030908028357503714,0.16669817629595057
96.311,219,96,311000000,,12.64631252309195,0.9964732750413137,4.747150602506554e-05,-0.001552078291951095,0.08389637017100232,-0.00016582009380313408,-0.003101179422319737,0.16799066424035153
96.321,220,96,321000000,,12.670578850259568,0.9964187314017565,4.315342994046131e-05,-0.001557555772254993,0.08454161028459317,-0.00017735963369789774,-0.0031112570337194856,0.16928576733623718
96.331,221,96,331000000,,12.69492836018617,0.9963636601554389,3.883281050513467e-05,-0.0015628045160983955,0.08518810278269198,-0.00018888242203567567,-0.0031208645085342326,0.17058345551407772
96.341,222,96,341000000,,12.719359722689278,0.996308060160538,3.4445293085528814e-05,-0.0015678002593811243,0.08583583211581391,-0.00020051161694212917,-0.0031299424615071503,0.1718836987043435
96.351,223,96,351000000,,12.743872199305045,0.9962519301713988,2.9952911371049294e-05,-0.001572605037048337,0.08648478274230134,-0.0002123325658254771,-0.003138607702172277,0.17318646683750488
96.361,224,96,361000000,,12.76846481537119,0.9961952688752036,2.5376018250748158e-05,-0.0015773394913812682,0.08713493918542259,-0.000224324935430914,-0.0031471037480162783,0.17449172984403227
96.371,225,96,371000000,,12.791686858480892,0.9961380761732096,2.0427738726424907e-05,-0.0015813951185056191,0.08778628577473627,-0.00023695309179342728,-0.0031541675626685093,0.17579945765439575
96.381,226,96,381000000,,12.817886824507744,0.9960803478138435,1.620968988589244e-05,-0.001586719216190624,0.08843880798850477,-0.0002483640507308559,-0.0031638720672310557,0.17710962019906584
96.391,227,96,391000000,,12.841235225134563,0.9960220874161962,1.133817578312496e-05,-0.0015904692780323857,0.08909248934677147,-0.00026081290105096124,-0.003170310663891867,0.17842218740851268
96.401,228,96,401000000,,12.867621902392802,0.9959632896198471,7.150382148746578e-06,-0.0015953244340449122,0.0897473153828839,-0.0002721105123736748,-0.0031790579526957317,0.17973712921320675
96.411,229,96,411000000,,12.892605328317153,0.9959039568250981,2.553843072966881e-06,-0.0015992461151676928,0.09040326977191741,-0.0002840688365443645,-0.0031858582088380456,0.18105441554361829
96.421,230,96,421000000,,12.916138319357067,0.9958440879573783,-2.512067374089874e-06,-0.0016023461375386646,0.09106033692493351,-0.00029682512868670416,-0.0031909217714372975,0.1823740163302176
96.431,231,96,431000000,,12.942797353493829,0.9957836785369804,-6.941140509886712e-06,-0.0016068210920404502,0.09171850215282815,-0.0003085757800826687,-0.0031988246288589487,0.18369590150347512
96.441,232,96,441000000,,12.968003613175277,0.9957227312370555,-1.1742667405993261e-05,-0.0016105233085169453,0.09237774934799581,-0.0003209395727156877,-0.0032051053000936238,0.18502004099386093
96.451,233,96,451000000,,12.991709363233186,0.9956612453798575,-1.685272944116183e-05,-0.001613369160903287,0.09303806320301249,-0.0003337704284682246,-0.0032096079160619357,0.18634640473184558
96.461,234,96,461000000,,13.01863329963903,0.9955992168839222,-2.119951629685397e-05,-0.001617372234187204,0.09369942901510835,-0.0003453079465065216,-0.0032165418408515926,0.18767496264789923
96.471,235,96,471000000,,13.044058494842595,0.9955366485732684,-2.589307011752114e-05,-0.0016203723875421211,0.09436183057984472,-0.0003573594717489556,-0.003221399128905746,0.18900568467249226
96.481,236,96,481000000,,13.067933802637032,0.9954735396809535,-3.103192963983532e-05,-0.0016224247798441256,0.09502525227499348,-0.00037012751004359854,-0.003224269829566615,0.190338540736095
96.491,237,96,491000000,,13.09511395163202,0.995409885706156,-3.557910235286278e-05,-0.001625878224755267,0.09568967913303517,-0.00038199311365515756,-0.003230027026491449,0.19167350076917775
96.501,238,96,501000000,,13.120742919815516,0.9953456896383598,-4.0559964513139186e-05,-0.0016285306349263797,0.09635509514913167,-0.0003945788940188532,-0.003234091215099717,0.1930105347022108
96.511,239,96,511000000,,13.146438279643526,0.9952809497701895,-4.551788512561803e-05,-0.0016310582708117607,0.09702148525759102,-0.00040710370510477255,-0.0032378956818298215,0.1943496124656645
96.521,240,96,521000000,,13.17219870776413,0.9952156656902423,-5.039643527515931e-05,-0.001633373745913649,0.09768883413744596,-0.00041943761323681055,-0.0032412776171170266,0.19569070399000912
96.531,241,96,531000000,,13.198023233962019,0.995149836983539,-5.521091675383071e-05,-0.0016354208332657492,0.09835712634114836,-0.00043159914119501956,-0.003244122467385209,0.19703377920571502
96.541,242,96,541000000,,13.223910054240818,0.9950834631581007,-6.00644874343907e-05,-0.0016372206533264036,0.09902634624215019,-0.00044379666817292404,-0.0032464521645075442,0.19837880804325253
96.551,243,96,551000000,,13.249857289275198,0.9950165436600004,-6.50438048030181e-05,-0.0016388548921500673,0.09969647820686876,-0.0004562178686322073,-0.0032484118971268946,0.19972576043309193
96.561,244,96,561000000,,13.275865204237656,0.994949077990509,-7.014086980764578e-05,-0.0016403880051582107,0.10036750676034,-0.0004688589894208276,-0.003250131060151848,0.2010746063057036
96.571,245,96,571000000,,13.301932962839471,0.9948810657784191,-7.527459503407836e-05,-0.001641824309113217,0.10103941657724641,-0.0004815590436991294,-0.0032516341645981942,0.20242531559155771
96.581,246,96,581000000,,13.328060217194212,0.9948125068281422,-8.031339557370987e-05,-0.0016430800602328032,0.10171219246472692,-0.0004940387251119719,-0.003252781220234906,0.20377785822112468
96.591,247,96,591000000,,13.354245068076908,0.9947434009787934,-8.523113498021544e-05,-0.0016440802876736874,0.10238581906106252,-0.0005062299326607005,-0.003253428854035403,0.20513220412487485
96.601,248,96,601000000,,13.380486306976978,0.9946737480127728,-9.013700647511722e-05,-0.0016448162650778905,0.10306028075353348,-0.0005183470469570863,-0.0032535377680228857,0.20648832323327845
96.611,249,96,611000000,,13.406783215136626,0.9946035476530728,-9.51518926726846e-05,-0.001645340176550396,0.10373556187606306,-0.0005306402282623298,-0.00325318682148441,0.20784618547680586
96.621,250,96,621000000,,13.433133655573231,0.9945327996360684,-0.00010031417276400707,-0.0016457154731906614,0.10441164688717194,-0.0005431980957710089,-0.0032524938324763786,0.20920576078592734
96.631,251,96,631000000,,13.459536540560684,0.9944615037819227,-0.00010556136378894594,-0.00164597307020298,0.10508852042562904,-0.0005559021416227482,-0.003251532863538215,0.2105670190911133
96.641,252,96,641000000,,13.48599141879708,0.9943896600206165,-0.00011076131285436082,-0.0016460974829146395,0.10576616727049994,-0.0005684856853964371,-0.003250300756647314,0.21192993032283397
96.651,253,96,651000000,,13.512499548649812,0.9943172684155159,-0.00011579541832982198,-0.0016460156557907375,0.1064445722176042,-0.0005806967297284564,-0.003248677708102926,0.21329446441155972
96.661,254,96,661000000,,13.539058730093291,0.9942443290619447,-0.00012073188359980555,-0.0016456658774420168,0.10712371976269101,-0.0005926568397431148,-0.0032465271384543174,0.21466059128776083
96.671,255,96,671000000,,13.565664768217085,0.9941708420069201,-0.00012573860324873235,-0.0016450435677549515,0.10780359421056097,-0.0006046977428475101,-0.003243804239755713,0.21602828088190767
96.681,256,96,681000000,,13.592317834922227,0.9940968072184727,-0.0001309226573725805,-0.0016442155211023753,0.10848417991862475,-0.0006170456153444332,-0.0032406183975256814,0.21739750312447043
96.691,257,96,691000000,,13.619018055362861,0.9940222247166788,-0.00013622682006876445,-0.0016432358751114734,0.10916546151332286,-0.0006295975191529949,-0.0032370890866944917,0.21876822794591944
96.701,258,96,701000000,,13.64576482793509,0.9939470946146011,-0.0001414948624305744,-0.0016421238382854193,0.10984742380091153,-0.0006420463613605901,-0.0032332883774302272,0.22014042527672523
96.711,259,96,711000000,,13.672556746464545,0.9938714171316976,-0.00014662035130480637,-0.0016408590640408544,0.11053005153638364,-0.0006541754839260107,-0.0032291995488117724,0.2215140650473579
96.721,260,96,721000000,,13.699391783878253,0.9937951926271608,-0.0001516224164678743,-0.0016393605922370507,0.11121332932088587,-0.0006660042679292059,-0.003224658072180141,0.22288911718828794
96.731,261,96,731000000,,13.726268244902407,0.99371842145858,-0.00015664347976112496,-0.0016375746180362287,0.11189724154803096,-0.0006778027527803544,-0.003219525744241197,0.2242655516299854
96.741,262,96,741000000,,13.751158728111658,0.9936411052349803,-0.00016217157977742585,-0.001634674726172896,0.11258177262028284,-0.0006903534683088608,-0.003212050398649458,0.22564333830292085
96.751,263,96,751000000,,13.780159616931412,0.993563240197272,-0.00016710493213604313,-0.0016332731124081398,0.11326690700985806,-0.0007020538925793566,-0.003207670834463744,0.22702244713756442
96.761,264,96,761000000,,13.807170492325332,0.9934848306354432,-0.00017243981094008758,-0.001630887300906797,0.11395262949308294,-0.0007143241863185437,-0.003201229115707965,0.22840284806438663
96.771,265,96,771000000,,13.834215739365062,0.9934058756142312,-0.00017763954579134866,-0.0016283858323551982,0.11463892488546581,-0.0007262929091675929,-0.003194572727753952,0.22978451101385763
96.781,266,96,781000000,,13.859201720713516,0.9933263770413693,-0.0001830195695484091,-0.0016248427454740413,0.11532577796727504,-0.0007383726533433187,-0.003185789955662324,0.23116740591644774
96.791,267,96,791000000,,13.88840665884898,0.9932463316537465,-0.00018768531406734837,-0.0016226942827148921,0.1160131729324882,-0.0007493471830821466,-0.003179927709012362,0.2325515027026274
96.801,268,96,801000000,,13.915550172497948,0.9931657439584739,-0.0001928017881957235,-0.0016193852619986616,0.11670109445182907,-0.0007609402283449218,-0.003171640895002179,0.2339367713028669
96.811,269,96,811000000,,13.942724200709984,0.9930846131435503,-0.00019806156148002236,-0.0016158196543034694,0.11738952694336859,-0.0007727483299218324,-0.0031627958396432533,0.2353231816476364
96.821,270,96,821000000,,13.969928920280624,0.9930029396776828,-0.00020336183470395384,-0.001612103771872053,0.1180784550918301,-0.0007845912270361284,-0.0031536274938634297,0.23671070366740635
96.831,271,96,831000000,,13.994988294271103,0.9929207254336496,-0.00020891905306130138,-0.001607448280330704,0.11876786378128706,-0.0007967105304364562,-0.003142516858207805,0.238099307292647
96.841,272,96,841000000,,14.024422509595858,0.9928379673652337,-0.00021362268444286687,-0.0016043370292488585,0.11945773740581397,-0.0008074904217008265,-0.0031346607986705737,0.23948896245382884
96.851,273,96,851000000,,14.049504083257323,0.9927546715956729,-0.00021895357806790946,-0.0015992208919715218,0.12014806106149677,-0.000819025038458709,-0.0031226594019419843,0.2408796390814218
96.861,274,96,861000000,,14.079022633160841,0.9926708338107225,-0.00022367346304722084,-0.0015954901121525986,0.12083881860978642,-0.0008296666432720934,-0.0031135411563907056,0.24227130710589667
96.871,275,96,871000000,,14.104120933363768,0.992586459998669,-0.00022924144489167332,-0.0015897009760828024,0.12152999517188,-0.0008414807553596802,-0.003100116870957022,0.24366393645772347
96.881,276,96,881000000,,14.133717605784064,0.992501545601958,-0.00023414895942826326,-0.001585501379265051,0.12222157476225498,-0.0008523555313659976,-0.0030899939470889234,0.24505749706737256
96.894,277,96,892000000,,14.156556655951066,0.9924160978728732,-0.00024005823532674293,-0.001578612474779677,0.12291354293761801,-0.000864545211902017,-0.0030742728906865487,0.2464519588653142
96.901,278,96,901000000,,14.18850260420072,0.992330108913562,-0.0002444007628628604,-0.0015750631315291383,0.12360588330656726,-0.0008744308307426033,-0.0030655511948336715,0.24784729178201895
96.911,279,96,911000000,,14.21592947707467,0.9922435875416277,-0.0002493372844073248,-0.0015695323579365847,0.12429858157523843,-0.000884992174062255,-0.003052737035142716,0.24924346574795692
96.921,280,96,921000000,,14.243372144630762,0.9921565324366769,-0.00025430279594669265,-0.0015636237829429803,0.12499162193516228,-0.0008955003611875134,-0.0030391523416771443,0.25064045069359847
96.931,281,96,931000000,,14.270829031151019,0.9920689446499276,-0.0002593886176715432,-0.0015573526033951601,0.12568498888726656,-0.0009061387430090362,-0.003024804408880207,0.2520382165494138
96.941,282,96,941000000,,14.298299564342331,0.9919808250951959,-0.00026455863164119006,-0.0015508627231498452,0.12637866701701897,-0.0009168703886511721,-0.0030099875781016477,0.2534367332458733
96.951,283,96,951000000,,14.323417010827823,0.9918921759671865,-0.00027003684282042193,-0.0015434304910024138,0.12707264126279477,-0.0009279547315134401,-0.002993209136146292,0.25483597071344766
96.961,284,96,961000000,,14.353279447060931,0.9918029948227282,-0.00027467701193585744,-0.001537648168903876,0.12776689575674643,-0.0009377763337987079,-0.0029799032696707505,0.2562358988826065
96.971,285,96,971000000,,14.380785530956356,0.9917132868297382,-0.0002795604911563415,-0.001530748771040241,0.12846141591734475,-0.0009477763221882569,-0.0029643066583023136,0.25763648768382064
96.981,286,96,981000000,,14.408299807783084,0.9916230522297825,-0.0002844293440049519,-0.001523470373873831,0.12915618616410995,-0.0009576289423931873,-0.002947949335445713,0.25903770704756024
96.991,287,96,991000000,,14.435825251978523,0.9915322923685262,-0.0002893731256797919,-0.001515795100780869,0.1298511910566162,-0.0009675055018768896,-0.0029307728876273673,0.2604395269042957
97.001,288,97,1000000,,14.463369453030225,0.9914410083994755,-0.00029438854507402224,-0.0015078767096053578,0.13054641514436383,-0.000977437852745284,-0.002913082992682612,0.2618419171844971
97.011,289,97,11000000,,14.490917991389091,0.9913492015087639,-0.00029938849349938853,-0.0014998864376064725,0.13124184308040096,-0.0009872971072728775,-0.0028952418940387647,0.2632448478186351
97.021,290,97,21000000,,14.51846830037898,0.9912568731732466,-0.0003042951040747488,-0.0014918213337143035,0.13193745965568607,-0.0009969277525749452,-0.002877264425123149,0.2646482887371796
97.031,291,97,31000000,,14.546023026100382,0.9911640251284517,-0.000309095200553035,-0.0014835164377674788,0.132633249716283,-0.0010062595803927974,-0.002858827539909476,0.2660522098706014
97.041,292,97,41000000,,14.573591951597736,0.991070659131988,-0.00031384282596637466,-0.0014748104017577393,0.1333291980199617,-0.0010153556770101046,-0.0028395976254420078,0.2674565811493703
97.051,293,97,51000000,,14.601161306353553,0.9909767767693985,-0.0003186094479129878,-0.0014656919058003163,0.13402528917704504,-0.0010243529413444348,-0.0028195335700840385,0.2688613725039571
97.061,294,97,61000000,,14.628728174953224,0.9908823794257442,-0.0003234171322766469,-0.0014563329005219654,0.13472150770911367,-0.001033339634932018,-0.002798970386682501,0.27026655386483184
97.071,295,97,71000000,,14.656291995764304,0.9907874685318072,-0.00032824791443356743,-0.0014469118471041689,0.13541783818886838,-0.001042327400630091,-0.002778266580566695,0.2716720951624649
97.081,296,97,81000000,,14.681277078680383,0.9906920469289083,-0.0003333679890361066,-0.0014365490993176544,0.13611426576328745,-0.0010516038690781518,-0.002755606744708773,0.27307796632732667
97.091,297,97,91000000,,14.711401224005522,0.9905961133717017,-0.00033772429910725456,-0.0014276280256991939,0.13681077440536793,-0.0010597307124511658,-0.0027360003148808047,0.2744841372898873
97.101,298,97,101000000,,14.73894511877878,0.9904996730978679,-0.00034232218823199503,-0.0014174349946950884,0.1375073499365474,-0.0010679596263358866,-0.0027137974949574843,0.27589057798061695
97.111,299,97,111000000,,14.766480058086284,0.9904027268427724,-0.00034687797590263506,-0.00140682794892586,0.13820397669094964,-0.0010759603232803963,-0.002690775889228763,0.2772972583299866
97.121,300,97,121000000,,14.794005311420767,0.9903052762703946,-0.000351468550694901,-0.0013959586334232625,0.13890063916472528,-0.0010839254810419744,-0.0026672151500361564,0.2787041482684658
97.131,301,97,131000000,,14.821518117507171,0.9902073230993329,-0.00035610863582172334,-0.0013849819326941938,0.13959732193756094,-0.0010919263274768787,-0.00264341795901827,0.28011121772652553
97.141,302,97,141000000,,14.849017537461208,0.9901088692897307,-0.00036073981914862144,-0.0013739106260473616,0.1402940098157628,-0.0010998502455951103,-0.0026194259169483552,0.28151843663463544
97.151,303,97,151000000,,14.876502383141215,0.9900099170431987,-0.00036526882579981327,-0.0013626043906487873,0.14099068779206098,-0.0011074725355296273,-0.002594987625963948,0.28292577492326637
97.161,304,97,161000000,,14.903971195182008,0.9899104686166429,-0.0003696637763160824,-0.001350898435324899,0.14168734080816267,-0.0011146824094972392,-0.002569786479806081,0.2843332025228884
97.171,305,97,171000000,,14.931422774623748,0.9898105261149482,-0.0003739789743053138,-0.0013387662804410492,0.1423839535784239,-0.0011215781863160358,-0.00254375544625171,0.2857406893639719
