Time,header.seq,header.stamp.secs,header.stamp.nsecs,header.frame_id,position_controller_output.thrust.num,position_controller_output.orientation_set_point.w,position_controller_output.orientation_set_point.x,position_controller_output.orientation_set_point.y,position_controller_output.orientation_set_point.z,position_controller_output.euler_set_point.phi,position_controller_output.euler_set_point.theta,position_controller_output.euler_set_point.psi
57.072,83,57,73000000,,10.353700794736376,0.9998960545865052,0.00010836285249403813,-0.0003991248710870943,0.01441211223832282,0.00020519877978226022,-0.0008012903287067863,0.02882514266507758
57.084,84,57,83000000,,10.362036456799284,0.9998912161850193,0.00011260559372532641,-0.0004050059180741951,0.014743781273131596,0.00021324412291005807,-0.0008132442741007586,0.029488546876549948
57.093,85,57,93000000,,10.3705581174193,0.9998862174567703,0.00011663395805834462,-0.00041080856586726323,0.015078785522528504,0.0002208524627506002,-0.0008250411365240616,0.030158625626014356
57.103,86,57,103000000,,10.379226262738271,0.9998810554506855,0.00012108347022109923,-0.0004159408713688023,0.015417110066679611,0.00022931300566436338,-0.000835516406524553,0.030835348843941093
57.114,87,57,114000000,,10.388057135550143,0.9998757261738939,0.00012401737323150354,-0.0004230431816433628,0.01575873923847068,0.00023467075477056677,-0.0008498900341031774,0.031518686460800506
57.126,88,57,123000000,,10.397032385566757,0.9998702282589466,0.00013013849624494392,-0.000426452903590206,0.01610365931379797,0.00024650840436349103,-0.0008569866410220259,0.03220860840706287
57.133,89,57,133000000,,10.406171520471636,0.9998645570066969,0.0001349227175849226,-0.0004312134866977847,0.016451853773692744,0.0002556204628414491,-0.000866749729870721,0.032905084613198556
57.145,90,57,143000000,,10.415473295505626,0.9998587093697343,0.0001388996733938937,-0.00043687059154191046,0.016803307664156053,0.00026307845892691685,-0.0008782857924505639,0.03360808500967781
57.153,91,57,153000000,,10.424935923881689,0.9998526826411355,0.00014322733887857204,-0.0004419558586707241,0.01715800618583202,0.0002712464257355693,-0.0008886966099140744,0.034317579526971
57.164,92,57,163000000,,10.434562190916898,0.999846473404014,0.00014756972825602342,-0.00044709765306554417,0.017515934129253796,0.0002794315952871655,-0.0008992277878363174,0.03503353809554843
57.173,93,57,173000000,,10.444351088619479,0.9998400786147212,0.00015216021452171176,-0.0004518651220145903,0.017877076407758166,0.0002881158300996191,-0.0009090262029914801,0.03575593064588041
57.183,94,57,183000000,,10.454305297520543,0.9998334945229465,0.0001559785759489819,-0.00045780362642123976,0.018241417613672047,0.0002952033645832861,-0.0009211454701720886,0.036484727108437275
57.193,95,57,193000000,,10.46442237840787,0.99982671809316,0.00015938836687066357,-0.0004643642255831841,0.018608942696332502,0.0003014389771596835,-0.0009344997533153726,0.037219897413689286
57.209,96,57,204000000,,10.474666715232047,0.9998197470352745,0.00016387172269491918,-0.00046900853911766764,0.018979636860817786,0.00030988128820068865,-0.0009440685896889874,0.037961411492106814
57.213,97,57,213000000,,10.48506890090833,0.9998125769753956,0.0001676285434939702,-0.0004748252664815355,0.019353484530089313,0.00031681535525456163,-0.0009559610850371702,0.03870923927416015
57.221,98,57,223000000,,10.49561583341836,0.9998052050501337,0.00017127395344747204,-0.0004807763273134791,0.019730470699309003,0.00032350945106454925,-0.0009681241316972695,0.03946335069031962
57.233,99,57,233000000,,10.506283558438234,0.9997976282037477,0.0001750689245254861,-0.00048636438421025447,0.02011058026805545,0.00033050501563659394,-0.000979573547531234,0.04022371567105555
57.244,100,57,243000000,,10.517124447489865,0.9997898426023805,0.00017826084988144096,-0.0004930506309681439,0.02049379792161346,0.00033623798627407036,-0.0009932006724209584,0.04099030414683822
57.253,101,57,253000000,,10.528081206952102,0.9997818455672827,0.0001816042793370004,-0.0004993562016859227,0.02088010865268986,0.0003422762795298333,-0.0010060785337271763,0.041763086048137985
57.263,102,57,263000000,,10.53917107194169,0.9997736336381486,0.0001848252430143735,-0.0005057756580259927,0.021269497233983567,0.00034805180946867557,-0.0010191847912951319,0.04254203130542513
57.273,103,57,273000000,,10.550391026356525,0.9997652035354613,0.00018792495930536508,-0.000512319339277811,0.021661948499660768,0.0003535661959347867,-0.0010325399220687986,0.04332710984916999
57.283,104,57,283000000,,10.56169560392755,0.9997565521819997,0.00019110613586600554,-0.0005185226003825056,0.022057447311916785,0.0003592448570757571,-0.0010452235517358465,0.04411829160984287
57.293,105,57,293000000,,10.573213211452048,0.9997476756826813,0.00019377826070730023,-0.0005257859096356966,0.022455978407522913,0.00036384486985195484,-0.0010600096415146372,0.04491554651791409
57.303,106,57,303000000,,10.585131606830718,0.9997385701104767,0.00019544769321727806,-0.0005354563857025937,0.022857526552924994,0.0003663149992450113,-0.0010795679141726098,0.04571884450385398
57.313,107,57,313000000,,10.596776972612496,0.9997292348848362,0.0001985408723421362,-0.0005415490723085599,0.023262076921547834,0.00037177934669460914,-0.0010920420425657503,0.04652815549813282
57.323,108,57,323000000,,10.608315872465221,0.9997196657107625,0.00020197320516795463,-0.0005464111504415158,0.023669614125295474,0.00037796672667034725,-0.0011020774240725363,0.04734344943122095
57.335,109,57,333000000,,10.620278562478486,0.999709857599078,0.00020443539908107788,-0.0005536328985219728,0.02408012284047847,0.0003820893185690963,-0.0011167904234801306,0.0481646962335887
57.346,110,57,345000000,,10.632198248884581,0.9996998087354032,0.00020709099976079176,-0.0005600663218290191,0.024493588006479893,0.00038662185466192025,-0.001129941433324632,0.04899186583570635
57.353,111,57,353000000,,10.644660353443133,0.9996895142725575,0.00020893909768679943,-0.0005688390003618577,0.024909994382643894,0.0003894091638756513,-0.0011477343634253986,0.04982492816804423
57.364,112,57,363000000,,10.656901544951634,0.9996789729008327,0.00021122357678125594,-0.0005759579104465996,0.025329326817386952,0.0003931345599379468,-0.0011622465883781422,0.05066385316107267
57.373,113,57,373000000,,10.669454377131412,0.9996681799829364,0.00021316465619538493,-0.00058406128952467,0.02575157010441958,0.00039610714283331975,-0.001178713894715064,0.05150861074526197
57.383,114,57,383000000,,10.682573238215546,0.9996571317439801,0.00021459951974028434,-0.0005939716313675173,0.026176709077844404,0.00039795573201038066,-0.0011987712602094553,0.05235917085108245
57.393,115,57,393000000,,10.694847779386256,0.9996458279013366,0.00021694364362020698,-0.0006000995510524731,0.026604728441305927,0.0004018029508746941,-0.0012113177747471787,0.053215503409004425
57.403,116,57,403000000,,10.707921332217998,0.9996342616768317,0.0002185671129281798,-0.0006088801003929028,0.02703561309192209,0.0004040517716988539,-0.0012291333205007773,0.05407757834949821
57.413,117,57,413000000,,10.720483254666094,0.9996224323707443,0.00022054123943403097,-0.0006156304207229168,0.027469347679612493,0.00040709433395461574,-0.0012429125251914007,0.05494536560303412
57.423,118,57,423000000,,10.733536562521282,0.9996103347640561,0.00022214172858792168,-0.0006237592287887252,0.027905917121074757,0.0004092975247082524,-0.001259430813281905,0.05581883510008248
57.433,119,57,433000000,,10.746708644786828,0.9995979662867571,0.00022364212233527014,-0.0006319801549536299,0.028345306148712848,0.00041127742585983897,-0.0012761309104664762,0.0566979567711136
57.443,120,57,443000000,,10.760000081823064,0.9995853236421722,0.0002250516052935623,-0.0006402973700093025,0.02878749954800711,0.0004130517999643952,-0.0012930214139286241,0.05758270054659779
57.453,121,57,453000000,,10.773409283987046,0.9995724035427254,0.0002263816936428561,-0.0006487043635658276,0.029232482101192062,0.0004146436775867794,-0.0013100897321300024,0.05847303635700539
57.463,122,57,463000000,,10.787110315935072,0.9995592024490922,0.00022759221549799392,-0.0006575990304937893,0.02968023862156266,0.0004159487733743128,-0.0013281286978855046,0.05936893413280667
57.473,123,57,473000000,,10.80112700964546,0.9995457170740625,0.00022869551551579198,-0.0006669690361790457,0.030130753883104804,0.00041699107678685966,-0.001347114031090155,0.06027036380447197
57.486,124,57,485000000,,10.814530970109452,0.9995319454663726,0.0002298444580875103,-0.0006747949573702783,0.0305840124166054,0.0004181982826417349,-0.001363017786622171,0.061177295302471624
57.493,125,57,493000000,,10.828218226351252,0.999517883036554,0.0002308473278434615,-0.0006831173643500149,0.031039999199474852,0.00041906455122170654,-0.0013799074834280685,0.0620896985572759
57.503,126,57,503000000,,10.842218359707166,0.9995035265132964,0.00023173173736869707,-0.0006919168141724912,0.03149869900500876,0.00041964484072301713,-0.0013977455432565462,0.06300754349935517
57.513,127,57,513000000,,10.856338084425532,0.9994888729116447,0.00023252820855364974,-0.0007007749917032401,0.03196009654011402,0.0004200254746569063,-0.0014156973341214285,0.06393080005917971
57.523,128,57,523000000,,10.87057765655708,0.9994739189659055,0.00023324723405345686,-0.0007097017868947594,0.032424176566820104,0.0004202265064234269,-0.0014337830427369619,0.0648594381672199
57.533,129,57,533000000,,10.884934400633819,0.9994586614198049,0.00023389425482599343,-0.0007187039445135011,0.032890923840009745,0.0004202580596758109,-0.001452016271152057,0.06579342775394596
57.543,130,57,543000000,,10.899409278882473,0.9994430970393082,0.00023446433777711168,-0.0007277702611222176,0.033360323100913414,0.00042011069217521576,-0.0014703740693706713,0.06673273874982825
57.555,131,57,555000000,,10.913745112889204,0.9994272228951495,0.00023492396630741822,-0.0007364991891762029,0.0338323590038228,0.00041974428157234335,-0.0014880512917036692,0.06767734108533706
57.563,132,57,563000000,,10.9287142847196,0.9994110348673139,0.00023534691537910958,-0.0007460657046906185,0.034307016530713746,0.0004192265201514223,-0.0015074012679079658,0.06862720469094279
57.576,133,57,576000000,,10.94382062810724,0.999394530316883,0.0002356987934665633,-0.0007556884720606601,0.034784280267224,0.0004185405108632594,-0.0015268596702444385,0.06958229949711567
57.583,134,57,583000000,,10.958496547883618,0.9993777066491629,0.00023588883405927362,-0.0007645972118018766,0.035264134757870394,0.00041755887620597995,-0.00154488026186206,0.07054259543432603
57.593,135,57,593000000,,10.974156318504175,0.9993605591144101,0.00023614852431093662,-0.0007747232573075269,0.0357465652095815,0.00041660817416139565,-0.00156533937166556,0.07150806243304422
57.603,136,57,603000000,,10.988759109836172,0.9993430867123062,0.0002361271192224867,-0.0007833636148100399,0.0362315556628561,0.0004151795755312217,-0.0015828091923099118,0.07247867042374054
57.615,137,57,614000000,,11.004067208132208,0.9993252843773335,0.00023614395393474873,-0.0007928202322076999,0.036719091441294725,0.0004137465133011329,-0.0016019132760163057,0.07345438933688526
57.623,138,57,623000000,,11.019495350193619,0.9993071495736482,0.00023608342587945637,-0.0008023133941506088,0.03720915705607872,0.0004121334537649641,-0.0016210846625027333,0.07443518910294879
57.633,139,57,633000000,,11.035052820032808,0.9992886791348312,0.00023594173076792402,-0.0008118466267941187,0.037701737221491664,0.0004103323081601644,-0.0016403298485652231,0.07542103965240136
57.645,140,57,643000000,,11.053444976361359,0.9992698671803015,0.00023637677848980238,-0.0008244964616679199,0.03819681763008326,0.0004094226816479995,-0.0016658473913504928,0.07641191091571331
57.655,141,57,653000000,,11.066538968680938,0.9992507187318427,0.000235405005115616,-0.0008310541335026042,0.03869438004938808,0.0004061435758317506,-0.0016790813708582636,0.07740777282335495
57.663,142,57,663000000,,11.082461554923752,0.9992312224932856,0.00023502906657056746,-0.0008407214827308708,0.03919441214383034,0.00040379418791447854,-0.0016985747789084616,0.07840859530579665
57.673,143,57,673000000,,11.098873819316127,0.9992113777210488,0.00023469060035439209,-0.0008507997756185308,0.03969689777384874,0.00040146341666257067,-0.0017188914558984455,0.07941434829350864
57.683,144,57,683000000,,11.114655579706898,0.9991911823643166,0.00023408315470656502,-0.0008601514419783508,0.04020182122706227,0.00039862895167905164,-0.001737733485498286,0.08042500171696132
57.694,145,57,694000000,,11.131322249093643,0.9991706319033943,0.00023362431446058248,-0.0008702997778362383,0.040709167760444316,0.00039600337091039807,-0.0017581781665630828,0.08144052550662495
57.703,146,57,703000000,,11.147317283626917,0.9991497247219001,0.0002328686861006318,-0.0008797000337425797,0.04121892148246151,0.0003928214243752897,-0.001777102220655027,0.08246088959296988
57.713,147,57,713000000,,11.163824551777687,0.9991284566493458,0.00023214755401666643,-0.0008895080785835838,0.041731067520343945,0.00038965085022594944,-0.001796842164860507,0.08348606390646635
57.723,148,57,723000000,,11.180448007132856,0.9991068249947613,0.00023135267507090092,-0.0008993414329112525,0.0422455904185756,0.00038630630068339176,-0.001816624587132147,0.0845160183775848
57.733,149,57,733000000,,11.196749572949276,0.9990848271030971,0.00023035257723566307,-0.0009088166822242238,0.042762474698065815,0.00038255768272456005,-0.0018356718391091497,0.08555072293679541
57.743,150,57,743000000,,11.214047009786222,0.9990624587814521,0.00022955877015794053,-0.0009190872043344693,0.043281705546819024,0.0003791284375066605,-0.0018563235007140327,0.08659014751456863
57.753,151,57,753000000,,11.231022025221902,0.9990397181912586,0.00022857114481682125,-0.0009289881112261793,0.04380326714586097,0.00037531854479409967,-0.0018762174682954457,0.08763426204137467
57.763,152,57,763000000,,11.248113385132417,0.9990166019514429,0.00022752865545653227,-0.0009388986644936239,0.04432714434069869,0.0003713730913289634,-0.0018961232340456377,0.0886830364476839
57.773,153,57,773000000,,11.265320967976454,0.9989931070884368,0.0002264223834697553,-0.0009488132987026506,0.04485332179470929,0.0003672746267538113,-0.0019160286550330993,0.08973644066396662
57.785,154,57,784000000,,11.283632487028973,0.9989692297951783,0.00022555817324636707,-0.0009595193459471955,0.04538178454581931,0.00036356263917632157,-0.0019375342810935279,0.09079444462069314
57.794,155,57,792000000,,11.300087255865588,0.9989449696452847,0.0002239863921282494,-0.0009686659446699754,0.045912516123219456,0.00035855307124814606,-0.0019558567500503644,0.09185701824833382
57.804,156,57,803000000,,11.317649094903242,0.9989203211755238,0.0002226682993087704,-0.0009786082078423873,0.04644550233760672,0.000353952576772187,-0.001975788418091709,0.09292413147735885
57.813,157,57,812000000,,11.335330345144412,0.9988952823140119,0.00022129061526833874,-0.0009885582454274109,0.04698072747275413,0.00034920663471393675,-0.0019957264482807317,0.0939957542382387
57.823,158,57,823000000,,11.353130239404846,0.9988698501645633,0.00021985525180094327,-0.0009985127664980079,0.04751817618707924,0.0003443192599925892,-0.002015664201007467,0.09507185646144359
57.833,159,57,833000000,,11.371048060320653,0.9988440218568889,0.00021836773297018034,-0.0010084593518884224,0.0480578331390781,0.00033930257623912796,-0.0020355771557475197,0.09615240807744385
57.843,160,57,842000000,,11.389081219949093,0.9988177945361343,0.00021682258796689276,-0.00101839127307986,0.048599682973792274,0.00033414624428912534,-0.002055451116116943,0.09723737901670985
57.853,161,57,853000000,,11.407805170804824,0.9987911648909441,0.0002153951135551871,-0.0010287149907932118,0.04914371054574116,0.0003291604446021118,-0.0020761150096473254,0.09832673920971186
57.866,162,57,864000000,,11.426669196413878,0.9987641305452039,0.0002139035911676897,-0.001039033692017511,0.049689900286913856,0.0003240202253340674,-0.0020967583966253105,0.0994204585869202
57.873,163,57,873000000,,11.4438848269811,0.9987366901256043,0.00021176708850387864,-0.001048131139731917,0.05023823616297716,0.0003176873184597498,-0.002114893237207156,0.10051850707880516
57.883,164,57,883000000,,11.462388431340427,0.9987088384592246,0.00020996763132819976,-0.001058039529456247,0.05078870395446329,0.00031192086127333237,-0.0021346764479802088,0.10162085461583713
57.893,165,57,893000000,,11.481630145902981,0.998680573255341,0.00020831488399021875,-0.001068338027723223,0.05134128807452273,0.0003063810710153314,-0.0021552488454090035,0.10272747112848633
57.903,166,57,903000000,,11.499747222342881,0.998651893258714,0.00020619696614155973,-0.001077783506347853,0.05189597244787479,0.0002999734483616915,-0.0021740643750610975,0.10383832654722315
57.913,167,57,913000000,,11.518598784068992,0.9986227942533248,0.0002042307642623219,-0.0010876121511497424,0.052452742419108946,0.00029380322406321804,-0.0021936552575900744,0.10495339080251785
57.923,168,57,923000000,,11.539534013250488,0.9985932724666542,0.00020285194232285556,-0.0010986768084565463,0.05301158311821044,0.0002886486885066455,-0.00221577135738913,0.10607263382484078
57.933,169,57,933000000,,11.55664951609449,0.9985633298985022,0.00020010510957627577,-0.0011071843151894013,0.053572476915411074,0.0002810067408190708,-0.002232629420707044,0.10719602554466229
57.943,170,57,943000000,,11.57584626082938,0.9985329591751669,0.00019794864140007293,-0.001116945182964674,0.05413541069095253,0.0002743846121687632,-0.0022520471231836604,0.10832353589245261
57.953,171,57,953000000,,11.59515602355805,0.9985021592312165,0.00019573729569032834,-0.0011266779519975908,0.05470036831961896,0.00026762952045130187,-0.002271396493105431,0.10945513479868216
57.963,172,57,963000000,,11.61457780576577,0.9984709274412328,0.00019348763227255885,-0.0011363808340264468,0.055267334437085945,0.0002607747592063379,-0.0022906755451876275,0.11059079219382113
57.973,173,57,973000000,,11.634110785541456,0.9984392612134855,0.00019119650039639292,-0.0011460463814171467,0.05583629365438839,0.0002538149004549074,-0.0023098688666888,0.11173047800833993
57.983,174,57,982000000,,11.653754875044909,0.9984071579835685,0.00018884686682739787,-0.0011556661046456583,0.056407230563899374,0.0002467169499714401,-0.0023289573851446354,0.11287416217270889
57.993,175,57,991000000,,11.673511343405407,0.9983746152037207,0.00018642746212129273,-0.001165235587750697,0.05698012976159995,0.00023945900386216729,-0.002347930742320025,0.11402181461739821
58.003,176,58,3000000,,11.693380361629243,0.998341630336195,0.00018393997101769048,-0.0011747587036345926,0.05755497585563879,0.0002320440954576002,-0.002366796569748371,0.11517340527287835
58.013,177,58,13000000,,11.7133614858359,0.9983082008563511,0.0001813970632350057,-0.0011842454182816454,0.058131753464435575,0.00022449646697068976,-0.002385575947219801,0.11632890406961954
58.023,178,58,23000000,,11.734237633900259,0.9982743236675341,0.00017906510817734052,-0.0011941511764521863,0.05871044749260567,0.00021729452986724487,-0.002405209220356471,0.1174882809380921
58.034,179,58,33000000,,11.752858988374104,0.9982399987342844,0.00017594304246675339,-0.0012026555066887326,0.05929104140385605,0.00020865398357148605,-0.002421943723157536,0.11865150580876632
58.047,180,58,46000000,,11.773970763404405,0.9982052200045181,0.00017353496587280885,-0.001212462114121594,0.059873521501320456,0.00020125886578751764,-0.002441354746933605,0.1198185486121126
58.053,181,58,53000000,,11.794398034030923,0.998169987528521,0.00017081542794931742,-0.0012217312623571538,0.060457871217273376,0.0001932797103896399,-0.0024596477121997047,0.12098937927860119
58.065,182,58,65000000,,11.815775418411615,0.9981342976458478,0.0001682972391341459,-0.001231405026607283,0.06104407572180956,0.00018562710111865273,-0.0024787648198874254,0.12216396773870243
58.073,183,58,73000000,,11.837288422953849,0.998098148583102,0.00016572762849989192,-0.001241047044493523,0.06163211931753328,0.000177848715038552,-0.0024978044020855027,0.12334228392288663
58.083,184,58,83000000,,11.857223552078679,0.9980615392949737,0.00016257790307169177,-0.0012497227771347472,0.0622219859981472,0.00016900557334253367,-0.0025148349680960027,0.12452429776162412
58.094,185,58,93000000,,11.87636223677816,0.9980244668990189,0.0001591103490320421,-0.001257851524222494,0.06281366065092135,0.00015957203662991847,-0.0025307245021055406,0.1257099791853852
58.103,186,58,103000000,,11.898218319530356,0.9979869264647054,0.00015641616990714102,-0.0012673284584246362,0.06340712907939347,0.0001514877598806515,-0.00254939302822838,0.12689929812464013
58.114,187,58,113000000,,11.920206019683757,0.9979489176890485,0.00015368356601858085,-0.0012767399308741536,0.06400237495411641,0.0001433083941926703,-0.0025679175130318833,0.12809222450985935
58.124,188,58,123000000,,11.939582746835251,0.9979104404269413,0.00015007383739650785,-0.0012846086990629712,0.06459938192615937,0.0001335510883918914,-0.002583241092646224,0.12928872827151308
58.133,189,58,133000000,,11.965502188116554,0.9978714855070591,0.0001483662403293193,-0.0012958576906944603,0.06519813764395026,0.0001271262969681521,-0.0026055482308808674,0.13048877934007166
58.143,190,58,143000000,,11.983207358222446,0.9978320619914204,0.0001440690694810049,-0.0013025687742092894,0.06579862172296576,0.00011609941152035894,-0.002618451856262546,0.1316923476460054
58.154,191,58,153000000,,12.004716957211187,0.9977921585268709,0.00014084996890488955,-0.0013112121941602894,0.06640082278222126,0.00010694722351499613,-0.0026353426490657887,0.13289940311978463
58.163,192,58,163000000,,12.026330164821148,0.997751775847513,0.00013759385611283807,-0.0013197727872344017,0.06700472416818888,9.770734917997678e-05,-0.0026520532699270535,0.13410991569187963
58.177,193,58,172000000,,12.048047919663881,0.9977109118609198,0.0001343077700010954,-0.0013282448996983053,0.06761031046047056,8.839487014068982e-05,-0.0026685732074356386,0.13532385529276084
58.183,194,58,182000000,,12.06987168654707,0.9976695645084921,0.00013098729507232389,-0.0013366205415550987,0.06821756622228674,7.900235947736386e-05,-0.0026848857618797673,0.1365411918528984
58.193,195,58,193000000,,12.091800386565875,0.9976277317446366,0.00012762004596815875,-0.0013449045495198995,0.06882647600253786,6.950476615038598e-05,-0.0027009987105041486,0.1377618953027627
58.204,196,58,202000000,,12.113832714272831,0.9975854115396016,0.0001241946294482521,-0.0013531107827835732,0.06943702434773097,5.987774935662544e-05,-0.0027169379078469135,0.13898593557282407
58.213,197,58,212000000,,12.14010907338299,0.9975425987734964,0.00012191798261581122,-0.0013633611050372805,0.07004919710262213,5.223225657302591e-05,-0.002737105490775859,0.1402132825935529
58.223,198,58,222000000,,12.158205280930016,0.997499300900003,0.00011719420959294303,-0.0013692814740935526,0.070662975013561,4.0287431253394854e-05,-0.002748280668943059,0.14144390629541934
58.233,199,58,233000000,,12.180539892863813,0.9974555065932227,0.00011364103307984085,-0.001377234519156694,0.07127834648511792,3.0369865930101715e-05,-0.002763664117936895,0.1426777766088938
58.246,200,58,243000000,,12.202971563052408,0.9974112171101346,0.00011005496490053405,-0.001385083567924821,0.07189529479941414,2.0378208785589475e-05,-0.0027788242191400343,0.14391486346444665
58.253,201,58,253000000,,12.226595653779414,0.9973664297575153,0.00010674185356838995,-0.00139338020815716,0.07251380482721519,1.0842924219500397e-05,-0.002794905441612978,0.14515513679254813
58.263,202,58,263000000,,12.248130461175348,0.9973211451879271,0.00010277530463064762,-0.0014004623969821215,0.07313386016991781,1.5752741555760944e-07,-0.0028084579245377613,0.1463985665236685
58.273,203,58,273000000,,12.275337958114337,0.9972753557199627,0.00010030940990327889,-0.0014102357370297208,0.07375544757379085,-7.952962844682791e-06,-0.0028275871913131193,0.14764512258827817
58.283,204,58,283000000,,12.293677524890162,0.9972290705487001,9.530479384043635e-05,-0.0014154304772665772,0.07437854748605922,-2.0473986378524593e-05,-0.0028371979092369987,0.1488947749168474
58.295,205,58,295000000,,12.313128472622033,0.9971822803454446,9.055357979113795e-05,-0.0014210767123757778,0.07500314730786695,-3.257373369438533e-05,-0.0028477324891383665,0.15014749343984657
58.303,206,58,303000000,,12.339602549378881,0.9971349790507016,8.766872096231978e-05,-0.0014300193812709922,0.07562923318612523,-4.1467612225808686e-05,-0.0028651092477272847,0.15140324808774597
58.313,207,58,313000000,,12.362708625743727,0.9970871727653319,8.381553993095023e-05,-0.001437129404433867,0.07625678685118754,-5.203915749725617e-05,-0.00287867357286837,0.15266200879101588
58.323,208,58,323000000,,12.385907285439353,0.9970388572223216,7.993709906564694e-05,-0.0014441305396260004,0.07688579378436529,-6.266572002979834e-05,-0.0028920046117497347,0.15392374548012666
58.333,209,58,333000000,,12.409198278893157,0.9969900308259889,7.601641915540788e-05,-0.0014510072651197131,0.0775162385117734,-7.337833603768128e-05,-0.0029050686558995775,0.15518842808554856
58.343,210,58,343000000,,12.432581088382076,0.9969406919723479,7.204738448813383e-05,-0.0014577706086127944,0.07814810556707723,-8.419044263663831e-05,-0.0029178865523017744,0.15645602653775204
58.353,211,58,353000000,,12.45605474427449,0.9968908390846233,6.803141077230289e-05,-0.0014644337129498474,0.07878137949276535,-9.51008443196766e-05,-0.0029304845169228705,0.1577265107672072
58.364,212,58,363000000,,12.47836283243718,0.996840471576434,6.36499673705988e-05,-0.001470389452458205,0.07941604454272627,-0.00010664776313844474,-0.002941601329953159,0.1589998507043846
58.373,213,58,373000000,,12.503271669879743,0.9967895851756919,5.989646095533628e-05,-0.0014774282687948803,0.08005208619015933,-0.000117134604954609,-0.0029549641960316584,0.16027601627975432
58.383,214,58,383000000,,12.52701469870302,0.9967381812451259,5.579819792429079e-05,-0.001483727442234637,0.0806894880860985,-0.0001282105915083156,-0.0029667845927036844,0.16155497742378683
58.393,215,58,393000000,,12.550845548667683,0.9966862574275586,5.167724743890803e-05,-0.0014898876404048126,0.08132823506831811,-0.00013932847819597192,-0.0029783111143620606,0.16283670406695233
58.404,216,58,402000000,,12.574764545885843,0.9966338123243007,4.7516277360704415e-05,-0.0014959141933265207,0.08196831165066261,-0.00015052313750754857,-0.0029895514420155127,0.16412116613972136
58.415,217,58,414000000,,12.601425329215775,0.996580842584595,4.396967720362472e-05,-0.0015030777101597771,0.08260970292552487,-0.0001606996556661044,-0.003003146059835439,0.16540833357256396
58.423,218,58,423000000,,12.62286542409598,0.9965273527924391,3.9048275130334635e-05,-0.0015076087688876132,0.0832523917225548,-0.0001731995092112521,-0.0030112530264337035,0.16669817629595057
58.433,219,58,432000000,,12.648401484979141,0.9964733347486743,3.5101481763622297e-05,-0.0015139048883310822,0.08389636460974768,-0.00018406769392381942,-0.0030230260829725575,0.16799066424035153
58.442,220,58,443000000,,12.671305261548026,0.9964187921820219,3.0465778115529502e-05,-0.0015187918144696892,0.08454160472679433,-0.0001960897493192316,-0.003031861307143785,0.16928576733623718
58.452,221,58,453000000,,12.69842320099477,0.996363718824777,2.682226809248862e-05,-0.0015254669962374236,0.08518809799889783,-0.00020645475259589824,-0.0030444145174735207,0.17058345551407772
58.463,222,58,463000000,,12.720073686141092,0.9963081206422283,2.181796789214852e-05,-0.001529397843371239,0.08583582706867789,-0.00021908044201912342,-0.0030512532433250856,0.1718836987043435
58.473,223,58,473000000,,12.744578280149705,0.9962519903167096,1.7432333481390592e-05,-0.0015344886130556836,0.08648477802945938,-0.0002306869027486975,-0.0030604947104837235,0.17318646683750488
58.483,224,58,483000000,,12.767728993082573,0.9961953298335828,1.2656336795595775e-05,-0.0015387737266855908,0.08713493463011461,-0.00024294667476167737,-0.0030680488317642507,0.17449172984403227
58.493,225,58,493000000,,12.793831044300187,0.9961381349407908,8.529763514987331e-06,-0.0015442475095078412,0.08778628220602142,-0.00025413505653045166,-0.003078070121005322,0.17579945765439575
58.503,226,58,503000000,,12.820044370245842,0.9960804066715859,4.390959704119265e-06,-0.0015495907925265253,0.08843880479779867,-0.00026534168545464383,-0.0030878156228932334,0.17710962019906584
58.513,227,58,513000000,,12.843413577869867,0.9960221461660018,-4.2444914775361135e-07,-0.0015534469703453208,0.08909248649129754,-0.00027764776084647345,-0.003094464478870504,0.17842218740851268
58.523,228,58,523000000,,12.86832142909042,0.9959633492684098,-4.914994749021206e-06,-0.0015578132476581307,0.08974731253792348,-0.0002894108106980909,-0.003102172559815596,0.17973712921320675
58.533,229,58,532000000,,12.893304814012561,0.995904016110257,-9.444684625490278e-06,-0.0015620135935304866,0.09040326719644852,-0.00030123572412372866,-0.0031095285724259927,0.18105441554361829
58.543,230,58,543000000,,12.918363466642068,0.9958441457605295,-1.4026345225592922e-05,-0.0015660623207337612,0.09106033497934468,-0.0003131499525274541,-0.003116558545761946,0.1823740163302176
58.553,231,58,553000000,,12.943496671958815,0.9957837373390839,-1.865063497911472e-05,-0.0015699619613979286,0.09171850043802372,-0.00032513470323551223,-0.0031232690400703257,0.18369590150347512
58.563,232,58,563000000,,12.968702957354084,0.99572279000073,-2.329480965302126e-05,-0.0015737147683037454,0.09237774814500571,-0.00033714445627853296,-0.0031296685844935043,0.18502004099386093
58.573,233,58,573000000,,12.99241075692656,0.9956613040670964,-2.82806123945137e-05,-0.0015766150672977752,0.09303806247200858,-0.00034968796983945836,-0.0031342920128363564,0.18634640473184558
58.584,234,58,583000000,,13.01774781270483,0.9955992765602429,-3.292001812563744e-05,-0.0015800475511096419,0.09369942837994938,-0.0003616511879423952,-0.003140024383844825,0.18767496264789923
58.593,235,58,593000000,,13.04475958077088,0.9955367067479013,-3.724146423116515e-05,-0.0015840151031847433,0.09436183034876722,-0.00037309347416769004,-0.0031468672068503214,0.18900568467249226
58.604,236,58,603000000,,13.070253082127115,0.9954735962003523,-4.194770604718697e-05,-0.0015871022393914897,0.09502525251116,-0.0003851471723016176,-0.00315186978344244,0.190338540736095
58.613,237,58,613000000,,13.095813862882414,0.995409943118268,-4.669942467869738e-05,-0.0015900251056653648,0.0956896795930126,-0.0003972701187120334,-0.003156521535736482,0.19167350076917775
58.623,238,58,623000000,,13.119791622624572,0.9953457480377745,-5.183439730956568e-05,-0.0015920599558435183,0.09635509598051965,-0.00040999453125225774,-0.0031593164543523705,0.1930105347022108
58.636,239,58,636000000,,13.147135678763517,0.9952810068779198,-5.6267269951883745e-05,-0.0015953944245608767,0.09702148678874616,-0.0004215806921330538,-0.0031648185532869837,0.1943496124656645
58.643,240,58,643000000,,13.172899079654433,0.9952157226028278,-6.104249034741266e-05,-0.0015978321510598111,0.09768883605798039,-0.0004336838088781925,-0.0031684543193695653,0.19569070399000912
58.653,241,58,653000000,,13.198729459782223,0.9951498935622252,-6.582198025588949e-05,-0.0016000890241849525,0.09835712849444751,-0.0004457680537231503,-0.0031717140400588308,0.19703377920571502
58.663,242,58,663000000,,13.224619686194798,0.9950835193065434,-7.063039974984829e-05,-0.0016021536503000825,0.0990263486125357,-0.00045787946854525583,-0.0031745701766062117,0.19837880804325253
58.673,243,58,673000000,,13.250569191330452,0.9950165993944453,-7.548671241283225e-05,-0.0016040330720666967,0.09969648092672995,-0.0004700563584930802,-0.0031770328907804834,0.19972576043309193
58.683,244,58,683000000,,13.276578142897094,0.9949491334152744,-8.03801143367798e-05,-0.001605737279482602,0.10036750999711609,-0.00048227841095533394,-0.0031791240807107885,0.2010746063057036
58.693,245,58,693000000,,13.302649663599894,0.994881120986418,-8.527525119110914e-05,-0.0016072816001086547,0.10103942041994335,-0.0004944775993600603,-0.003180881280227304,0.20242531559155771
58.703,246,58,703000000,,13.32700748642131,0.9948125630069552,-9.049755999997213e-05,-0.0016078993166722352,0.10171219668020139,-0.0005071447494095384,-0.003180712832482404,0.20377785822112468
58.713,247,58,713000000,,13.354973176964089,0.994743455615801,-9.502246560537609e-05,-0.001609844702049138,0.10238582362954946,-0.0005186991544349281,-0.003183312433368718,0.20513220412487485
58.723,248,58,723000000,,13.379413808721234,0.9946738034395466,-0.00010026406127812242,-0.0016100535512800938,0.10306028539542487,-0.0005313279427302496,-0.0031822950648277486,0.20648832323327845
58.734,249,58,733000000,,13.407521415477104,0.9946036013898163,-0.00010484201116834279,-0.0016116066539495378,0.1037355668734365,-0.0005429171222224758,-0.0031840732533534527,0.20784618547680586
58.742,250,58,743000000,,13.433878217425818,0.9945328529684547,-0.00010980507139497314,-0.0016121915300760735,0.10441165235615542,-0.0005550755068288503,-0.0031838304049533073,0.20920576078592734
58.753,251,58,753000000,,13.46029077252995,0.994461556779946,-0.00011477580047785515,-0.0016126090645807794,0.1050885265161076,-0.0005672165675504836,-0.003183237578132851,0.2105670190911133
58.763,252,58,763000000,,13.486756601096538,0.9943897127341667,-0.00011973387503376494,-0.0016128612849247218,0.10576617394392251,-0.0005792995673133964,-0.003182303123107872,0.21192993032283397
58.775,253,58,775000000,,13.50761310416038,0.99431732455782,-0.00012572686968753273,-0.001610546022726713,0.10644457909373255,-0.0005928956214324776,-0.003176027076846901,0.21329446441155972
58.783,254,58,783000000,,13.539843619561724,0.9942443811115816,-0.0001296435881342754,-0.001612749103824347,0.10712372688119186,-0.0006033252926780899,-0.003179163015924253,0.21466059128776083
58.793,255,58,793000000,,13.566463510449449,0.9941708935986967,-0.00013463009083126244,-0.0016123594109834479,0.10780360148453924,-0.000615330082193148,-0.003176899719428706,0.21602828088190767
58.803,256,58,803000000,,13.593128652554517,0.9940968583174342,-0.00013963071562849807,-0.0016117781764101366,0.10848418759330986,-0.0006273210050756515,-0.0031742371239356143,0.21739750312447043
58.819,257,58,816000000,,13.621787416245985,0.994022274110268,-0.00014429227577834983,-0.0016118185240632315,0.1091654697852572,-0.0006387725837169924,-0.0031728688849350954,0.21876822794591944
58.823,258,58,823000000,,13.646599141862609,0.9939471448768792,-0.0001496563426601209,-0.0016100750171059756,0.10984743261687184,-0.0006512295164270305,-0.0031677855005953688,0.22014042527672523
58.833,259,58,833000000,,13.673405546998046,0.9938714670600199,-0.00015465438133209595,-0.0016089508234335532,0.1105300607221114,-0.0006630913858042736,-0.0031639979933739825,0.2215140650473579
58.843,260,58,843000000,,13.710211519580781,0.9937952359087822,-0.0001579088490592803,-0.00161166796777681,0.11121333857125791,-0.0006723394995259357,-0.0031682180561170272,0.22288911718828794
58.853,261,58,853000000,,13.727133943140762,0.9937184706105331,-0.00016463438494205304,-0.001606008119239496,0.1118972510873408,-0.0006866197172271092,-0.0031550008280182614,0.2242655516299854
58.863,262,58,863000000,,13.754052497762444,0.9936411525534113,-0.00016964666440747508,-0.0016041913115824088,0.11258178246312,-0.0006983447697924929,-0.003149787968036038,0.22564333830292085
58.873,263,58,873000000,,13.78100850307953,0.9935632883631581,-0.000174682983030855,-0.0016021637265966069,0.11326691738648381,-0.0007100650603733393,-0.003144135695641222,0.22702244713756442
58.883,264,58,883000000,,13.80800292381117,0.9934848783699785,-0.00017971354749645897,-0.0015999639596424935,0.1139526404632985,-0.0007217292358392356,-0.003138127483784218,0.22840284806438663
58.894,265,58,894000000,,13.832954907884341,0.993405924279328,-0.00018506483129001044,-0.001596753142383278,0.11463893639224358,-0.0007337928237526127,-0.0031300219024859213,0.22978451101385763
58.903,266,58,903000000,,13.86209917436761,0.9933264228507426,-0.00018971295954414938,-0.0015949726413782752,0.11532578956076496,-0.0007447804545866512,-0.0031249044289053843,0.23116740591644774
58.915,267,58,914000000,,13.88497780091978,0.9932463809406427,-0.00019539791211328606,-0.0015904340851368686,0.1160131849721946,-0.0007571829291844222,-0.0031140533631285336,0.2325515027026274
58.923,268,58,923000000,,13.916333809176917,0.9931657902126276,-0.00019971163495159856,-0.0015890237261821324,0.11670110655082595,-0.000767578968596295,-0.0031097198837956074,0.2339367713028669
58.933,269,58,933000000,,13.943501501351031,0.9930846588357432,-0.0002047260266606154,-0.0015857165325110446,0.11738953946339627,-0.0007789174445626903,-0.003101441107518152,0.2353231816476364
58.943,270,58,943000000,,13.97069896747028,0.9930029848532339,-0.00020973642859386946,-0.0015822295977407448,0.11807846811632826,-0.0007901961549578142,-0.003092791644774912,0.23671070366740635
58.953,271,58,952000000,,14.006606913665017,0.992920763954051,-0.0002133623442427398,-0.0015819190574114833,0.11876787662288751,-0.0007994700423238216,-0.00309076429376181,0.238099307292647
58.963,272,58,963000000,,14.025179220057334,0.9928380119251248,-0.00021970816824168747,-0.001574638038620265,0.11945775119235262,-0.0008124786087116462,-0.0030742341545230093,0.23948896245382884
58.973,273,58,973000000,,14.050244930648292,0.9927547157907197,-0.00022500693840078268,-0.0015696207695428898,0.12014807504826976,-0.0008239311832363895,-0.0030624333277259786,0.2408796390814218
58.985,274,58,985000000,,14.095269090830532,0.9926708688017628,-0.00022725273910157543,-0.001572053384209312,0.12083883165896327,-0.0008311085388368375,-0.003066146090709294,0.24227130710589667
58.993,275,58,993000000,,14.111548130578214,0.9925864993851098,-0.0002339112192804254,-0.001563129520539157,0.12153000925720693,-0.0008442925444509661,-0.003046232763733869,0.24366393645772347
59.003,276,59,3000000,,14.13442558421933,0.9925015881847777,-0.0002395437326677918,-0.0015566157921472782,0.12222158981444219,-0.0008560032213614707,-0.0030313371026188508,0.24505749706737256
59.014,277,59,14000000,,14.159522393059982,0.9924161387599473,-0.00024483138144317277,-0.0015507314640752624,0.12291355831769729,-0.0008671651301883021,-0.003017760251493348,0.2464519588653142
59.023,278,59,23000000,,14.189184077366402,0.9923301508988325,-0.000249422763578043,-0.0015463133876873587,0.12360589921315379,-0.0008772904501821196,-0.003007251077435505,0.24784729178201895
59.033,279,59,33000000,,14.216594874443501,0.9922436293036976,-0.0002543235337432991,-0.001540788309149476,0.12429859772802282,-0.0008877415614061797,-0.002994455125583461,0.24924346574795692
59.043,280,59,43000000,,14.244022077603287,0.9921565737721261,-0.00025920078356895604,-0.0015350217863502316,0.12499163829562637,-0.0008980694099429533,-0.0029811724670547827,0.25064045069359847
59.053,281,59,53000000,,14.27146627813326,0.9920689853754175,-0.00026407202248181845,-0.0015290217669349769,0.12568500552807613,-0.0009083096692549233,-0.0029674147136205756,0.2520382165494138
59.063,282,59,63000000,,14.298926997192671,0.9919808651975747,-0.0002689447909603406,-0.0015228168524770269,0.12637868403890037,-0.0009184834870146529,-0.002953236873021046,0.2534367332458733
59.075,283,59,73000000,,14.326401276372666,0.9918922144114242,-0.00027380991707360333,-0.0015164039741608457,0.1270726584955149,-0.0009285709614597017,-0.002938635313042419,0.25483597071344766
59.083,284,59,83000000,,14.356270529804224,0.9918030330806769,-0.00027831831442983173,-0.0015106173129870943,0.12776691334699858,-0.0009380918710233174,-0.0029253540941446203,0.2562358988826065
59.093,285,59,93000000,,14.381388920465508,0.991713326069434,-0.0002834441278667699,-0.0015028341137844387,0.12846143407791105,-0.0009483072401122492,-0.002907942055049582,0.25763648768382064
59.103,286,59,103000000,,14.408898360107537,0.9916230910807974,-0.00028820286587975466,-0.0014956600224069515,0.12915620455700152,-0.0009579289289461217,-0.0028918196831817077,0.25903770704756024
59.113,287,59,113000000,,14.436417505118431,0.9915323306048642,-0.0002929511644211376,-0.0014882525750816407,0.1298512096561837,-0.0009674480457387388,-0.0028752249239982187,0.2604395269042957
59.124,288,59,123000000,,14.468834648728821,0.9914410436734387,-0.0002970486809316543,-0.0014823631611367125,0.13054643342988115,-0.0009760511078056686,-0.002861797973758567,0.2618419171844971
59.133,289,59,133000000,,14.491477709995804,0.9913492386790176,-0.00030244282247817,-0.0014727753978064212,0.13124186234391497,-0.0009862366347557737,-0.0028406870406591555,0.2632448478186351
59.143,290,59,143000000,,14.519013344122436,0.9912569101401958,-0.0003071618121906394,-0.0014646824550810034,0.1319374793462373,-0.000995449690164056,-0.002822704647407635,0.2646482887371796
59.153,291,59,153000000,,14.54405514732639,0.9911640630367232,-0.0003121534029848795,-0.0014554626148458932,0.13263327008471287,-0.0010048801175858168,-0.0028024042927436554,0.2660522098706014
59.163,292,59,163000000,,14.574089898460105,0.9910706955162566,-0.0003164574153508541,-0.001447721124834154,0.1333292182800605,-0.0010133144969268037,-0.002785205525567427,0.2674565811493703
59.173,293,59,173000000,,14.601630159693123,0.9909768125516583,-0.0003210508984202934,-0.0014388554440195502,0.13402530957355496,-0.0010219981711598813,-0.002765690396987846,0.2688613725039571
59.183,294,59,183000000,,14.62917264003048,0.990882414594215,-0.0003256374429825785,-0.0014297638577421706,0.1347215282852195,-0.0010305808427589,-0.0027457184293272325,0.27026655386483184
59.193,295,59,193000000,,14.654172489272133,0.9907875044034676,-0.0003305404910492121,-0.0014195768284911607,0.1354178594667646,-0.0010394669296129486,-0.002723479161716207,0.2716720951624649
59.203,296,59,203000000,,14.684286830173415,0.9906920804524453,-0.0003347830711046835,-0.0014108758893766472,0.13611428682664306,-0.0010474186270687052,-0.0027043529186741716,0.27307796632732667
59.213,297,59,213000000,,14.709248885583422,0.9905961488435464,-0.00033959565473912147,-0.0014001846718469206,0.13681079655498873,-0.001055929047493193,-0.002681117595292399,0.2744841372898873
59.223,298,59,223000000,,14.736776486252761,0.9904997081390398,-0.0003440319593153177,-0.0013901017665856657,0.13750737229533036,-0.0010638295548324904,-0.002659180060699542,0.27589057798061695
59.234,299,59,232000000,,14.766917571394774,0.9904027602022686,-0.00034813171391967734,-0.0013806266090481676,0.13820399870555014,-0.001071201390564102,-0.002638529480441497,0.2772972583299866
59.243,300,59,243000000,,14.794444559710946,0.9903053089892567,-0.0003525324452340029,-0.0013700418698593313,0.13890066124336095,-0.0010788328471019596,-0.002615588477350943,0.2787041482684658
59.254,301,59,253000000,,14.82725917526701,0.9902073533237882,-0.00035631225093214205,-0.0013609408387257617,0.13959734347440786,-0.0010856173439703855,-0.002595749679524499,0.28011121772652553
59.268,302,59,264000000,,14.846789098778604,0.9901089022948053,-0.00036159192027786485,-0.001347280957072111,0.14029403295180312,-0.0010940655378968633,-0.0025664541788257447,0.28151843663463544
59.273,303,59,273000000,,14.876943146770596,0.9900099488167621,-0.00036556421201014064,-0.0013368018299427067,0.14099071092631182,-0.0011007814782636471,-0.0025438146496986444,0.28292577492326637
59.283,304,59,283000000,,14.904415712151783,0.9899104999790697,-0.0003697756970904945,-0.0013251961799127757,0.14168736412329444,-0.00110762053796334,-0.002518868801957393,0.2843332025228884
59.293,305,59,293000000,,14.931872866392162,0.989810556833029,-0.0003739657614574495,-0.0013133446413270478,0.14238397682798204,-0.0011143126776876557,-0.002493433900564215,0.2857406893639719
59.303,306,59,303000000,,14.959312294351907,0.9897101215130006,-0.0003781521904600157,-0.0013012400507643948,0.14308053379119295,-0.0011208899898356205,-0.0024674909668790652,0.2871482053769871
59.313,307,59,313000000,,14.98672968189185,0.9896091962098228,-0.0003823210794483152,-0.0012888680691494382,0.14377701981415855,-0.0011273197294591705,-0.0024410158411877015,0.2885557204924045
59.323,308,59,323000000,,15.01412592257071,0.9895077831392303,-0.0003864421260963274,-0.0012762318443527922,0.14447341970635488,-0.001133541686406029,-0.002414023799827304,0.2899632046406944
59.334,309,59,333000000,,15.038722683925169,0.989405885451283,-0.000390773976229525,-0.0012624967385686684,0.14516971871587855,-0.001139824224781969,-0.0023847885710518496,0.2913706277523269
59.343,310,59,343000000,,15.068854735328529,0.9893035027436998,-0.0003944530675295648,-0.0012501978429994502,0.1458659003029066,-0.0011451935062062415,-0.0023585778935098904,0.29277795975777254
59.356,311,59,354000000,,15.096183500992277,0.9892006400703562,-0.00039837662971626186,-0.0012367806856924003,0.14656195056696533,-0.0011506821912498856,-0.002330076888435113,0.29418517058750143
59.363,312,59,363000000,,15.12066060576872,0.9890972997521752,-0.0004025794135954875,-0.0012222550502980491,0.1472578542739357,-0.0011563570484030292,-0.002299294404441727,0.29559223017198416
59.373,313,59,373000000,,15.150760792400472,0.9889934816515166,-0.0004061930119367245,-0.0012091393111937395,0.1479535948876351,-0.0011612407545513036,-0.002271468314988694,0.29699910844169064
59.383,314,59,383000000,,15.175150287865794,0.9888891916176703,-0.000410322423930507,-0.0011940877602387035,0.14864915906818998,-0.0011665302932873794,-0.002239654665728452,0.29840577532709167
59.393,315,59,393000000,,15.205223934013345,0.9887844288373165,-0.0004137986111978982,-0.0011804524741191392,0.14934452983463214,-0.0011709066154501524,-0.002210830733717682,0.2998122007586572
59.404,316,59,403000000,,15.232412556285144,0.9886791983341132,-0.00041747526580338185,-0.00116572003040162,0.15003969339021067,-0.0011753098368906024,-0.002179772294684618,0.30121835466685765
59.413,317,59,413000000,,15.25956882934915,0.9885735018789327,-0.00042110501412549435,-0.0011507137156401852,0.15073463408034551,-0.001179494333644169,-0.002148181606830107,0.3026242069821634
59.423,318,59,423000000,,15.289605113842683,0.9884673413511946,-0.0004244403683798245,-0.0011362454063075097,0.15142933625573096,-0.001183215589726217,-0.0021177390882084683,0.3040297276350447
59.433,319,59,432000000,,15.313773019372606,0.9883607216883535,-0.00042829208845556843,-0.0011198514327847777,0.1521237861819533,-0.0011873290907414697,-0.0020833290194377306,0.30543488655597195
59.443,320,59,443000000,,15.337874700766813,0.988253644049215,-0.00043206873570197495,-0.001103204120246602,0.15281796779411788,-0.0011911686093244315,-0.0020484366842243797,0.3068396536754153
59.453,321,59,453000000,,15.370796866008236,0.9881461090888747,-0.00043495952408778853,-0.0010887385380160097,0.15351186452885682,-0.0011938784034295196,-0.0020181239751471338,0.30824399892384535
59.463,322,59,463000000,,15.39480762756462,0.988038123867443,-0.0004385675551894486,-0.0010715800350541188,0.1542054641030321,-0.0011971325600279438,-0.0019822661262192103,0.3096478922317321
59.474,323,59,473000000,,15.421738661570966,0.9879296884128246,-0.00044187119180751197,-0.0010549485864766687,0.1548987494651557,-0.0011998983347541157,-0.0019475406977299797,0.31105130352954596
59.483,324,59,482000000,,15.448626969318939,0.9878208063177715,-0.0004451441279501776,-0.0010380190868332772,0.1555917059768565,-0.001202462072171095,-0.0019122333995012907,0.31245420274775737
59.493,325,59,493000000,,15.475472251084105,0.9877114805026425,-0.00044836176936599624,-0.0010208006400797363,0.1562843185385375,-0.0012047768111598412,-0.001876370296897312,0.3138565598168364
59.503,326,59,503000000,,15.502275547001735,0.9876017139125175,-0.00045149761618960935,-0.0010033234013908314,0.15697657203899093,-0.0012067985113802398,-0.0018400197637817495,0.3152583446672537
59.513,327,59,513000000,,15.52903175339255,0.9874915095450856,-0.00045454659216282735,-0.000985599441050684,0.15766845137028898,-0.0012085199349542387,-0.0018032078223817348,0.3166595272294793
59.523,328,59,523000000,,15.552668369624651,0.9873808710355592,-0.0004577622231577914,-0.0009668292626832299,0.15835994192972075,-0.0012101875558999259,-0.0017642759561757888,0.3180600774339838
59.533,329,59,533000000,,15.582391367925464,0.9872697997796669,-0.00046043139898737403,-0.0009493110542737825,0.15905102720342706,-0.001211119931065811,-0.001727988954978472,0.3194599652112371
59.543,330,59,543000000,,15.608993767170116,0.9871583006110523,-0.00046330759072827146,-0.0009307132577047365,0.15974169353555576,-0.0012120653184591135,-0.0016895043610828063,0.32085916049171015
59.553,331,59,553000000,,15.635542888725544,0.987046376118015,-0.0004661253440132745,-0.0009118333795521768,0.1604319253744268,-0.0012127509817535867,-0.0016504816423523292,0.32225763320587264
59.563,332,59,563000000,,15.662039842866168,0.9869340294982244,-0.0004688592726190469,-0.0008926998989118506,0.16112170765067974,-0.0012131348784211004,-0.0016109857002520294,0.3236553532841949
59.573,333,59,573000000,,15.688482359039376,0.9868212640102084,-0.0004714977135684802,-0.0008733116914036331,0.16181102531623162,-0.0012131926545195311,-0.001571018683676482,0.32505229065714775
59.583,334,59,583000000,,15.714867327289545,0.9867080829641892,-0.0004740576852505148,-0.0008536387147768273,0.1624998633334516,-0.001212947166705508,-0.0015305164190062297,0.326448415255201
59.593,335,59,593000000,,15.753871130753115,0.9865944879549842,-0.00047562770541293066,-0.0008366135287998903,0.16318820482170796,-0.0012115559160967033,-0.0014955634868290798,0.3278436970088254
59.603,336,59,603000000,,15.76745514142822,0.9864804875942981,-0.0004790015952287752,-0.0008133743470170351,0.16387604027239333,-0.001211638155203274,-0.0014477625812192691,0.3292381058484909
59.613,337,59,613000000,,15.793651595117225,0.9863660800435953,-0.00048136183633548104,-0.0007928152590352264,0.1645633491217878,-0.0012105361351604012,-0.0014055835894801441,0.33063161170466815
59.623,338,59,623000000,,15.819787272598903,0.9862512704982086,-0.00048364174670899416,-0.0007719922271750208,0.16525011818250263,-0.0012091296054906457,-0.0013629133400715654,0.33202418450782706
59.633,339,59,632000000,,15.845860047639547,0.9861360624562244,-0.0004858326330630186,-0.0007509092418203607,0.165936332444997,-0.0012074017556092359,-0.001319763178477977,0.3334157941884384
59.643,340,59,643000000,,15.878356033415342,0.986020458796323,-0.0004875035814350118,-0.0007309396874862842,0.16662197604913961,-0.0012049595173905029,-0.0012789857005709138,0.33480641067697203
59.654,341,59,654000000,,15.904323494883425,0.9859044644914433,-0.000489544181920438,-0.0007092414493635896,0.167307035772261,-0.0012026109646574423,-0.0012346805644451397,0.3361960039038988
59.663,342,59,663000000,,15.92367276807724,0.9857880830463901,-0.0004919358454137135,-0.0006858513708841075,0.16799149660249077,-0.0012003245182863373,-0.0011869264171994228,0.3375845437996884
59.673,343,59,673000000,,15.949471557009502,0.9856713168578917,-0.00049380727935384,-0.0006635859288982702,0.16867534180109267,-0.0011973255756160515,-0.0011415692574583889,0.3389720002948116
59.683,344,59,683000000,,15.975200759586118,0.9855541702566466,-0.0004955975144246195,-0.0006410592718049954,0.1693585572560382,-0.001194015141491056,-0.0010957301366330077,0.3403583433197384
59.693,345,59,693000000,,16.00417730107653,0.9854366467467209,-0.0004970960914499969,-0.0006189241196096341,0.1700411276044365,-0.0011901994593967761,-0.0010507676515627044,0.34174354280493957
59.703,346,59,703000000,,16.026451096427504,0.9853187508479077,-0.0004989264313348477,-0.0005951507841482355,0.17072303914668074,-0.0011864159118880925,-0.0010024701489747844,0.34312756868088506
59.714,347,59,713000000,,16.04862144645849,0.9852004858637409,-0.0005006624574864407,-0.0005710693843918258,0.17140427611559447,-0.0011822740746076379,-0.0009536044422505427,0.34451039087804514
59.725,348,59,724000000,,16.07068556808459,0.9850818556352079,-0.0005022998550042863,-0.0005467165166716791,0.17208482354409266,-0.0011777769309094807,-0.0009042448008966977,0.34589197932689036
59.733,349,59,733000000,,16.102773594610788,0.9849628635411932,-0.0005032523431303436,-0.0005240203149591839,0.17276466532402263,-0.0011724348271734688,-0.0008583927600991056,0.34727230395789094
59.745,350,59,745000000,,16.131451412694336,0.984843514285886,-0.0005043161277834853,-0.0005003997253474874,0.1734437881112604,-0.0011669280313643168,-0.000810689937701107,0.3486513347015172
59.753,351,59,753000000,,16.153277889563633,0.9847238119301737,-0.0005056790294758771,-0.0004752493116308762,0.17412217734831714,-0.00116141184929526,-0.0007598788333569251,0.3500290414882396
59.767,352,59,765000000,,16.185234414538783,0.9846037598136603,-0.0005063801608007272,-0.0004516211774048349,0.17479981629924213,-0.0011550547679949484,-0.0007123055606322868,0.3514053942485279
59.773,353,59,773000000,,16.203455761255796,0.9844833628478091,-0.0005077268936368532,-0.0004252492179491758,0.17547669261862955,-0.001148940514266855,-0.0006591131358952591,0.35278036291285325
59.783,354,59,783000000,,16.228418378891092,0.9843626244087129,-0.0005085970715143529,-0.00039980890297163093,0.17615278921734712,-0.0011421432623665501,-0.0006079323339589697,0.3541539174116852
59.793,355,59,793000000,,16.24983727496876,0.9842415489177947,-0.0005095577751697732,-0.0003735274179346086,0.17682809225923957,-0.0011351565678972692,-0.0005550741787279182,0.35552602767549474
59.803,356,59,803000000,,16.278081392431087,0.9841201403526927,-0.0005100692598393335,-0.00034812470363622313,0.1775025858705646,-0.0011275253155439283,-0.0005041158605683679,0.3568966636347515
59.813,357,59,813000000,,16.302783482382537,0.983998403129494,-0.0005106627476338012,-0.00032184319968201684,0.17817625621591388,-0.0011196726372625376,-0.00045141045129649346,0.3582657952199263
59.823,358,59,823000000,,16.32739842807459,0.9838763414372408,-0.0005111456797280017,-0.0002952484770019304,0.17884908811201988,-0.0011114184412829597,-0.00039814011583021646,0.3596333923614892
59.833,359,59,833000000,,16.35192181024288,0.9837539595597595,-0.0005115123352652116,-0.0002683595382221488,0.17952106669910425,-0.0011027572403671793,-0.00034434504331524703,0.36099942498991067
59.843,360,59,843000000,,16.376352003041962,0.983631261811429,-0.0005117765167992671,-0.00024119603909370627,0.18019217712354624,-0.0010937223048320785,-0.0002900596830971355,0.36236386303566104
59.855,361,59,854000000,,16.39714970688215,0.9835082525244518,-0.0005121130428686668,-0.00021324445116683292,0.1808624048367554,-0.001084470858600239,-0.00023421136423354029,0.3637266764292107
59.863,362,59,863000000,,16.424925092117913,0.9833849361780079,-0.0005120314414413132,-0.00018602786858019614,0.18153173418333823,-0.0010745881601202918,-0.00017997409727124253,0.36508783510102943
59.873,363,59,873000000,,16.449067753074527,0.9832613171434982,-0.000512003847320586,-0.0001579935176014967,0.18220015120559563,-0.0010644402493983208,-0.00012412347195337012,0.3664473089815882
59.883,364,59,883000000,,16.47311215512405,0.9831373999292452,-0.0005118511407461859,-0.00012965744176347493,0.18286764081630424,-0.0010538604977985357,-6.774013929066914e-05,0.367805068001357
59.894,365,59,893000000,,16.497056241826094,0.9830131890451627,-0.0005115789759194468,-0.00010102960893391861,0.1835341882136103,-0.0010428627247475665,-1.0842412027394895e-05,0.36916108209080617
59.903,366,59,903000000,,16.520899121352638,0.9828886890326183,-0.0005112064601369351,-7.21235670498573e-05,0.18419977860433823,-0.0010314885690529195,4.654935704149188e-05,0.37051532118040614
59.913,367,59,913000000,,16.544640785247626,0.9827639044762878,-0.0005107416475689614,-4.2932686355271623e-05,0.18486439721665165,-0.0010197505441559137,0.00010445050486815021,0.371867755200627
59.923,368,59,923000000,,16.568278007073744,0.9826388400072016,-0.000510172177432012,-1.3438727234047642e-05,0.18552802929220966,-0.0010076166983033175,0.0001628916473968306,0.37321835408193943
59.934,369,59,933000000,,16.591808533274413,0.9825135002982889,-0.0005094763515386462,1.636122093459515e-05,0.18619066007123455,-0.0009950423625792743,0.0002218697190868347,0.3745670877548133
59.945,370,59,943000000,,16.615232980500398,0.9823878900529821,-0.000508648268470848,4.64538964716538e-05,0.18685227479542352,-0.0009820199627328316,0.0002813556664601843,0.3759139261497193
59.953,371,59,953000000,,16.638550709193762,0.9822620140029386,-0.0005076995980294857,7.682899549712673e-05,0.1875128587199146,-0.0009685754180477358,0.00034133282032458757,0.37725883919712744
59.963,372,59,963000000,,16.669113388895603,0.9821358772011693,-0.0005063828063688252,0.00010671994703632227,0.18817239675785588,-0.0009545101684123591,0.00040020152098034,0.3786017968275084
59.975,373,59,973000000,,16.681160182579468,0.9820094834320834,-0.0005056218867008713,0.00013883068918676625,0.18883087544678778,-0.0009406201741811103,0.00046362017037589973,0.3799427689713323
59.983,374,59,983000000,,16.707832323661734,0.9818828388745923,-0.000504219143007963,0.00016972686823840392,0.1894882784749953,-0.0009258460025246752,0.0005243910572372331,0.38128172555906936
59.993,375,59,993000000,,16.73070136590656,0.9817559476720887,-0.0005028137876576182,0.00020129458406393434,0.19014459200635794,-0.0009107309826027252,0.0005864589889137636,0.3826186365211899
60.004,376,60,3000000,,16.75345543123682,0.981628814899273,-0.0005012755127361525,0.00023314514749844106,0.19079980116774087,-0.0008951651875193194,0.0006490105715595859,0.3839534717881645
60.014,377,60,12000000,,16.776092969037897,0.9815014455016711,-0.0004996177884984635,0.000265282101299011,0.19145389127829807,-0.0008791729181989827,0.0007120571314730127,0.3852862012904631
60.024,378,60,23000000,,16.79861383009584,0.9813738444580863,-0.0004978513684511953,0.00029771811951526106,0.19210684766944688,-0.000862769610539692,0.0007756269427983644,0.3866167949585564
60.033,379,60,33000000,,16.82101671244581,0.9812460167919081,-0.0004959712732056868,0.0003304616386935598,0.192758655674955,-0.0008459413892531777,0.0008397339437843742,0.3879452227229144
60.043,380,60,42000000,,16.84329871834356,0.9811179675745739,-0.0004939617811288742,0.000363503411980917,0.19340930062787964,-0.0008286601098459651,0.0009043531860599321,0.3892714545140075
60.053,381,60,53000000,,16.869249460103063,0.980989702093294,-0.0004917083726663782,0.0003965640762756909,0.19405876776564404,-0.0008108086974856672,0.0009688913434837475,0.3905954602623061
60.063,382,60,63000000,,16.883695748083383,0.9808612247529115,-0.0004896340393402967,0.00043068892901041225,0.1947070428663855,-0.0007928102596443613,0.0010355627176545556,0.39191720989828044
60.073,383,60,73000000,,16.90941065345792,0.9807325417881317,-0.00048712666988516963,0.0004643488851281809,0.195354110695195,-0.0007740575738098613,0.0011011287420760604,0.3932366733524009
60.083,384,60,83000000,,16.931197414821575,0.9806036576699639,-0.0004846016075269315,0.00049856558070057,0.1959999570355362,-0.0007549671393882617,0.001167754517957427,0.3945538205551379
60.096,385,60,94000000,,16.945180843751178,0.9804745774660701,-0.00048214038127464975,0.0005334987800086857,0.19664456733516766,-0.0007356341277478296,0.0012357848696975468,0.39586862143696167
60.103,386,60,103000000,,16.97439488659659,0.9803453075096443,-0.00047916097233250245,0.0005678968197467268,0.1972879264977605,-0.0007154087173771495,0.0013025356824704372,0.3971810459283421
60.113,387,60,113000000,,16.995809254908544,0.9802158520572677,-0.00047623620124368166,0.000602986470569482,0.19793002041641328,-0.0006949310074021898,0.0013706371052838954,0.39849106395975015
60.125,388,60,124000000,,17.028704546870838,0.9800862172717648,-0.0004729144118982326,0.0006378810326283669,0.19857083414658472,-0.000673665404268348,0.001438171330947825,0.3997986454616558
