Time,header.seq,header.stamp.secs,header.stamp.nsecs,header.frame_id,position_controller_output.thrust.num,position_controller_output.orientation_set_point.w,position_controller_output.orientation_set_point.x,position_controller_output.orientation_set_point.y,position_controller_output.orientation_set_point.z,position_controller_output.euler_set_point.phi,position_controller_output.euler_set_point.theta,position_controller_output.euler_set_point.psi
36.888,1,36,888000000,,10.073425430178897,0.9999999999973574,1.1114137875307887e-08,-7.731442864610186e-08,2.2975888280950523e-06,2.2227920477022287e-08,-1.5462890836323379e-07,4.595177654475623e-06
36.888,2,36,888000000,,10.073502253334864,0.9999999999578122,4.42903889659593e-08,-3.0838830119422556e-07,9.180332145918312e-06,8.857511571412877e-08,-6.16777415563433e-07,1.836066426477985e-05
36.898,3,36,898000000,,10.073631285431043,0.9999999997868914,9.9279455716094e-08,-6.919343831960348e-07,2.0633195217830285e-05,1.9853035775565193e-07,-1.3838728630023786e-06,4.126639030122831e-05
36.908,4,36,908000000,,10.073813364385027,0.9999999993279455,1.7583129498289017e-07,-1.2266869329330916e-06,3.664114332447724e-05,3.515726953070615e-07,-2.453386749539204e-06,7.328228623413667e-05
36.918,5,36,918000000,,10.074049349614208,0.9999999983628369,2.736951897918431e-07,-1.9114013222967618e-06,5.7189141758566566e-05,5.471717558891876e-07,-3.8228339431302974e-06,0.00011437828253382054
36.928,6,36,928000000,,10.07434012176381,0.9999999966126247,3.9261977331629444e-07,-2.7448536125349517e-06,8.226215581927939e-05,7.847879488334433e-07,-5.48977180199972e-06,0.00016452430967059555
36.938,7,36,938000000,,10.074686581985468,0.9999999937382485,5.323530402845234e-07,-3.72584013068444e-06,0.00011184515080535313,1.0638726396292744e-06,-7.4517992969894196e-06,0.00022369029811477746
36.948,8,36,948000000,,10.075089651671744,0.9999999893412092,6.926423546870116e-07,-4.853177037764922e-06,0.00014592309200686616,1.383868313475382e-06,-9.706556117252366e-06,0.00029184617833668175
36.958,9,36,958000000,,10.07555027196751,0.999999982964247,8.732344592736042e-07,-6.125699907962911e-06,0.00018448094469575706,1.7442087391146993e-06,-1.2251721797756481e-05,0.000368961880806624
36.968,10,36,968000000,,10.076069403329805,0.9999999740920192,1.0738754835664574e-06,-7.542263309712253e-06,0.00022750367411511,2.1443191265064394e-06,-1.5085014850423107e-05,0.0004550073359949203
36.978,11,36,978000000,,10.07664802509091,0.9999999621517731,1.2943109509689898e-06,-9.101740390115112e-06,0.0002749762454672366,2.583616279594818e-06,-1.820419190179774e-05,0.0005499524743718857
36.988,12,36,988000000,,10.077287135024589,0.999999946514017,1.5342857850318752e-06,-1.0803022463107271e-05,0.00032688362390058845,3.0615087443939815e-06,-2.1607046838070276e-05,0.0006537672264078361
36.998,13,36,998000000,,10.077987748915538,0.9999999264931918,1.7935443149276066e-06,-1.2645018600719926e-05,0.0003832107744955273,3.5773969525885738e-06,-2.5291409956158266e-05,0.0007664215225730872
37.008,14,37,8000000,,10.078750900131999,0.9999999013483356,2.071830280142469e-06,-1.4626655227909737e-05,0.00044394266224898613,4.130673360761969e-06,-2.925514712180537e-05,0.0008878852933379549
37.018,15,37,18000000,,10.079577639201544,0.9999998702837506,2.368886834455903e-06,-1.6746875720806917e-05,0.0005090642520580499,4.720722585485172e-06,-3.3496158934402944e-05,0.001018128469172754
37.028,16,37,28000000,,10.080469033390006,0.9999998324496635,2.6844565492583892e-06,-1.9004640008231165e-05,0.0005785605087024883,5.346921534460313e-06,-3.80123798982424e-05,0.001157120980547801
37.038,17,37,38000000,,10.081426814359643,0.9999997869428876,3.0122377135310084e-06,-2.139979217759864e-05,0.0006524163966995034,5.996550998428623e-06,-4.28035057160619e-05,0.001304832757933411
37.048,18,37,48000000,,10.082450800678584,0.999999732806838,3.3418705607084373e-06,-2.3959525897181914e-05,0.0007306168803437639,6.648728875119982e-06,-4.79239222631525e-05,0.0014612337317998997
37.058,19,37,58000000,,10.083542582872337,0.9999996690345779,3.7080845136064842e-06,-2.6628250447423227e-05,0.0008131469245793041,7.372861223325772e-06,-5.3262513729006166e-05,0.0016262938326175836
37.068,20,37,68000000,,10.084703621691435,0.9999995945661416,4.098932621347559e-06,-2.94289500725762e-05,0.0008999914933972644,8.144890323754676e-06,-5.886525432514513e-05,0.0017999829908567774
37.078,21,37,78000000,,10.08593483311351,0.999999508291487,4.505862415312626e-06,-3.2354320874998666e-05,0.0009911355504578212,8.94758538308042e-06,-6.471754181823464e-05,0.0019822711369877964
37.088,22,37,88000000,,10.087237504695926,0.99999940904995,4.922497360974482e-06,-3.541278084308662e-05,0.0010865640592250321,9.76803241890842e-06,-7.083621710847212e-05,0.002173128201480957
37.098,23,37,98000000,,10.088612639081532,0.9999992956312592,5.356522700213556e-06,-3.8610880054278215e-05,0.00118626198336545,1.062143264806642e-05,-7.723441427123296e-05,0.002372524114806576
37.108,24,37,108000000,,10.09006123633711,0.9999991667770723,5.813746457992748e-06,-4.19339646069391e-05,0.0012902142861686411,1.1519275668050174e-05,-8.388286138904051e-05,0.002580428807434966
37.118,25,37,118000000,,10.09158684003257,0.9999990211803707,6.283042209381244e-06,-4.5383684408073545e-05,0.001398405929998592,1.2439142543611337e-05,-9.078485258293931e-05,0.0027968122098364447
37.128,26,37,128000000,,10.093184946081823,0.9999988574859343,6.761071738322268e-06,-4.897315088784433e-05,0.0015108218771861621,1.3374148676470847e-05,-9.796661957755726e-05,0.0030216442524813284
37.138,27,37,138000000,,10.094864868190886,0.9999986742918593,7.25533218200173e-06,-5.270533994946968e-05,0.001627447090168396,1.433909490301404e-05,-0.00010543415568897921,0.00325489486583993
37.148,28,37,148000000,,10.096618394945303,0.9999984701527178,7.766632097139367e-06,-5.653354879721691e-05,0.0017482665303566647,1.533556910702195e-05,-0.0001130940811460239,0.0034965339803825677
37.158,29,37,158000000,,10.098455064476374,0.9999982435723475,8.291381402009687e-06,-6.0507160660663845e-05,0.0018732651591634023,1.6356041886258267e-05,-0.0001210451729758218,0.003746531526579556
37.167,30,37,168000000,,10.100372210110326,0.9999979930135063,8.850622837640834e-06,-6.459858037908781e-05,0.0020024279385304827,1.7442502291377758e-05,-0.0001292323472898242,0.004004857434901211
37.178,31,37,178000000,,10.102370745490678,0.9999977168945433,9.384970917136428e-06,-6.879697390485582e-05,0.002135739824833488,1.847603428257029e-05,-0.00013763372181503744,0.004271481635817849
37.188,32,37,188000000,,10.104454639561238,0.9999974135858617,9.967158144315187e-06,-7.313438760720911e-05,0.002273185782971708,1.9601768840992466e-05,-0.0001463137118292107,0.0045463740597997855
37.198,33,37,198000000,,10.106622748167403,0.9999970814204344,1.0548237160049477e-05,-7.757624203803736e-05,0.002414750768527861,2.0721758419253828e-05,-0.00015520297460187014,0.004829504637317332
37.208,34,37,208000000,,10.10887694616393,0.9999967186826283,1.113502013039783e-05,-8.216287252251704e-05,0.0025604197409387847,2.1849224601105926e-05,-0.00016438222723113704,0.005120843298840811
37.218,35,37,218000000,,10.111219576707322,0.9999963236197658,1.1722153155847963e-05,-8.68712181933288e-05,0.0027101776574817676,2.2973347601273657e-05,-0.00017380533675362024,0.005420359974840536
37.228,36,37,228000000,,10.113648482328134,0.9999958944407621,1.233091598638372e-05,-9.164761822141606e-05,0.002864009476730225,2.413677183605971e-05,-0.0001833651166614048,0.005728024595786816
37.238,37,37,238000000,,10.11616993527582,0.9999954292974464,1.3010835387936426e-05,-9.661441957440645e-05,0.0030219001617402003,2.5437634056292073e-05,-0.00019330659205228615,0.006043807092149973
37.248,38,37,248000000,,10.118781964104274,0.9999949263225,1.3691353887038751e-05,-0.00010167917473497452,0.0031838346612124294,2.6735110037823326e-05,-0.0002034445011128125,0.006367677394400325
37.258,39,37,258000000,,10.121489202599536,0.9999943836019347,1.4367972599968045e-05,-0.00010682686613932035,0.0033497979295656244,2.8020087621163183e-05,-0.0002137487935516122,0.006699605433008183
37.268,40,37,268000000,,10.124287544104064,0.9999937991696026,1.509671411562887e-05,-0.00011215562827125989,0.003519774928669527,2.940371661459429e-05,-0.0002244161415818576,0.0070395611384438655
37.278,41,37,278000000,,10.127183062864747,0.99999317104258,1.5807689196285097e-05,-0.00011757891411670944,0.003693750603539391,3.0746548978340306e-05,-0.00023527300384416783,0.007387514441177684
37.288,42,37,288000000,,10.130174762226556,0.9999924972076546,1.642349224439555e-05,-0.00012296811194346474,0.003871709895074721,3.189454530406265e-05,-0.000246061555156399,0.007743435271679955
37.298,43,37,298000000,,10.13325959478935,0.999991775568451,1.726295873845359e-05,-0.00012852258443483115,0.004053637797353802,3.34836666223185e-05,-0.00025718301321848573,0.008107293560421
37.308,44,37,308000000,,10.13645468782692,0.9999910040103234,1.821544744834849e-05,-0.00013432474730149847,0.004239519251642867,3.529162374274012e-05,-0.00026880153055219543,0.00847905923787113
37.318,45,37,318000000,,10.139747299567192,0.9999901803855797,1.8986727195127568e-05,-0.00014045082796132903,0.004429339170221219,3.672887425704143e-05,-0.0002810670985863228,0.008858702234500663
37.328,46,37,328000000,,10.14314288913521,0.9999893025310551,1.9866128378269687e-05,-0.00014675363275011807,0.004623082538990509,3.837492507214156e-05,-0.0002936878154397105,0.00924619248077991
37.338,47,37,338000000,,10.146639745203137,0.9999883682515098,2.0802902040061598e-05,-0.00015313309919147907,0.004820734298443115,4.012889406009283e-05,-0.0003064632112954663,0.009641499907179189
37.348,48,37,348000000,,10.150242241152094,0.9999873753062821,2.16520093232919e-05,-0.00015959053531516346,0.005022279373366409,4.170045757829322e-05,-0.0003193945313770943,0.010044594444168812
37.358,49,37,358000000,,10.153952116782726,0.9999863214111102,2.260698171848312e-05,-0.00016614349064965664,0.005227702740289083,4.3476249828301284e-05,-0.0003325188073705599,0.010455446022219102
37.368,50,37,368000000,,10.157761810755172,0.9999852042575995,2.3362327547387736e-05,-0.0001728221869045275,0.005436989293728311,4.4844701706667415e-05,-0.0003458933080906796,0.010874024571800376
37.378,51,37,378000000,,10.161684556110988,0.9999840215488425,2.4467173439660703e-05,-0.00017929421282312995,0.005650124064713657,4.6907498928751913e-05,-0.0003588591887918184,0.011300300023382939
37.388,52,37,388000000,,10.165735094153334,0.99998277075745,2.6092327084914346e-05,-0.00018638212462990082,0.005867092052026465,4.999671640367237e-05,-0.00037306400763749436,0.011734242307437118
37.398,53,37,398000000,,10.169861615025916,0.9999814496546705,2.656862537717336e-05,-0.0001933486617438265,0.006087877868904391,5.078210278725732e-05,-0.00038701365287276894,0.012175821354433222
37.408,54,37,408000000,,10.174129675570775,0.999980055786068,2.811028936224551e-05,-0.0002000048052649694,0.006312466869749596,5.369441436420491e-05,-0.0004003565338885028,0.012625007094841567
37.418,55,37,418000000,,10.178519570549499,0.9999785866029365,2.823588510856903e-05,-0.00020713373384578288,0.006540843519350922,5.3760906930457905e-05,-0.000414627981710263,0.013081769459132466
37.428,56,37,428000000,,10.183009218419969,0.9999770397318177,2.953226115888522e-05,-0.000213774165585999,0.006772993255735332,5.616738938950854e-05,-0.00042793857122046453,0.013546078377776242
37.438,57,37,438000000,,10.187612962196962,0.999975412384498,2.9997587810000233e-05,-0.00022144637820688604,0.007008900634147076,5.6889514780967416e-05,-0.00044330238148082655,0.014017903781243204
37.448,58,37,448000000,,10.192352181777345,0.9999737023899713,3.217043481840225e-05,-0.00022803628664029755,0.007248551097170463,6.10333186723424e-05,-0.0004565269736011045,0.014497215600003673
37.458,59,37,458000000,,10.197209944376285,0.9999719070762246,3.319589344499726e-05,-0.00023442865036352187,0.007491928962477904,6.287728312678206e-05,-0.0004693415489369138,0.014983983764527958
37.468,60,37,468000000,,10.202166280287958,0.9999700235590493,3.54837226003253e-05,-0.00024144901339735256,0.007739019743728909,6.722816839214458e-05,-0.0004834327885203814,0.015478178205286384
37.478,61,37,478000000,,10.207278391204813,0.9999680496816136,3.632655213135607e-05,-0.0002475269691253604,0.007989807677973082,6.869540570717711e-05,-0.0004956186257404885,0.01597976885274926
37.488,62,37,488000000,,10.212469706046516,0.9999659819913941,3.706048592240448e-05,-0.00025566616685327527,0.008244278095650507,6.990289365517003e-05,-0.0005119260354633583,0.01648872563738691
37.498,63,37,498000000,,10.21782916088216,0.9999638185672142,3.9110488533792504e-05,-0.0002625751114613376,0.008502416195188277,7.37531114220973e-05,-0.0005257963137645005,0.017005018489669628
37.508,64,37,508000000,,10.223354013336102,0.9999615568113078,3.982938265950648e-05,-0.00026833293231115274,0.008764206214084306,7.495226356741606e-05,-0.000537343405179793,0.01752861734006776
37.518,65,37,518000000,,10.228923006166038,0.9999591931017227,4.0763144180583314e-05,-0.00027602028647785205,0.009029633576130566,7.653824920063374e-05,-0.0005527542265507544,0.01805949211905159
37.528,66,37,528000000,,10.234640128412359,0.9999567255072879,4.21610466457609e-05,-0.00028253564208938946,0.009298683175568645,7.906403819164824e-05,-0.0005658309456290068,0.01859761275709146
37.538,67,37,538000000,,10.240575769528602,0.9999541511117342,4.258930827077583e-05,-0.00028865163453258317,0.009571339550736338,7.964915897791704e-05,-0.0005780921060122814,0.01914294918465767
37.548,68,37,548000000,,10.246527577645434,0.9999514663996216,4.306293821575176e-05,-0.0002966510174457753,0.00984758797897228,8.027911670063712e-05,-0.0005941214069052968,0.019695471332220542
37.558,69,37,558000000,,10.252628974094836,0.9999486692139438,4.50020201664716e-05,-0.0003039792601070045,0.010127413721709074,8.384238853273554e-05,-0.0006088388589929005,0.020255149130250394
37.568,70,37,568000000,,10.25893454034875,0.9999457568209706,4.6964243130194965e-05,-0.00031052700657348883,0.010410801269552745,8.745773840155764e-05,-0.0006219982361135953,0.020821952509217544
37.578,71,37,578000000,,10.265409859923883,0.9999427264373901,4.799211502745943e-05,-0.0003162321172330276,0.010697735225894631,8.921281579327569e-05,-0.0006334548672289974,0.021395851399592283
37.588,72,37,588000000,,10.271986956389751,0.9999395749427575,4.943266687260305e-05,-0.0003216517558145868,0.01098820093812014,9.179063073586827e-05,-0.0006443510367184957,0.021976815731844956
37.598,73,37,598000000,,10.278688312600304,0.9999362993130673,5.0745573072084174e-05,-0.0003272370526416624,0.01128218316135856,9.410080471855396e-05,-0.0006555775034925123,0.022564815436445864
37.608,74,37,608000000,,10.28552236512895,0.9999328965892702,5.245190807741853e-05,-0.000332986736410725,0.011579666973737577,9.718504750292996e-05,-0.0006671435844740879,0.023159820443865334
37.618,75,37,618000000,,10.292515814505034,0.9999293637067663,5.402817649121036e-05,-0.00033932197194739525,0.011880637126724455,9.998602112171729e-05,-0.0006798798376987452,0.023761800684573668
37.628,76,37,628000000,,10.299648476764876,0.9999256979288543,5.615799038328504e-05,-0.00034543346062135803,0.012185078723515538,0.00010388939270833067,-0.0006921842227402316,0.024370726089041197
37.638,77,37,638000000,,10.306917019854504,0.9999218962396977,5.8760586178195704e-05,-0.000351428561952003,0.012492976649568688,0.00010873124305342375,-0.0007042704756010797,0.024986566587738217
37.648,78,37,648000000,,10.314332265092878,0.9999179555021629,6.0761187261714256e-05,-0.00035788020586813497,0.012804315452644592,0.00011234761131629186,-0.0007172577598505833,0.025609292111135065
37.658,79,37,658000000,,10.321905087747123,0.9999138728878821,6.33817504373337e-05,-0.00036402999479969947,0.013119080427859526,0.00011720113700805912,-0.0007296603692040504,0.026238872589702047
37.668,80,37,668000000,,10.329640311677672,0.9999096454787805,6.564817142980497e-05,-0.00036975266048688187,0.013437256110803873,0.00012134759087906599,-0.0007412028337771673,0.02687527795390947
37.678,81,37,678000000,,10.337482971222093,0.9999052695763347,6.833903283624483e-05,-0.00037664557941993754,0.013758827761152701,0.00012630075113560048,-0.0007551004009703334,0.027518478134227663
37.688,82,37,688000000,,10.345515174753471,0.9999007426798793,7.13655661704046e-05,-0.0003831858984112552,0.014083780165460377,0.00013192359263917853,-0.0007683059982901452,0.028168443061126924
37.698,83,37,698000000,,10.353711799672897,0.9998960618104918,7.409363790797042e-05,-0.00038925364005049236,0.014412097959888352,0.00013695199246445514,-0.0007805621322623621,0.02882514266507758
37.708,84,37,708000000,,10.36206732541098,0.9998912235590216,7.64873586125398e-05,-0.00039567897193230705,0.014743766054782647,0.00014129052574425222,-0.0007935273694858052,0.029488546876549948
37.718,85,37,718000000,,10.370520511089781,0.9998862245918781,7.93544050437605e-05,-0.0004028390954841885,0.015078769675999583,0.000146542165411433,-0.0008079797461086507,0.030158625626014356
37.728,86,37,728000000,,10.379170127777844,0.9998810621589951,8.215437625263452e-05,-0.0004098978506517167,0.01541709344236334,0.00015165039489034278,-0.0008222314526103483,0.030835348843941093
37.738,87,37,738000000,,10.387997646563964,0.9998757331383963,8.508264002847455e-05,-0.0004167891380204064,0.01575872230585898,0.00015700806111107718,-0.0008361563747132254,0.031518686460800506
37.748,88,37,748000000,,10.396991123002156,0.9998702343868702,8.82441963859427e-05,-0.0004234863506705063,0.016103641185087517,0.00016282620567105354,-0.0008497050014072817,0.03220860840706287
37.758,89,37,758000000,,10.406146073530108,0.9998645627301116,9.160800910911135e-05,-0.00043003655258130934,0.016451834945037692,0.00016904148692336462,-0.0008629709660121567,0.032905084613198556
37.768,90,37,768000000,,10.415460219377508,0.9998587149829875,9.51185886001494e-05,-0.0004364890870388074,0.016803288437088122,0.00017554146374179586,-0.0008760515575580676,0.03360808500967781
37.778,91,37,778000000,,10.424931970218836,0.9998526879512631,9.873561569691773e-05,-0.00044288447697532463,0.01715798651509813,0.00018224420276365214,-0.0008890267953465229,0.034317579526971
37.788,92,37,788000000,,10.434561739230553,0.9998464784189516,0.00010240589312724858,-0.0004492906480897538,0.017515914026043442,0.00018904094852941088,-0.000902030932522152,0.03503353809554843
37.798,93,37,798000000,,10.444351454369572,0.9998400831517712,0.00010605420091654043,-0.00045579743029359955,0.017877055805367633,0.0001957779331803115,-0.0009152410827243438,0.03575593064588041
37.808,94,37,808000000,,10.454299409813125,0.9998334989317827,0.00010962839950495653,-0.00046243078816173916,0.018241396690193586,0.00020234961426528978,-0.0009287072696320588,0.036484727108437275
37.818,95,37,818000000,,10.464400631941716,0.9998267225497387,0.00011311294527708019,-0.0004691700254544404,0.018608921526958585,0.00020872528853509452,-0.0009423874170701724,0.037219897413689286
37.828,96,37,828000000,,10.474650810056099,0.9998197507783491,0.0001164933373330851,-0.0004760159231975475,0.01897961516108757,0.0002148755808365228,-0.0009562823865681633,0.037961411492106814
37.838,97,37,838000000,,10.485046449288761,0.9998125803777251,0.00011976190399692695,-0.0004829773798391442,0.019353462438843755,0.0002207844531226478,-0.0009704094881281972,0.03870923927416015
37.848,98,37,848000000,,10.495584581475999,0.999805208100084,0.0001229236300201498,-0.0004900603872273599,0.019730448209451346,0.0002264612605519712,-0.0009847806906708076,0.03946335069031962
37.858,99,37,858000000,,10.506262408001103,0.9997976306929515,0.00012598776473021962,-0.0004972646017165937,0.020110557320960995,0.00023192411869517692,-0.0009993954759407219,0.04022371567105555
37.868,100,37,868000000,,10.517077065379924,0.9997898448998007,0.00012896753326387648,-0.0005045834173289887,0.020493774620180073,0.00023719934672030758,-0.00101424099010982,0.04099030414683822
37.878,101,37,878000000,,10.528025668401716,0.999781847460609,0.00013187083891072772,-0.0005120067261043653,0.02088008494824547,0.00024230278475954778,-0.0010292971914596719,0.041763086048137985
37.888,102,37,888000000,,10.539105666678827,0.9997736351104499,0.00013469262361707937,-0.0005195270995868783,0.021269473137028524,0.0002472242698845669,-0.0010445488660124082,0.04254203130542513
37.898,103,37,898000000,,10.550315147379182,0.9997652045777032,0.0001374187831797118,-0.0005271431681758299,0.021661924011074515,0.0002519353094533581,-0.001059992503722405,0.04332710984916999
37.908,104,37,908000000,,10.561652801342806,0.9997565525825325,0.00014004179191523248,-0.0005348587191000597,0.02205742239557697,0.000256420339975004,-0.0010756351475836655,0.04411829160984287
37.918,105,37,918000000,,10.573117628538167,0.9997476758393525,0.0001425629724336422,-0.0005426778077055821,0.02245595311735798,0.0002606814641196335,-0.0010914847455383524,0.04491554651791409
37.928,106,37,928000000,,10.584708596943267,0.9997385710587684,0.00014499114987789538,-0.0005506021999432403,0.022857501004171277,0.0002647358747762254,-0.001107545010323431,0.04571884450385398
37.938,107,37,938000000,,10.596424430042415,0.9997292349496647,0.00014733858729391638,-0.0005586296081172093,0.023262050882496454,0.00026860781842033576,-0.0011238117334691864,0.04652815549813282
37.948,108,37,948000000,,10.608263667747954,0.9997196642218422,0.00014961313028281927,-0.0005667523282803465,0.023669587573024075,0.0002723129694043578,-0.001140269703928636,0.04734344943122095
37.958,109,37,958000000,,10.620225030782116,0.9997098555852485,0.00015181146930725155,-0.0005749617985536589,0.024080095887051685,0.00027584476172992563,-0.0011569014807437674,0.0481646962335887
37.968,110,37,968000000,,10.632307724572675,0.999699805746338,0.00015392416606288087,-0.0005832544635394814,0.024493560629605927,0.0002791841566196992,-0.0011736993190653482,0.04899186583570635
37.978,111,37,978000000,,10.644511440434332,0.9996895114089884,0.0001559414668794142,-0.0005916290956878768,0.024909966602346678,0.0002823113794994256,-0.0011906600779983255,0.04982492816804423
37.988,112,37,988000000,,10.656836095188664,0.9996789692717323,0.00015786288286201203,-0.0006000892132075473,0.025329298609587575,0.0002852249422084507,-0.0012077905381052358,0.05066385316107267
37.998,113,37,998000000,,10.669281491971674,0.9996681760303391,0.00015969625033896115,-0.0006086393315744139,0.02575154145768459,0.0002879399366897984,-0.00122509989658566,0.05150861074526197
38.008,114,38,8000000,,10.681847091123021,0.9996571283833794,0.00016145069290191292,-0.0006172785025187047,0.02617667995028367,0.000290474296816443,-0.0012425865164762786,0.05235917085108245
38.018,115,38,18000000,,10.694532141061195,0.9996458230324694,0.00016313394281286186,-0.0006260017527171086,0.026604698886835223,0.00029284338952148363,-0.0012602406670698932,0.053215503409004425
38.028,116,38,28000000,,10.70733596400822,0.9996342566842488,0.00016474569953032488,-0.0006347998769565678,0.02703558305826337,0.00029504676543098084,-0.00127804374630094,0.05407757834949821
38.038,117,38,38000000,,10.720258279970343,0.9996224260462584,0.00016627823110690467,-0.0006436667472126693,0.027469317247819324,0.00029706897923708426,-0.0012959828925740867,0.05494536560303412
38.048,118,38,48000000,,10.733299223001646,0.9996103278248052,0.00016772404266157637,-0.0006526009629803823,0.02790588623595794,0.0002988948165844474,-0.0013140546793660027,0.05581883510008248
38.058,119,38,58000000,,10.746459070377602,0.9995979587259408,0.00016908165451357408,-0.0006616030683354135,0.028345274803860836,0.0003005209830767072,-0.0013322598792210342,0.0566979567711136
38.068,120,38,68000000,,10.75973795044944,0.9995853154552119,0.00017035472367194572,-0.0006706765850854522,0.02878746773321508,0.0003019542792878638,-0.001350605504578422,0.05758270054659779
38.078,121,38,78000000,,10.773135688213413,0.9995723947195814,0.00017155164898798015,-0.0006798256680290903,0.029232449805896954,0.0003032109345797855,-0.0013691001196185289,0.05847303635700539
38.088,122,38,88000000,,10.786651878573874,0.9995591932345512,0.00017267910501486135,-0.0006890471389504763,0.029680205798814568,0.0003043041497292231,-0.0013877375527888622,0.05936893413280667
38.098,123,38,98000000,,10.800286150605677,0.9995457077248177,0.00017373812142801258,-0.0006983317554302474,0.030130720481233223,0.00030523621588596445,-0.0014064991906959532,0.06027036380447197
38.108,124,38,108000000,,10.814038446930407,0.9995319349193487,0.0001747238590167089,-0.0007076722529110135,0.03058397861525461,0.00030599760327963747,-0.0014253700166664124,0.061177295302471624
38.118,125,38,118000000,,10.827909006095261,0.9995178715513602,0.00017563090320611154,-0.0007170624470427122,0.03103996495925081,0.0003065775912225435,-0.0014443371180118706,0.0620896985572759
38.128,126,38,128000000,,10.841898190047923,0.9995035143533734,0.00017645663817373615,-0.0007265035822343348,0.0314986642709753,0.00030697060863131277,-0.0014634025863997167,0.06300754349935517
38.138,127,38,138000000,,10.85600622258002,0.9994888600593044,0.00017720247397795538,-0.000736001229513097,0.03196006130822812,0.00030717885102131453,-0.0014825774067674952,0.06393080005917971
38.148,128,38,148000000,,10.8702330627345,0.9994739054092889,0.00017787380227523165,-0.0007455590915581463,0.03242414082832843,0.0003072125730073606,-0.0015018690889406112,0.0648594381672199
38.158,129,38,158000000,,10.884579114892238,0.9994586471548976,0.00017847682250754997,-0.000755173605429088,0.03289088758534067,0.000307084106979855,-0.0015212706890802474,0.06579342775394596
38.168,130,38,168000000,,10.899043898129204,0.9994430820579523,0.0001790132974004207,-0.0007648378602266406,0.03336028632653116,0.00030679715232132757,-0.0015407682959362092,0.06673273874982825
38.178,131,38,178000000,,10.913626978712276,0.9994272068898732,0.00017948195698925772,-0.0007745428341491536,0.03383232179339934,0.00030634951482843534,-0.00156034357850453,0.06767734108533706
38.188,132,38,188000000,,10.92832857107993,0.9994110184276769,0.00017987944727834436,-0.0007842828882769424,0.03430697872284277,0.00030573463684927974,-0.0015799848183237293,0.06862720469094279
38.198,133,38,198000000,,10.943148945725286,0.999394513452264,0.0001802025022555006,-0.000794057658173519,0.0347842418489474,0.0003049457917871412,-0.0015996908309981377,0.06958229949711567
38.208,134,38,208000000,,10.958088287403019,0.9993776887483127,0.00018045020750371709,-0.000803871771068676,0.035264095904746,0.0003039806034623584,-0.0016194705599815401,0.07054259543432603
38.218,135,38,218000000,,10.973146622326915,0.9993605411084305,0.00018062547973913257,-0.0008137295530264665,0.03574652562299923,0.0003028443572680421,-0.0016393326137963233,0.07150806243304422
38.228,136,38,228000000,,10.988323864103243,0.9993430673377781,0.00018073166113684644,-0.0008236307814087525,0.036231515733179516,0.0003015435016555086,-0.0016592765483278184,0.07247867042374054
38.238,137,38,238000000,,11.00361993557333,0.9993252642569206,0.00018077209920156485,-0.000833568119778713,0.036719050960962514,0.00030008501869526843,-0.0016792877122609527,0.07345438933688526
38.248,138,38,247000000,,11.019034831053414,0.9993071286987932,0.00018074943408551993,-0.000843531755343226,0.03720911602811009,0.000298474689459923,-0.0016993464640156098,0.07443518910294879
38.258,139,38,258000000,,11.034568618755799,0.9992886575053854,0.00018066399578065229,-0.0008535142681162656,0.03770169565150945,0.0002967135362303236,-0.0017194377795065816,0.07542103965240136
38.268,140,38,268000000,,11.050221377144947,0.9992698475249381,0.00018051120088064535,-0.0008635148220566409,0.03819677454112272,0.0002947922887192436,-0.0017395594177655805,0.07641191091571331
38.278,141,38,278000000,,11.065993180854358,0.9992506956116772,0.00018028639261181506,-0.0008735383636874152,0.038694337403848304,0.0002927010874648082,-0.001759720668322993,0.07740777282335495
38.288,142,38,288000000,,11.081884089098844,0.9992311986301938,0.000179989063788767,-0.0008835897632289235,0.039194368946745696,0.00029043835370474834,-0.0017799309718114127,0.07840859530579665
38.298,143,38,298000000,,11.097894136845506,0.9992113534610417,0.00017962321798061648,-0.0008936678968341604,0.039696853877138255,0.0002880119803308758,-0.0018001881430595899,0.07941434829350864
38.308,144,38,308000000,,11.114023319217164,0.9991911570018561,0.00017919495188914995,-0.0009037657241364165,0.04020177690074327,0.00028543452345039776,-0.0018204783556257742,0.08042500171696132
38.318,145,38,318000000,,11.130271545445677,0.9991706061632029,0.00017870927839230594,-0.0009138762887532517,0.04070912271936286,0.0002827163948164158,-0.0018407878862586476,0.08144052550662495
38.328,146,38,328000000,,11.14663864342625,0.9991496978699244,0.00017816668063017508,-0.000923992473756008,0.04121887602763267,0.00027985899611888976,-0.0018611023370008653,0.08246088959296988
38.338,147,38,338000000,,11.163124463546003,0.9991284290580013,0.0001775624620583874,-0.0009341109093231216,0.04173102151243776,0.00027685309617596506,-0.0018814143665903096,0.08348606390646635
38.348,148,38,348000000,,11.179728998583078,0.9991067966708725,0.00017689052925162584,-0.0009442351867576311,0.0422455438563717,0.0002736861004184001,-0.0019017304050059183,0.0845160183775848
38.358,149,38,358000000,,11.196452350256928,0.999084797663588,0.00017614573305489465,-0.0009543710015901679,0.042762427739542065,0.00027034710881972205,-0.0019220611398531487,0.08555072293679541
38.368,150,38,368000000,,11.213294644022042,0.9990624290100231,0.0001753302763499112,-0.0009645175187791199,0.043281657845360505,0.00026684045562353284,-0.0019424048217583033,0.08659014751456863
38.378,151,38,378000000,,11.230255911980745,0.9990396877015576,0.00017445369373271977,-0.0009746694252486492,0.04380321886111367,0.00026318552109263295,-0.001962751403295484,0.08763426204137467
38.388,152,38,388000000,,11.247335935605184,0.9990165707464082,0.00017352655128606662,-0.0009848195828261967,0.0443270954723199,0.0002594039300362081,-0.001983087320682502,0.0886830364476839
38.398,153,38,398000000,,11.264534248805875,0.9989930751710664,0.00017254966900921842,-0.0009949603877917213,0.04485327235213403,0.0002554979059329954,-0.0020033972496826904,0.08973644066396662
38.408,154,38,408000000,,11.281850486292711,0.9989691980158972,0.0001715156616708502,-0.0010050881794341142,0.04538173416259112,0.00025145295436622205,-0.002023673002656124,0.09079444462069314
38.418,155,38,418000000,,11.299284595079763,0.9989449363312932,0.00017041510284754796,-0.0010152058500660485,0.045912465560489515,0.00024724991984729225,-0.002043919264710308,0.09185701824833382
38.428,156,38,428000000,,11.31683673617897,0.9989202871831302,0.00016924098656523052,-0.0010253166052249147,0.04644545120159713,0.000242874444890237,-0.002064141529229656,0.09292413147735885
38.438,157,38,438000000,,11.334507141278257,0.9988952476545215,0.0001679985000134486,-0.0010354205472425304,0.046980675750847974,0.0002383368125418016,-0.002084340203267008,0.0939957542382387
38.448,158,38,448000000,,11.35229583564754,0.9988698148460675,0.00016669953844214417,-0.0010455160579253024,0.04751812387730957,0.00023366087064988564,-0.002104512914504875,0.09507185646144359
38.458,159,38,458000000,,11.37020235654862,0.998843985880609,0.00016535430938201265,-0.0010555974372226102,0.048057780245665024,0.00022886749416650234,-0.002124649023978671,0.09615240807744385
38.468,160,38,468000000,,11.38822592589084,0.9988177579050107,0.0001639644817967405,-0.0010656551275429675,0.04859962950893152,0.00022396090036971083,-0.0021447294007644014,0.09723737901670985
38.478,161,38,478000000,,11.406366028970103,0.9987911280820579,0.00016252122260112205,-0.0010756841049980555,0.0491436563060637,0.0002189239253178273,-0.0021647429462980576,0.09832673920971186
38.488,162,38,488000000,,11.424622622147954,0.9987640935872792,0.00016100943680156377,-0.001085686044135694,0.04968984526596513,0.000213726257002568,-0.0021846912814614977,0.0994204585869202
38.498,163,38,498000000,,11.442995963086998,0.9987366516117944,0.00015942435858333858,-0.0010956634547810249,0.05023818102528286,0.0002083581300206452,-0.0022045786655852015,0.10051850707880516
38.508,164,38,508000000,,11.461486345558459,0.9987087993638218,0.0001577728952006325,-0.001105618339956289,0.050788648230418315,0.0002028331387852178,-0.0022244095082490675,0.10162085461583713
38.518,165,38,518000000,,11.480093693031161,0.998680534071142,0.0001560705142014949,-0.0011155509294117534,0.05134123153467575,0.00019718214965829206,-0.002244185584504974,0.10272747112848633
38.528,166,38,528000000,,11.49881721666513,0.9986518529897369,0.0001543275050645248,-0.0011254549963049638,0.05189591558337641,0.00019142635455784835,-0.0022638953032102153,0.10383832654722315
38.538,167,38,538000000,,11.51765589144084,0.9986227534013578,0.00015254366895848086,-0.0011353215431788067,0.0524526850076685,0.00018556631572435345,-0.0022835204854818486,0.10495339080251785
38.548,168,38,548000000,,11.536609147117005,0.9985932326081923,0.00015070642235293552,-0.0011451441717033328,0.053011524421780296,0.00017957762770209304,-0.0023030468307278285,0.10607263382484078
38.558,169,38,558000000,,11.555677017939349,0.9985632879268612,0.0001488018664593058,-0.0011549223872860748,0.05357241843505118,0.00017343265986535087,-0.002322471632258044,0.10719602554466229
38.568,170,38,568000000,,11.57485984090784,0.9985329166897033,0.0001468261695406147,-0.0011646584574571885,0.054135351665131906,0.0001671235953395369,-0.002341798725999316,0.10832353589245261
38.578,171,38,578000000,,11.594157921631222,0.9985021162447514,0.00014478771880248634,-0.0011743572343819227,0.05470030874095133,0.00016066672918490783,-0.002361038426957961,0.10945513479868216
38.588,172,38,588000000,,11.613570964216725,0.9984708839612365,0.00014270395364174938,-0.001184022267289992,0.05526727429970934,0.00015409655574339967,-0.002380199484243851,0.11059079219382113
38.598,173,38,598000000,,11.633097815810169,0.9984392172447385,0.00014058492934782758,-0.0011936463034507537,0.05583623296833431,0.00014743401235138697,-0.0023992683293954644,0.11173047800833993
38.608,174,38,608000000,,11.652737263213345,0.9984071135326341,0.00013842687100893867,-0.0012032168342945915,0.05640716935536472,0.00014067304572883813,-0.002418219385747028,0.11287416217270889
38.618,175,38,618000000,,11.672488822023201,0.9983745702815018,0.00013621489628463023,-0.0012127264316692352,0.05698006805305286,0.00013378490555852893,-0.0024370359406111117,0.11402181461739821
38.628,176,38,628000000,,11.692352625446906,0.9983415849630919,0.00013393579107598167,-0.0012221739108247331,0.057554913652243404,0.00012674349458548023,-0.0024557138724561295,0.11517340527287835
38.638,177,38,638000000,,11.712329076664416,0.9983081550637461,0.00013158806239092237,-0.0012315631506068215,0.05813169075476065,0.00011954554136707628,-0.002474260471108614,0.11632890406961954
38.648,178,38,648000000,,11.73241837279852,0.9982742780860938,0.00012918376200202753,-0.0012409015305558132,0.05871038397622063,0.0001122143916928378,-0.002492691597118137,0.1174882809380921
38.658,179,38,658000000,,11.752619834002667,0.9982399515590952,0.00012673979248803825,-0.0012501934540123847,0.05929097793634244,0.00010478339416396598,-0.002511017797174185,0.11865150580876632
38.668,180,38,668000000,,11.772932889721087,0.9982051730525188,0.00012426335664332116,-0.001259431502474678,0.05987345724191779,9.726792568301954e-05,-0.002529224931857999,0.1198185486121126
38.678,181,38,678000000,,11.793355928738908,0.9981699401727292,0.00012174814091447098,-0.001268600965733884,0.06045780648146439,8.965729668573312e-05,-0.0025472827059615007,0.12098937927860119
38.688,182,38,687000000,,11.813888008979134,0.998134250546117,0.0001191794365086617,-0.0012776924694648556,0.06104401022997135,8.192348035043104e-05,-0.002565170425536749,0.12216396773870243
38.698,183,38,698000000,,11.834529374734542,0.9980981018135332,0.00011654584670047125,-0.0012867045166055071,0.06163205306311194,7.404414169641002e-05,-0.002582883462712483,0.12334228392288663
38.708,184,38,708000000,,11.855280438108737,0.9980614916276015,0.00011384852063756012,-0.0012956441443944407,0.06222191956901192,6.602094044250979e-05,-0.0026004357325394535,0.12452429776162412
38.718,185,38,718000000,,11.876141123115268,0.9980244176574544,0.00011110127301929286,-0.0013045232621044626,0.06281359434919347,5.788017496534009e-05,-0.002617852468643968,0.1257099791853852
38.728,186,38,728000000,,11.897110315703804,0.9979868776074394,0.00010831935729820885,-0.0013133461187629907,0.06340706200607926,4.965192918465251e-05,-0.0026351438587049547,0.12689929812464013
38.738,187,38,738000000,,11.91818641391294,0.9979488692329774,0.0001055075448493761,-0.0013220994398318304,0.06400230712912403,4.1347586793007247e-05,-0.00265228384419637,0.12809222450985935
38.748,188,38,748000000,,11.939368431793353,0.9979103903249429,0.00010265501378358178,-0.0013307656526136314,0.06459931428618979,3.294802985854274e-05,-0.002669235800294509,0.12928872827151308
38.758,189,38,758000000,,11.960656200348932,0.9978714386907658,9.97479970196486e-05,-0.0013393355384673752,0.06519806803789371,2.4427263577348127e-05,-0.0026859793443713507,0.13048877934007166
38.768,190,38,768000000,,11.982050016566067,0.9978320121480853,9.677982250754383e-05,-0.001347811498205009,0.06579855295015898,1.577197518987552e-05,-0.0027025181527380263,0.1316923476460054
38.778,191,38,778000000,,12.003550127568312,0.9977921085260147,9.37558559069546e-05,-0.0013562058300965547,0.06640075360111154,6.991553832707729e-06,-0.0027188772183765245,0.13289940311978463
38.788,192,38,788000000,,12.025155986382256,0.9977517256821822,9.068744223116358e-05,-0.0013645289568071186,0.06700465457519704,-1.8924859282504764e-06,-0.0027350786143058897,0.13410991569187963
38.798,193,38,798000000,,12.046866124424348,0.9977108615151549,8.758565239266582e-05,-0.001372781429421583,0.06761024045651501,-1.0857892754941038e-05,-0.0027511247296771887,0.13532385529276084
38.808,194,38,808000000,,12.068679034911865,0.997669513976776,8.445264969227225e-05,-0.0013809465237327283,0.06821749581883142,-1.9897835644535234e-05,-0.0027669823216314934,0.1365411918528984
38.818,195,38,818000000,,12.09059398328199,0.9976276810507022,8.127985970530428e-05,-0.0013890066497098924,0.06882640522001533,-2.9026705524710027e-05,-0.0027826149578869487,0.1377618953027627
38.828,196,38,828000000,,12.112610942122082,0.9975853607363481,7.805625966252712e-05,-0.001396954019476344,0.06943695321093976,-3.826504766467814e-05,-0.0027980053874547407,0.13898593557282407
38.838,197,38,838000000,,12.134730150949926,0.9975425510421487,7.477677651822169e-05,-0.001404794332703487,0.07004912434598101,-4.762338143178619e-05,-0.0028131640506134778,0.1402132825935529
38.848,198,38,848000000,,12.156951465692647,0.9974992499872932,7.144655819986051e-05,-0.0014125448842608834,0.07066290318920246,-5.709349673300902e-05,-0.0028281259377278345,0.14144390629541934
38.858,199,38,858000000,,12.17927384374,0.9974554556254729,6.807538804858716e-05,-0.0014202183171466236,0.07127827431029417,-6.665735659193709e-05,-0.002842917439093794,0.1426777766088938
38.868,200,38,868000000,,12.201695712341039,0.9974111660709544,6.467200058456757e-05,-0.0014278051884513193,0.07189522228114603,-7.629590333341938e-05,-0.002857520780395919,0.14391486346444665
38.878,201,38,878000000,,12.224215844451605,0.9973663794826397,6.12374906068384e-05,-0.0014352866617766843,0.07251373166414488,-8.600390989343117e-05,-0.0028718983884809665,0.14515513679254813
38.888,202,38,888000000,,12.246833751067644,0.997321094052553,5.7765607469867e-05,-0.001442642867840135,0.07313378701058355,-9.579055384543008e-05,-0.0028860095681146024,0.1463985665236685
38.898,203,38,898000000,,12.269549441036466,0.997275307977599,5.4247402768089474e-05,-0.0014498721959189192,0.07375537286204843,-0.00010567298272473953,-0.0028998496204616234,0.14764512258827817
38.908,204,38,908000000,,12.292362870658371,0.9972290194608951,5.067919887827084e-05,-0.001456989208733682,0.07437847376174198,-0.0001156602227864791,-0.002913446844547414,0.1488947749168474
38.918,205,38,918000000,,12.31527337314568,0.9971822267317758,4.706315633257234e-05,-0.0014640105999936149,0.07500307425885828,-0.0001257500443778423,-0.0029268346416582228,0.15014749343984657
38.928,206,38,928000000,,12.338279624279696,0.9971349280704639,4.340767398316291e-05,-0.0014709383455783944,0.07562915891419295,-0.00013592563190036578,-0.0029400180100163406,0.15140324808774597
38.938,207,38,938000000,,12.361380227679186,0.9970871218121844,3.972165422320211e-05,-0.0014777580086624113,0.07625671229309793,-0.00014616667265345313,-0.002952969336360656,0.15266200879101588
38.948,208,38,948000000,,12.3845742816972,0.9970388063302722,3.600812780365508e-05,-0.0014844514151131497,0.07688571895298063,-0.00015646391577186662,-0.002965652702746169,0.15392374548012666
38.958,209,38,958000000,,12.40786143970874,0.9969899800206767,3.22618184606816e-05,-0.0014910075989282327,0.07751616343631522,-0.0001668256985028161,-0.002978045299240518,0.15518842808554856
38.968,210,38,967000000,,12.431241520098979,0.9969406412925883,2.847485786607497e-05,-0.0014974285175902056,0.07814803027677614,-0.00017726748553811034,-0.0029901496571585187,0.15645602653775204
38.978,211,38,978000000,,12.45471399545546,0.996890788565184,2.46394595030177e-05,-0.0015037308651135812,0.07878130400207882,-0.00018780690377643956,-0.0030019976623183128,0.1577265107672072
38.988,212,38,988000000,,12.478277811633147,0.9968404202932217,2.075685090680754e-05,-0.0015099279107085482,0.0794159691528756,-0.0001984431432161314,-0.0030136157586563494,0.1589998507043846
38.998,213,38,998000000,,12.501931684615018,0.9967895349890478,1.683717623050556e-05,-0.001516015062677791,0.08005201028804304,-0.00020915482312843488,-0.0030249962117562886,0.16027601627975432
39.008,214,39,8000000,,12.525674544911848,0.9967381312181709,1.2891415764729037e-05,-0.0015219740855153048,0.08068941197209709,-0.00021991667203783403,-0.0030361042774633275,0.16155497742378683
39.018,215,39,18000000,,12.549505722563133,0.9966862075750966,8.924091180221073e-06,-0.001527790187824706,0.08132815875866276,-0.0002307167616965607,-0.0030469110907713664,0.16283670406695233
39.028,216,39,28000000,,12.57342475486157,0.9966337626816902,4.931460184647303e-06,-0.0015334532727603906,0.08196823518703633,-0.00024156032894259157,-0.0030573958196838374,0.16412116613972136
39.038,217,39,38000000,,12.597431026907133,0.9965807951634867,9.000639579997255e-07,-0.0015389736949945668,0.08260962577368686,-0.0002524752997092485,-0.0030675767762748276,0.16540833357256396
39.048,218,39,48000000,,12.621523596295864,0.9965273036626301,-3.182151306404835e-06,-0.0015443725563626734,0.0832523150318915,-0.0002634886332943636,-0.0030774938537647856,0.16669817629595057
39.058,219,39,58000000,,12.64570134674835,0.9964732868782405,-7.311285818355662e-06,-0.001549654021341378,0.08389628750448344,-0.00027459275259238895,-0.0030871557965694517,0.16799066424035153
39.068,220,39,68000000,,12.669963286738366,0.9964187435649918,-1.14740460578667e-05,-0.0015548072873238649,0.08454152775416529,-0.00028575884987918954,-0.003096543129247916,0.16928576733623718
39.078,221,39,78000000,,12.694308631588225,0.9963636725216154,-1.5653084153060003e-05,-0.0015598149231528596,0.08518802035277913,-0.0002969488560502248,-0.0031056239323066876,0.17058345551407772
39.088,222,39,88000000,,12.718736640419975,0.9963080725782735,-1.9842478642471284e-05,-0.0015646624739435154,0.08583574985391913,-0.000308147896026704,-0.003114370353768315,0.1718836987043435
39.098,223,39,98000000,,12.743246440053362,0.9962519425786351,-2.405625025049882e-05,-0.0015693506857821712,0.0864847007742861,-0.0003193833837302076,-0.00312278141882119,0.17318646683750488
39.108,224,39,108000000,,12.767837018629617,0.9961952813813209,-2.83155032491473e-05,-0.0015738934213347811,0.08713485761348001,-0.0003306991266385259,-0.0031308809798041974,0.17449172984403227
39.118,225,39,118000000,,12.792507334822604,0.9961380878830378,-3.26277784576228e-05,-0.0015783012067654147,0.08778620489264648,-0.00034211138373233327,-0.00313868850812394,0.17579945765439575
39.128,226,39,128000000,,12.81725653074637,0.9960803610338984,-3.6980276847187416e-05,-0.0015825711960642682,0.08843872716998619,-0.0003535935769011054,-0.003146200389927416,0.17710962019906584
39.138,227,39,138000000,,12.842083933654083,0.9960220998270192,-4.134931316707776e-05,-0.0015866949317971373,0.08909240902345954,-0.0003650964305331807,-0.003153403841879373,0.17842218740851268
39.148,228,39,148000000,,12.866988706489357,0.9959633032966166,-4.571984879086981e-05,-0.001590661033550476,0.089747235019601,-0.00037658733194170416,-0.003160278835243626,0.17973712921320675
39.158,229,39,158000000,,12.89196965813242,0.9959039705143987,-5.010009057300867e-05,-0.0015944584169877993,0.09040318968926438,-0.00038807996739021405,-0.0031668018137267213,0.18105441554361829
39.168,230,39,168000000,,12.91702555402534,0.9958441005681,-5.451476107750221e-05,-0.0015980895378325025,0.09106025753138246,-0.00039962331846265647,-0.0031729731446128247,0.1823740163302176
39.178,231,39,178000000,,12.940613575328518,0.9957836937441976,-5.931341535003005e-05,-0.0016008298466048709,0.09171842289792662,-0.0004117799314928121,-0.003177285595447564,0.18369590150347512
39.188,232,39,188000000,,12.967358307053978,0.9957227456631912,-6.350031731693065e-05,-0.0016048915392014966,0.09237767078581793,-0.00042297186219413094,-0.0031843273784740323,0.18502004099386093
39.198,233,39,198000000,,12.992634645141228,0.9956612590548247,-6.804538894238012e-05,-0.0016080658643382272,0.0930379853143997,-0.00043472495672600934,-0.0031895215623223665,0.18634640473184558
39.208,234,39,208000000,,13.017982843130426,0.9955992319782417,-7.258737411267076e-05,-0.0016110851883020267,0.09369935122466995,-0.00044645343432631794,-0.003194393005200139,0.18767496264789923
39.218,235,39,218000000,,13.043401404947799,0.9955366637320959,-7.712138861344916e-05,-0.0016139312872976038,0.09436175307431897,-0.0004581434711835124,-0.0031989063753731224,0.18900568467249226
39.228,236,39,228000000,,13.068888740427155,0.9954735536381336,-8.167143814871139e-05,-0.0016165959521083077,0.09502517537142507,-0.0004698405686787405,-0.0032030408259330736,0.190338540736095
39.238,237,39,238000000,,13.094443594105712,0.9954099010311626,-8.626543227118432e-05,-0.0016190860575165278,0.09568960261044462,-0.000481600828579714,-0.0032068046709253888,0.19167350076917775
39.248,238,39,248000000,,13.120065171310186,0.9953457052808672,-9.091523622128058e-05,-0.00162140892058991,0.09635501931121764,-0.0004934485181714877,-0.0032102100463158355,0.1930105347022108
39.258,239,39,258000000,,13.145753168879091,0.9952809657953052,-9.560019024962792e-05,-0.0016235697532044552,0.09702141004657078,-0.0005053427832597103,-0.0032132711430541898,0.1943496124656645
39.268,240,39,268000000,,13.171507217452431,0.9952156820240959,-0.00010028918528719291,-0.0016255708736259112,0.09768875940827505,-0.0005172214415978351,-0.0032159985428159015,0.19569070399000912
39.278,241,39,278000000,,13.197325853342443,0.9951498534778777,-0.00010496191836528376,-0.0016274002874105031,0.0983570519803173,-0.0005290410292456074,-0.003218372381349773,0.19703377920571502
39.288,242,39,288000000,,13.223207096344325,0.9950834797114438,-0.00010963315527698128,-0.0016290430924079593,0.09902627229447102,-0.0005408272437320693,-0.0032203601788517145,0.19837880804325253
39.298,243,39,298000000,,13.249149453154756,0.995016560302066,-0.0001143373889336404,-0.0016304944701259207,0.09969640484686158,-0.0005526469611141673,-0.003221945519743776,0.19972576043309193
39.308,244,39,308000000,,13.275151968637092,0.9949490948486628,-0.00011909388852243084,-0.0016317591696735452,0.10036743415313819,-0.0005645386375716884,-0.0032231339023611285,0.2010746063057036
39.318,245,39,318000000,,13.301214322151992,0.9948810829786756,-0.00012388974102402311,-0.0016328470209736046,0.10103934477774419,-0.000576477733517463,-0.0032239473334745705,0.20242531559155771
39.328,246,39,328000000,,13.327336448523996,0.9948125243527455,-0.00012869283411298007,-0.0016337707133931058,0.10171212131466374,-0.0005884021490614697,-0.0032244174802014028,0.20377785822112468
39.338,247,39,338000000,,13.353517132924678,0.9947434186960049,-0.00013347817734155051,-0.0016345267782267334,0.1023857483577267,-0.000600260728401052,-0.0032245425724483794,0.20513220412487485
39.348,248,39,348000000,,13.379754118975477,0.9946737658032817,-0.0001382492827731953,-0.0016350926104290275,0.10306021046946015,-0.0006120550662285554,-0.0032242770347196345,0.20648832323327845
39.358,249,39,358000000,,13.406045593897515,0.994603565495569,-0.0001430394254377262,-0.0016354537747009829,0.10373549216239622,-0.0006238475313675411,-0.0032235853636284643,0.20784618547680586
39.368,250,39,368000000,,13.432390456559933,0.9945328176103044,-0.00014787481981200158,-0.0016356094960314129,0.10441157795342004,-0.0006356892025840352,-0.0032224605317816945,0.20920576078592734
39.378,251,39,378000000,,13.45878834168169,0.994461522004289,-0.00015275242055057988,-0.001635570814106218,0.10508845239950577,-0.0006475754248966333,-0.003220925020500496,0.2105670190911133
39.388,252,39,388000000,,13.485239374522825,0.9943896785590564,-0.00015764564898400503,-0.0016353576975360674,0.10576610009008941,-0.000659456688758155,-0.003219024058699364,0.21192993032283397
39.398,253,39,398000000,,13.51174258309068,0.9943172872151206,-0.00016252069432551606,-0.0016349777450368598,0.10644450563538099,-0.0006712665908191324,-0.003216779949973395,0.21329446441155972
39.408,254,39,408000000,,13.53829562635709,0.994244347998022,-0.00016737194442540928,-0.0016344097409981132,0.10712365362243166,-0.0006829886864566882,-0.0032141518403078985,0.21466059128776083
39.418,255,39,418000000,,13.564896354954382,0.9941708609768822,-0.00017222646632574805,-0.0016336296216195045,0.10780352859154692,-0.0006946707811333622,-0.00321108621160083,0.21602828088190767
39.428,256,39,428000000,,13.591547273146833,0.9940968262372726,-0.00017711394288572887,-0.0016326275416077506,0.10848411507194688,-0.0007063688176452761,-0.0032075571164723164,0.21739750312447043
39.438,257,39,438000000,,13.618256340295742,0.9940222438737459,-0.00018204004501837196,-0.0016314129511256893,0.10916539761942923,-0.0007180951416253763,-0.0032035820566223053,0.21876822794591944
39.448,258,39,448000000,,13.645010778248462,0.9939471139976106,-0.000186985608750931,-0.0016300101536718234,0.10984736081992012,-0.0007298160389403392,-0.0031992134820971884,0.22014042527672523
39.458,259,39,458000000,,13.671808990617365,0.9938714367722215,-0.0001919185282977367,-0.0016284360577587182,0.1105299892861853,-0.000741470578168766,-0.0031944920962581665,0.2215140650473579
39.468,260,39,468000000,,13.698648836603265,0.9937952124456086,-0.00019682265761550676,-0.0016266789551140002,0.111213267628489,-0.0007530232947773349,-0.0031893983409928724,0.22288911718828794
39.478,261,39,478000000,,13.725528065708644,0.9937184413329578,-0.00020171478783531652,-0.0016247090797777194,0.1118971804217929,-0.0007645000885332554,-0.0031838694958941705,0.2242655516299854
39.488,262,39,488000000,,13.752445365295436,0.9936411237774618,-0.0002066270554214597,-0.001622503658963334,0.11258171221561497,-0.0007759587550804575,-0.0031778532113939367,0.22564333830292085
39.498,263,39,498000000,,13.779400232991922,0.9935632601175185,-0.00021157014828836367,-0.0016200689054240017,0.11326684757448861,-0.0007874208892137074,-0.0031713594351007054,0.22702244713756442
39.508,264,39,508000000,,13.806393963742247,0.9934848506973133,-0.00021652783513232706,-0.001617433982977428,0.11395257108966113,-0.0007988598545263176,-0.0031644497924588136,0.22840284806438663
39.518,265,39,518000000,,13.833425655261998,0.9934058959129068,-0.0002214794659782849,-0.001614621111635532,0.1146388673661201,-0.0008102388123536189,-0.003157173198658192,0.22978451101385763
39.528,266,39,528000000,,13.860492513508362,0.9933263962443909,-0.0002264080619155574,-0.0016116243924065503,0.11532572102674474,-0.000821521865545485,-0.003149521960582755,0.23116740591644774
39.538,267,39,538000000,,13.88759215566058,0.9932463522523096,-0.00023131588192412095,-0.0016084112231501272,0.11601311668850627,-0.0008327051147480372,-0.0031414309747403615,0.2325515027026274
39.548,268,39,548000000,,13.914723087648698,0.9931657645319049,-0.00023622684029218802,-0.0016049515956005683,0.11670103893716081,-0.0008438280992627562,-0.0031328352462033442,0.2339367713028669
39.558,269,39,558000000,,13.941884690634506,0.9930846336716467,-0.0002411552497360185,-0.0016012464304820616,0.1173894723527879,-0.0008549183680064343,-0.003123733354701645,0.2353231816476364
39.568,270,39,568000000,,13.969076945573487,0.9930029602584434,-0.0002460976901971449,-0.0015973251700002146,0.11807840152287273,-0.0008659749827350393,-0.003114184634490904,0.23671070366740635
39.578,271,39,578000000,,13.996299343987788,0.9929207449157083,-0.0002510351057441397,-0.0015932212656289396,0.1187678110575821,-0.0008769670707098538,-0.0031042600974141633,0.238099307292647
39.588,272,39,588000000,,14.023550031526222,0.992837988363931,-0.00025595087508618826,-0.001588931351049425,0.11945768559525066,-0.0008878599936100295,-0.003093957150305813,0.23948896245382884
39.598,273,39,598000000,,14.05082659821899,0.9927546914048961,-0.00026084289935933067,-0.0015844244793743489,0.12014800977802494,-0.0008986413120834478,-0.0030832150446543187,0.2408796390814218
39.608,274,39,608000000,,14.078127424137545,0.9926708548864013,-0.0002657242333615788,-0.0015796650185825553,0.1208387682333865,-0.0009093273698702161,-0.003071960102410298,0.24227130710589667
39.618,275,39,618000000,,14.105451794826667,0.9925864796486865,-0.0002706063355315786,-0.0015746494180207157,0.12152994556918456,-0.0009199389332729156,-0.003060182674861474,0.24366393645772347
39.628,276,39,628000000,,14.132799471334554,0.9925015665255735,-0.00027549299162973363,-0.001569406540728348,0.12222152638142005,-0.0009304894337201743,-0.003047939271678147,0.24505749706737256
39.638,277,39,638000000,,14.160169763684063,0.9924161163858903,-0.0002803786685739672,-0.0015639705229906415,0.12291349527839775,-0.0009409752592332901,-0.0030352991215451767,0.2464519588653142
39.648,278,39,648000000,,14.187560862711761,0.9923301301886687,-0.00028525039424515537,-0.0015583433186062887,0.12360583690932116,-0.0009513702703647204,-0.0030222694299997343,0.24784729178201895
39.658,279,39,658000000,,14.21497053998054,0.9922436089823329,-0.00029009711703905413,-0.0015524939838416005,0.12429853595198921,-0.0009616439802734184,-0.003008791712713711,0.24924346574795692
39.668,280,39,668000000,,14.242397162639628,0.9921565538544904,-0.00029491793229677733,-0.0015463918279655239,0.12499157707345353,-0.0009717859363128079,-0.002994805535619361,0.25064045069359847
39.678,281,39,678000000,,14.269841025738712,0.992068965905682,-0.0002997203118278518,-0.0015400245787248125,0.12568494491728943,-0.0009818067663112738,-0.002980284932666351,0.2520382165494138
39.688,282,39,688000000,,14.297301133513521,0.9919808462222713,-0.00030451722918616,-0.0015334178629661146,0.12637862409070927,-0.0009917375194262667,-0.002965277707311275,0.2534367332458733
39.698,283,39,698000000,,14.324775787718712,0.9918921959211624,-0.000309314345165017,-0.0015266060181770647,0.12707259920767888,-0.0010015970847237962,-0.0029498507138052987,0.25483597071344766
39.708,284,39,708000000,,14.352263247605089,0.9918030162049792,-0.0003141009552143154,-0.0015195945106168793,0.12776685493436493,-0.0010113646978990006,-0.0029340176652777814,0.2562358988826065
39.718,285,39,718000000,,14.379761500430737,0.991713308361838,-0.0003188622836751777,-0.0015123583945922526,0.12846137597328064,-0.0010210037445528657,-0.0029177330583019493,0.25763648768382064
39.728,286,39,728000000,,14.407269063763458,0.9916230737351216,-0.00032358779739470145,-0.0015048621957977496,0.129156147034581,-0.0010304831769396342,-0.00290092951475317,0.25903770704756024
39.738,287,39,738000000,,14.434785081580506,0.991532313668022,-0.00032827978571631645,-0.0014970983816616574,0.1298511527902509,-0.0010398044427295636,-0.0028835918233142024,0.2604395269042957
39.748,288,39,748000000,,14.462308822751174,0.9914410295026748,-0.0003329550679639037,-0.0014890884551779994,0.13054637787074813,-0.001049005338927734,-0.002865758548351472,0.2618419171844971
39.758,289,39,758000000,,14.489839048073717,0.9913492226111605,-0.0003376289123724713,-0.0014808629978333382,0.13124180690521925,-0.0010581230780248427,-0.0028474865543322192,0.2632448478186351
39.768,290,39,768000000,,14.51737397810468,0.9912568944451794,-0.0003422979537181711,-0.0014724277327404745,0.13193742457537,-0.0010671515312575377,-0.0028287882350798515,0.2646482887371796
39.778,291,39,778000000,,14.544911876651161,0.9911640465413682,-0.00034694128394698043,-0.0014637589829973009,0.13263321561782795,-0.0010760420302016508,-0.002809622373771521,0.2660522098706014
39.788,292,39,788000000,,14.572451498641154,0.9910706804780817,-0.00035153744547648943,-0.0014548328743975306,0.13332916477441809,-0.001084744649113038,-0.00278994764503879,0.2674565811493703
39.798,293,39,798000000,,14.599991922277349,0.9909767978569832,-0.0003560828262554928,-0.0014456366417437648,0.13402525675722704,-0.001093247693216563,-0.0027697400970922528,0.2688613725039571
39.808,294,39,808000000,,14.62753206092713,0.9908824002795426,-0.00036059972965816,-0.0014361853281314675,0.1347214762233202,-0.001101598251660191,-0.0027490239370148834,0.27026655386483184
39.818,295,39,818000000,,14.6550703467196,0.9907874893760934,-0.0003651117734831045,-0.0014265038347809826,0.1354178078245982,-0.0011098487562039682,-0.002727842417178442,0.2716720951624649
39.828,296,39,828000000,,14.682605016488987,0.9906920668418748,-0.00036962218617553756,-0.0014166029174019804,0.13611423625832872,-0.001118007510339741,-0.0027062161643284757,0.27307796632732667
39.838,297,39,838000000,,14.710134626666855,0.9905961344598376,-0.0003741055722275547,-0.0014064626484124937,0.1368107462923389,-0.0011260177707021713,-0.002684112823432131,0.2744841372898873
39.848,298,39,848000000,,14.737658243710063,0.9904996940538896,-0.0003785321024269629,-0.001396064316555229,0.1375073227032748,-0.0011338142549369794,-0.0026615038271025357,0.27589057798061695
39.858,299,39,858000000,,14.765174815735568,0.9904027474751411,-0.0003828936691901909,-0.0013853970683579367,0.13820395023693438,-0.00114137679927849,-0.0026383703514332563,0.2772972583299866
39.868,300,39,868000000,,14.792682875016087,0.990305296582178,-0.00038721785439174423,-0.0013744711146180793,0.13890061357954084,-0.0011487617261852175,-0.002614725433869758,0.2787041482684658
39.878,301,39,878000000,,14.82018435005936,0.9902073432630387,-0.0003915365779368769,-0.001363305883041337,0.1395972974098418,-0.001156036559576251,-0.002590598994440011,0.28011121772652553
39.888,302,39,888000000,,14.847685838767541,0.9901088894734024,-0.000395852633900762,-0.0013519055344680363,0.1402939864636542,-0.0011632069487892153,-0.0025659987025904215,0.28151843663463544
39.898,303,39,898000000,,14.875173341780968,0.9900099372392092,-0.00040013561294939917,-0.0013402574574934456,0.14099066553873765,-0.0011702080926096748,-0.0025409083641116624,0.28292577492326637
39.908,304,39,908000000,,14.902645299470457,0.9899104886316191,-0.0004043487054555978,-0.0013283476273651532,0.1416873194460765,-0.0011769620733398827,-0.0025153109816666674,0.2843332025228884
39.918,305,39,918000000,,14.93010069355897,0.9898105457431776,-0.0004084865522075698,-0.0013161729669512981,0.14238393295259974,-0.0011834563039727064,-0.002489202492267023,0.2857406893639719
