Time,header.seq,header.stamp.secs,header.stamp.nsecs,header.frame_id,position_controller_output.thrust.num,position_controller_output.orientation_set_point.w,position_controller_output.orientation_set_point.x,position_controller_output.orientation_set_point.y,position_controller_output.orientation_set_point.z,position_controller_output.euler_set_point.phi,position_controller_output.euler_set_point.theta,position_controller_output.euler_set_point.psi
416.043,1,416,43000000,,10.01781118312293,0.9999999990590767,-4.3111666585666027e-05,-4.236999384568593e-06,2.2975889329515512e-06,-8.622335266990138e-05,-8.473800655384167e-06,4.5955431899701426e-06
416.043,2,416,43000000,,10.017816498303638,0.9999999990195937,-4.311051347783003e-05,-4.244776253258111e-06,9.180332190707525e-06,-8.622110491797618e-05,-8.488760960601027e-06,1.8361030354075098e-05
416.053,3,416,53000000,,10.01895048155415,0.9999999987173886,-4.6027340357232705e-05,-4.580164208813528e-06,2.063319514102773e-05,-9.205486973711315e-05,-9.158429023825576e-06,4.12668118681238e-05
416.063,4,416,63000000,,10.02498459764813,0.9999999980845987,-4.963228359958536e-05,-4.986531121002711e-06,3.6641144060811623e-05,-9.92649326014008e-05,-9.969425055711412e-06,7.328278303634614e-05
416.073,5,416,73000000,,10.035751880794505,0.9999999969180676,-5.3513775010591335e-05,-5.435328200175721e-06,5.718913954209302e-05,-0.00010702817158546864,-1.0864535553434251e-05,0.00011437886071768531
416.083,6,416,83000000,,10.050773468402182,0.9999999949424235,-5.7557627694591127e-05,-5.93381995617379e-06,8.226215127122998e-05,-0.00011511623132690988,-1.1858170223977282e-05,0.0001645249855373728
416.093,7,416,93000000,,10.05904214183088,0.9999999920586095,-5.77374853221491e-05,-6.310818911459492e-06,0.00011184514714166227,-0.00011547638166202734,-1.2608722407936312e-05,0.00022369102313181866
416.103,8,416,103000000,,10.057296640523987,0.9999999877411303,-5.640603127087113e-05,-6.523135253029008e-06,0.00014592308411133552,-0.00011281396515969586,-1.3029808462183823e-05,0.0002918469047010746
416.113,9,416,113000000,,10.057748214975177,0.9999999813623377,-5.653138704925394e-05,-6.805090252567576e-06,0.00018448094458216218,-0.00011306528306157734,-1.3589322324314423e-05,0.0003689626600955469
416.123,10,416,123000000,,10.059688772271292,0.9999999724329708,-5.7656608014800344e-05,-7.201042364890667e-06,0.00022750366731792498,-0.00011531648964534461,-1.437585015362508e-05,0.00045500816821526167
416.133,11,416,133000000,,10.060648720637557,0.9999999604393358,-5.874565599842683e-05,-7.638463268278559e-06,0.00027497622019790024,-0.00011749550842432885,-1.5244618615906091e-05,0.000549953343878402
416.143,12,416,143000000,,10.061401523283674,0.999999944787803,-5.921225440308432e-05,-8.087493244302121e-06,0.0003268836002081841,-0.00011842978989776815,-1.6136274566314057e-05,0.0006537681687344551
416.153,13,416,153000000,,10.061819684559136,0.9999999247889306,-5.9136722089878266e-05,-8.631394625323592e-06,0.00038321074611990434,-0.00011828005086395771,-1.7217464298280305e-05,0.0007664225306080087
416.163,14,416,163000000,,10.062289384750478,0.9999998996710358,-5.9052033573872675e-05,-9.258295467067318e-06,0.00044394264034782095,-0.00011811227589751097,-1.8464157645947665e-05,0.0008878864018684568
416.173,15,416,173000000,,10.06283616342273,0.9999998686395357,-5.894817140639499e-05,-9.982631883157879e-06,0.0005090642362116575,-0.00011790649122416816,-1.9905244333262573e-05,0.0010181296916958174
416.183,16,416,183000000,,10.063464580804434,0.9999998308460786,-5.881512497314681e-05,-1.0788566840440755e-05,0.0005785604579275203,-0.00011764271402359063,-2.1509073821368574e-05,0.0011571222476709432
416.193,17,416,193000000,,10.064187116225321,0.9999997853873019,-5.866163412577711e-05,-1.1708682398053793e-05,0.0006524163170220885,-0.00011733852124460757,-2.3340816157846334e-05,0.0013048340983335001
416.203,18,416,203000000,,10.065004667311817,0.9999997313062987,-5.8511896331473774e-05,-1.2758537075872384e-05,0.0007306167959172622,-0.00011704240472742479,-2.543156774970079e-05,0.0014612352127420787
416.213,19,416,213000000,,10.06594884149444,0.9999996675972314,-5.833699190616314e-05,-1.3944996719709035e-05,0.0008131468188291609,-0.00011669662399895594,-2.7795111093409375e-05,0.001626295441601275
416.223,20,416,223000000,,10.066979509796642,0.9999995932020405,-5.8131650896825604e-05,-1.5231370116217026e-05,0.0008999913681811681,-0.00011629067101693502,-3.035809187679206e-05,0.0017999847477869915
416.233,21,416,233000000,,10.068138582981277,0.9999995070068419,-5.7951205641649245e-05,-1.6683552368952894e-05,0.000991135368184073,-0.00011593542578565294,-3.3252213315071444e-05,0.001982272992074473
416.243,22,416,243000000,,10.069402057903977,0.999999407854968,-5.77307490893228e-05,-1.832478625649541e-05,0.0010865639176777754,-0.00011550125224563205,-3.652409452126193e-05,0.0021731303762381757
416.253,23,416,253000000,,10.07081266861761,0.9999992945379833,-5.748602069996748e-05,-2.004718953751539e-05,0.0011862617662543643,-0.00011501952306589579,-3.995796386369044e-05,0.0023725263913215136
416.263,24,416,263000000,,10.072364001289829,0.9999991657954717,-5.7233303288025796e-05,-2.19187701006088e-05,0.0012902140127478562,-0.0001145230712557814,-4.3689817225800454e-05,0.0025804312480075292
416.273,25,416,273000000,,10.074050127280525,0.9999990203204839,-5.6946984036588034e-05,-2.4015853549392322e-05,0.001398405639577931,-0.00011396102468093084,-4.7872390094072514e-05,0.0027968149238367557
416.283,26,416,283000000,,10.075904980282223,0.9999988567653664,-5.6568252366653384e-05,-2.6196213749868755e-05,0.0015108215127585766,-0.00011321553139454383,-5.222143856142836e-05,0.003021647137052991
416.293,27,416,293000000,,10.07789406203953,0.999998673721033,-5.62018443972683e-05,-2.854346728112396e-05,0.0016274467311132197,-0.0001124964460803481,-5.690392786372733e-05,0.0032548981062487294
416.303,28,416,303000000,,10.08007346524036,0.9999984697393881,-5.581441626243288e-05,-3.11334330683541e-05,0.0017482660442276663,-0.00011173752119917565,-6.207161399451877e-05,0.0034965373446158394
416.313,29,416,313000000,,10.082436510119994,0.9999982433260146,-5.54597604383177e-05,-3.389099604737702e-05,0.0018732646673466369,-0.00011104630011982894,-6.75740914559686e-05,0.00374653528570708
416.323,30,416,323000000,,10.084983374264219,0.9999979929446043,-5.506986819201209e-05,-3.686029445365566e-05,0.002002427350058293,-0.00011028713597243593,-7.349989419158653e-05,0.004004861438348911
416.333,31,416,333000000,,10.087724171362144,0.9999977170159718,-5.457908336648247e-05,-4.002603049780824e-05,0.002135739191200023,-0.00010932888841668518,-7.981874494800145e-05,0.0042714860027451805
416.343,32,416,343000000,,10.090664428131117,0.9999974139044079,-5.413814997089429e-05,-4.3395967378288295e-05,0.002273185173165778,-0.00010847331468713008,-8.6545578332764e-05,0.004546378966691714
416.353,33,416,353000000,,10.093818320384813,0.9999970819436481,-5.36039582556035e-05,-4.704686022153974e-05,0.002414749929127691,-0.0001074348171568874,-9.383456570111193e-05,0.004829509604583154
416.363,34,416,363000000,,10.097193384151232,0.9999967194237558,-5.303709669871775e-05,-5.083434792052361e-05,0.0025604187907475205,-0.00010633416059923159,-0.00010139676812470633,0.005120848581450119
416.373,35,416,373000000,,10.100792505813986,0.999996324582084,-5.2472293745329915e-05,-5.4876619237262244e-05,0.0027101766239964885,-0.00010524165326160999,-0.00010946841693626475,0.005420365659424158
416.383,36,416,383000000,,10.104628231849254,0.9999958956316917,-5.184721829702132e-05,-5.905651676683165e-05,0.0028640082948878996,-0.00010403228861132062,-0.00011781556730050546,0.005728030566520159
416.393,37,416,393000000,,10.108732871125753,0.9999954307220996,-5.121502662168118e-05,-6.355123999463608e-05,0.0030218989022003464,-0.00010281367706429685,-0.00012679236629709045,0.00604381354109608
416.403,38,416,403000000,,10.1130487322261,0.999994927980103,-5.052777643106132e-05,-6.831169232923362e-05,0.003183833311926182,-0.00010149002750657818,-0.00013630094808836368,0.006367684321435714
416.413,39,416,413000000,,10.117632918757707,0.9999943854863782,-4.983437395345126e-05,-7.332173238865855e-05,0.003349796390035503,-0.00010015941530377717,-0.00014630877195553893,0.006699612663068535
416.423,40,416,423000000,,10.122496284843388,0.9999938012852724,-4.911046849196756e-05,-7.85824778583624e-05,0.0035197732353335004,-9.877351452015731e-05,-0.00015681826671354315,0.007039568780976909
416.433,41,416,433000000,,10.127647487803127,0.999993173382206,-4.834779789932735e-05,-8.409072587534937e-05,0.003693748713789326,-9.73161572399071e-05,-0.0001678231351953663,0.007387522427282234
416.443,42,416,443000000,,10.13306823282248,0.999992499740967,-4.755317677369312e-05,-8.987832132766533e-05,0.003871707924183841,-9.580160713087048e-05,-0.000179387071373327,0.007743443827105723
416.453,43,416,453000000,,10.138794529299483,0.9999917782920072,-4.6726648776136214e-05,-9.593217421436699e-05,0.0040536354996451186,-9.423027920743502e-05,-0.00019148394654155965,0.00810730227045857
416.463,44,416,463000000,,10.144835257960308,0.9999910069288386,-4.586012751330771e-05,-0.00010224879044911853,0.004239516771786984,-9.258640316467917e-05,-0.00020410689369443347,0.00847906844543191
416.473,45,416,473000000,,10.151172476714851,0.9999901835045389,-4.496034503104452e-05,-0.00010885945488425506,0.004429336606537062,-9.088415996424016e-05,-0.00021731848523809383,0.008858712116596142
416.483,46,416,483000000,,10.157842172039924,0.999989305841362,-4.4027457567227736e-05,-0.00011575077476598555,0.0046230796370044895,-8.91242260585611e-05,-0.00023109199098936273,0.009246202579325154
416.493,47,416,493000000,,10.164853356576874,0.9999883717261935,-4.305366765643609e-05,-0.0001229190153003866,0.004820731427612392,-8.72914558931035e-05,-0.00024542007405492505,0.009641510992653509
416.503,48,416,503000000,,10.172188492552687,0.9999873789066265,-4.204555209933323e-05,-0.00013039473420852087,0.005022276145767912,-8.539980260169004e-05,-0.0002603638511637918,0.010044605729857707
416.513,49,416,513000000,,10.179883454280601,0.9999863251020007,-4.1003408683125224e-05,-0.00013816425749587976,0.005227699355878981,-8.345026160413771e-05,-0.0002758960327413629,0.010455457955058148
416.523,50,416,523000000,,10.18794737192686,0.9999852079978224,-3.99197501155052e-05,-0.0001462235731448436,0.005436985225358184,-8.14283536201718e-05,-0.00029200873837753605,0.010874036039120958
416.533,51,416,533000000,,10.196363151458085,0.999984025241375,-3.8800983808210646e-05,-0.0001546024315568944,0.005650119784222433,-7.934777632369628e-05,-0.0003087614681340778,0.01130031208716026
416.543,52,416,543000000,,10.205166478862932,0.9999827744543276,-3.764755519137894e-05,-0.00016328687007179956,0.005867087199866656,-7.720985417667508e-05,-0.00032612635753537234,0.011734254475947694
416.553,53,416,553000000,,10.214366592559227,0.9999814532260098,-3.645232348309778e-05,-0.00017227257709609108,0.006087873036654601,-7.500084648471669e-05,-0.00034409493654674606,0.01217583437702723
416.563,54,416,563000000,,10.223946855515269,0.9999800591085323,-3.522148522184918e-05,-0.00018158840142201246,0.006312461461915157,-7.273411016880469e-05,-0.0003627249001925126,0.012625020177124956
416.573,55,416,573000000,,10.233947238047678,0.9999785896131108,-3.3971756625566505e-05,-0.00019131124287337275,0.0065408380398744095,-7.044473546653612e-05,-0.0003821698954380448,0.01308178306736518
416.583,56,416,583000000,,10.244354954184644,0.9999770422779171,-3.2681773109221845e-05,-0.00020122756393547105,0.006772987403791763,-6.808787468630907e-05,-0.0004020031927705059,0.013546092343561602
416.593,57,416,593000000,,10.255193051201324,0.9999754145391039,-3.141344125282381e-05,-0.00021149613579247797,0.007008894186440137,-6.579005187158791e-05,-0.00042254153772702807,0.014017917365055902
416.603,58,416,603000000,,10.266466522246976,0.9999737038404617,-3.011591274363587e-05,-0.00022210008671130164,0.0072485439521328045,-6.34500523919098e-05,-0.00044375191419310234,0.014497229298955411
416.613,59,416,613000000,,10.278184903975504,0.9999719075933811,-2.8786703283027272e-05,-0.00023303710420809532,0.007491921799477568,-6.106358737029483e-05,-0.0004656297966358913,0.014983998403201462
416.623,60,416,623000000,,10.29035775865803,0.9999700231817842,-2.742234833489345e-05,-0.00024430525056976714,0.007739011430082057,-5.8624421872474264e-05,-0.0004881714298063944,0.015478192143820057
416.633,61,416,633000000,,10.302994671588193,0.9999680479693376,-2.5938139719425457e-05,-0.0002558849491616535,0.007989799339557629,-5.59635680275524e-05,-0.0005113390874555979,0.015979783535401228
416.643,62,416,643000000,,10.316105245500701,0.9999659792787526,-2.444254250553328e-05,-0.0002677951078724772,0.008244269229416528,-5.329897949826381e-05,-0.0005351689983230656,0.016488740104813594
416.653,63,416,653000000,,10.32969910643093,0.9999638143948468,-2.290375702533249e-05,-0.0002801082670939606,0.008502406663686556,-5.056905321674565e-05,-0.0005598068175398652,0.0170050330423708
416.663,64,416,663000000,,10.34378589249344,0.9999615506192685,-2.1397652098859064e-05,-0.0002927321971449889,0.00876419580974004,-4.79247915567122e-05,-0.000585066850499194,0.017528630797784533
416.673,65,416,673000000,,10.358375260341687,0.9999591851965276,-1.972061482120838e-05,-0.0003057155062293898,0.009029622697304122,-4.4960619613205155e-05,-0.0006110499556255533,0.018059505394985145
416.683,66,416,683000000,,10.373476877787168,0.999956715381076,-1.8012538054283795e-05,-0.00031896834322436824,0.009298671493745629,-4.1955488997749784e-05,-0.0006375741314497141,0.018597625325944053
416.693,67,416,693000000,,10.389100426579324,0.9999541383527445,-1.6342037996826694e-05,-0.00033257491470319657,0.009571328228591832,-3.904895302564197e-05,-0.0006648065434908812,0.01914296278803621
416.703,68,416,703000000,,10.405255597875936,0.9999514512726803,-1.4630614709496894e-05,-0.00034660118513112087,0.009847576137392844,-3.608618061334683e-05,-0.0006928806194248516,0.019695484297705856
416.713,69,416,713000000,,10.421952087040532,0.9999486513314711,-1.2809589744159012e-05,-0.00036095672466248893,0.010127400318820447,-3.2928979053938935e-05,-0.0007216169869721512,0.020255160092172656
416.723,70,416,723000000,,10.439199598368281,0.9999457356902832,-1.0959126035192463e-05,-0.00037557876634172754,0.010410787734121537,-2.9737212707024855e-05,-0.0007508886559310923,0.020821964243867536
416.733,71,416,733000000,,10.457007842415663,0.9999427014340216,-9.157826501252872e-06,-0.0003905560512200931,0.010697720687343138,-2.6670730773799913e-05,-0.0007808714894541602,0.0213958615283993
416.743,72,416,743000000,,10.475386534262949,0.9999395456300079,-7.317814952003274e-06,-0.00040596046193970385,0.01098818613911667,-2.3556291120554688e-05,-0.000811711109821589,0.02197682591310844
416.753,73,416,753000000,,10.494345383183127,0.9999362653913667,-5.360713494559627e-06,-0.000421694453368742,0.011282167325467331,-2.0236005624806692e-05,-0.0008432142926646513,0.02256482390891486
416.763,74,416,763000000,,10.513895673347879,0.99993285782138,-3.430202799711003e-06,-0.00043764825157415095,0.011579650276517538,-1.6995578880853597e-05,-0.0008751584044508487,0.02315982780458327
416.773,75,416,773000000,,10.534042404353126,0.9999293198504074,-1.4467953959489782e-06,-0.00045406947957380437,0.011880619157945915,-1.3682645029948152e-05,-0.000908040518885489,0.023761805992816937
416.783,76,416,783000000,,10.554830085139535,0.9999256485827813,6.183688918263982e-07,-0.00047076027120852544,0.01218506000026484,-1.0235843006875621e-05,-0.0009414657478337141,0.024370730621451602
416.793,77,416,793000000,,10.576176590987478,0.9999218408911333,2.7442224019901393e-06,-0.00048798714056452454,0.01249295696874764,-6.704792057968502e-06,-0.0009759667216899803,0.024986570172128932
416.803,78,416,803000000,,10.598181864722195,0.9999178939226648,4.800039348626013e-06,-0.0005054029573346378,0.012804294232219501,-3.343367578793819e-06,-0.00101084601574164,0.025609293231453858
416.813,79,416,813000000,,10.620825513732353,0.9999138045999025,6.939230473772844e-06,-0.0005231019099319732,0.01311905781960011,1.5205636740068407e-07,-0.0010462959051413812,0.026238871847557497
416.823,80,416,823000000,,10.64411845554611,0.9999095698171383,9.03489246340182e-06,-0.0005411897508519196,0.01343723282824366,3.5239675647402985e-06,-0.0010825246412624612,0.026875276490716565
416.833,81,416,833000000,,10.668076250046143,0.9999051866372395,1.1261710786079038e-05,-0.0005594240915704599,0.013758802495296436,7.127279339487833e-06,-0.0011190522302519934,0.027518473586345366
416.843,82,416,843000000,,10.692683439259424,0.9999006517423613,1.3360253547491471e-05,-0.0005782325093304987,0.014083753778184814,1.0430490861528163e-05,-0.0011567267088723465,0.028168437499708154
416.853,83,416,853000000,,10.717975490084042,0.9998959622140496,1.581593378910046e-05,-0.0005972788613504797,0.014412069914676393,1.441253754137829e-05,-0.0011948896085836047,0.02882513429043008
416.863,84,416,863000000,,10.74395769525721,0.9998911148408736,1.887094756021791e-05,-0.0006167192224347015,0.014743736001276632,1.9552309667786864e-05,-0.0012338609113400345,0.02948853397806408
416.873,85,416,873000000,,10.770642305435118,0.999886106469966,2.208823959368364e-05,-0.000636594042063825,0.015078738066738711,2.4973398402169297e-05,-0.0012737095461980985,0.030158609273853918
416.883,86,416,883000000,,10.798021714826938,0.9998809340875164,2.4577768769480433e-05,-0.0006567314661010802,0.015417060279448358,2.8899972545215414e-05,-0.0013140647556053597,0.030835329832596046
416.893,87,416,893000000,,10.82611481991617,0.9998755943017095,2.8413959205956018e-05,-0.0006774121846402475,0.01575868773349289,3.547062712225885e-05,-0.00135555176997193,0.03151866330136577
416.903,88,416,903000000,,10.854945645501214,0.9998700849178572,3.256861441575135e-05,-0.000697250225119909,0.016103604610750617,4.267232419849105e-05,-0.0013953686805874277,0.03220857948759767
416.913,89,416,913000000,,10.884486154332995,0.9998644019875476,3.743552930433003e-05,-0.000717391655456135,0.01645179599707205,5.125619676765042e-05,-0.0014358210138729621,0.032905048158581536
416.923,90,416,923000000,,10.91479033321027,0.9998585422680573,4.3709673333028275e-05,-0.0007378553680059193,0.01680324698925015,6.261031687301864e-05,-0.001476971451180198,0.033608038584795066
416.933,91,416,933000000,,10.945796778758584,0.9998525024978525,5.0427149322759165e-05,-0.0007587516084471836,0.01715794268382551,7.48022760392459e-05,-0.0015190104253948178,0.03431752243842508
416.943,92,416,943000000,,10.977570614678346,0.9998462805515119,5.689682916258182e-05,-0.0007787175033994578,0.017515868197293817,8.64964449691858e-05,-0.0015591894252198202,0.035033471212292756
416.953,93,416,953000000,,11.01019127873188,0.9998398766947283,6.897040777137802e-05,-0.0007929840719131793,0.017877006827960427,0.00010956650306732013,-0.0015881808299158529,0.03575584267404419
416.963,94,416,963000000,,11.043296475068349,0.9998332786145883,7.939923994819824e-05,-0.0008136204675105664,0.018241345375162078,0.00012908911270844982,-0.0016298670586891717,0.036484621295514344
416.973,95,416,973000000,,11.077740929865806,0.9998264958755823,9.84676694315478e-05,-0.0008236968020542494,0.018608867306979672,0.00016624526806758352,-0.0016507732678530118,0.03721975856106421
416.983,96,416,983000000,,11.112455271200524,0.9998195150399909,0.00011236957248085333,-0.0008372853622899961,0.0189795593991552,0.00019291624135612807,-0.0016785347279064666,0.03796124976940523
416.993,97,416,993000000,,11.148358289233306,0.9998123322215844,0.00013606498891669216,-0.0008529801712752291,0.019353404872048355,0.00023906311877038393,-0.0017109076650978494,0.03870903638683079
417.003,98,417,3000000,,11.185064122327775,0.999804952746472,0.0001535571897078922,-0.0008629580601595397,0.01973038712692982,0.0002730018970966286,-0.001731639836127119,0.03946311376187061
417.013,99,417,13000000,,11.222012186662052,0.9997973644309113,0.00017548631454502637,-0.0008759636685193792,0.02011049481391248,0.0003156698773177139,-0.0017586314739941322,0.04022343971126094
417.023,100,417,23000000,,11.260075083462173,0.9997895722140712,0.00020300334174596824,-0.0008820307403704748,0.020493709470043982,0.00036976967390025265,-0.0017720117835637872,0.04098997772206679
417.033,101,417,33000000,,11.29919252202804,0.9997815704995244,0.0002356026385505216,-0.0008835606135519279,0.02088001615035656,0.0004342055310735312,-0.0017765749440359357,0.04176269904847556
417.043,102,417,43000000,,11.339399228868482,0.9997733539934962,0.00027140029740683005,-0.0008828931318889598,0.021269401775527542,0.0005051211726692153,-0.0017769320344145356,0.04254158090741981
417.053,103,417,53000000,,11.380264322508383,0.999764923894524,0.0003020017805093913,-0.0008774678322595732,0.021661851541224294,0.0005658473325576181,-0.0017676078770099135,0.04332661053096909
417.063,104,417,63000000,,11.421903334220984,0.999756276001305,0.00032761317537764235,-0.0008687316810735675,0.02205734680587181,0.0006167438095275472,-0.001751493351001443,0.04411775046337284
417.073,105,417,73000000,,11.464343104671626,0.9997474031827,0.0003511631431362626,-0.0008603220338712252,0.022455876311365888,0.0006635113590009636,-0.0017359816626767444,0.04491497153407424
417.083,106,417,83000000,,11.507718875078623,0.9997383016954,0.0003747223392342762,-0.0008520490530642112,0.02285742142044408,0.000710298372870591,-0.0017207833686241347,0.04571823316012593
417.093,107,417,93000000,,11.551830953376118,0.9997289695412184,0.0003990127393097777,-0.0008420432598762939,0.023261969123711465,0.0007586351926126103,-0.0017021945470625521,0.046527509632220944
417.103,108,417,103000000,,11.59617703890956,0.9997193922593276,0.0004225139152504134,-0.0008442910854935125,0.02366950425621924,0.0008048240672474254,-0.0017081105621987724,0.047342763611123224
417.113,109,417,113000000,,11.640912769084625,0.9997095769337794,0.0004468966315080121,-0.0008457062262613307,0.024080010291035604,0.0008528058093557933,-0.0017124446152509964,0.04816396788421527
417.123,110,417,123000000,,11.686074290162463,0.9996995199372765,0.000469987531830431,-0.0008478171131114082,0.024493472318471224,0.0008981620963723305,-0.0017181488204851547,0.04899109551967402
417.133,111,417,133000000,,11.731551008730191,0.9996892178115075,0.000493414271300345,-0.000849970562097577,0.02490987543252634,0.0009441780756287088,-0.001723995442839854,0.04982411470127651
417.143,112,417,143000000,,11.777236876669848,0.9996786671288549,0.0005176104020664128,-0.0008520275492457671,0.025329204727723414,0.0009917274393732723,-0.0017297297118084032,0.050662995298964265
417.153,113,417,153000000,,11.823034022941115,0.9996678650426183,0.0005414668811617049,-0.0008540980394254008,0.025751445313331716,0.0010385873150911163,-0.0017355167080119749,0.051507709671782365
417.163,114,417,163000000,,11.868856812197981,0.9996568091666701,0.0005632153748473603,-0.0008563090759074897,0.026176580448793837,0.0010812155324189379,-0.0017415173824064656,0.052358227617461256
417.173,115,417,173000000,,11.914632143693321,0.9996454967699783,0.000581859382067337,-0.0008588348554693153,0.026604597111209678,0.0011176102515766883,-0.0017480219505521255,0.0532145250103062
417.183,116,417,183000000,,11.960299794241397,0.9996339241232092,0.000597955782272239,-0.0008619890618102317,0.027035480389002355,0.001148867216788826,-0.0017556799624220965,0.05407657108915767
417.193,117,417,193000000,,12.005810178419134,0.9996220867563,0.0006131612570431777,-0.0008660913094977666,0.02746921162418734,0.0011782794880260629,-0.0017652150336322503,0.05494432561492389
417.203,118,417,203000000,,12.051118328493677,0.9996099804633728,0.0006289749858793726,-0.0008711402931184561,0.027905777752000916,0.001208841854250823,-0.0017767060698548054,0.055817760105029174
417.213,119,417,213000000,,12.096182277635535,0.9995976021593762,0.0006456265956373077,-0.0008766810187093502,0.02834516387514685,0.0012410365646179857,-0.0017892582263336898,0.05669684513264589
417.223,120,417,223000000,,12.140966992736148,0.9995849497977711,0.0006619567414095129,-0.0008821175571407277,0.028787355126508454,0.0012725787382591035,-0.0018016158103468793,0.05758155403998518
417.233,121,417,233000000,,12.185445695278657,0.9995720213928123,0.0006763919663659954,-0.0008872031601772811,0.0292323347802128,0.001300337434545856,-0.0018131929387454893,0.05847185691065975
417.243,122,417,243000000,,12.229598269765855,0.9995588139889562,0.00068819295899061,-0.000892238334749362,0.029680089809113252,0.001322817835540977,-0.001824541653314693,0.059367729149341145
417.253,123,417,253000000,,12.273410854904968,0.9995453234639562,0.0006979457677074797,-0.0008978112491283181,0.030130601563462294,0.0013411563348711753,-0.0018368661554730714,0.06026913212746198
417.263,124,417,263000000,,12.3168745126161,0.9995315453034547,0.0007069816061036333,-0.0009043087994329246,0.03058385696781625,0.0013579890763424775,-0.001851015849107407,0.06117603720064159
417.273,125,417,273000000,,12.359982466958552,0.999517475640202,0.0007162968791792345,-0.0009116045219363306,0.031039841101790835,0.0013753132079561668,-0.0018667978679967057,0.06208841322087841
417.283,126,417,283000000,,12.40272987997462,0.9995031116812636,0.0007258315238594828,-0.000919203521830825,0.03149854094024072,0.0013930375145364677,-0.0018832199417617712,0.0630062352464496
417.293,127,417,293000000,,12.44511531608821,0.999488451232082,0.0007346325409116658,-0.0009266967041225444,0.03195993602726255,0.0014092821549676025,-0.0018994040672439816,0.06392946507384814
417.303,128,417,303000000,,12.487140579062983,0.9994734917872428,0.0007417246035177616,-0.0009340797234495213,0.0324240133492271,0.0014220980196608297,-0.0019152763934617845,0.06485807901181198
417.313,129,417,313000000,,12.52881006077431,0.9994582299694545,0.0007469119242139312,-0.0009416860785270448,0.03289075800237237,0.0014310721594591074,-0.0019314860021055757,0.06579204770607865
417.323,130,417,323000000,,12.570130735485744,0.9994426618136073,0.0007507707849976775,-0.0009498481083540362,0.03336015506287108,0.0014373337672544896,-0.0019487303364722486,0.06673134027495647
417.334,131,417,333000000,,12.608292633790484,0.9994267853296982,0.0007545674199330329,-0.0009562698214937915,0.03383218967216691,0.0014435676589377637,-0.001962501943084227,0.06767592802900317
417.343,132,417,343000000,,12.651808174159724,0.9994105913608357,0.0007573731541332029,-0.0009678685060576138,0.0343068430025148,0.001447447839490511,-0.0019865635424236583,0.06862576651540304
417.353,133,417,353000000,,12.6921872240035,0.9993940829641725,0.0007602425696595258,-0.0009772502719272943,0.0347841040902684,0.0014515817320846433,-0.002006206337816563,0.06958084191366806
417.363,134,417,363000000,,12.732253289846048,0.9993772555301349,0.000762142370199767,-0.000986697350205015,0.035263957987676134,0.0014537492881000211,-0.0020259194786669266,0.07054112388185041
417.373,135,417,373000000,,12.772018654774474,0.9993601060737917,0.0007626825562366032,-0.000996293600150407,0.03574638607682863,0.0014531648017671783,-0.002045839873202615,0.07150657638126137
417.383,136,417,383000000,,12.8114967289978,0.999342631168828,0.0007619288944613593,-0.001006218907441027,0.036231373449204844,0.0014499462697658528,-0.002066327832058512,0.07247716978085687
417.393,137,417,393000000,,12.850701796887448,0.9993248271994968,0.0007602827352072412,-0.0010165858683471847,0.036718908913820375,0.0014448866294708752,-0.0020876340158373363,0.07345288129764255
417.403,138,417,403000000,,12.889648669996106,0.999306690702935,0.0007581374255295287,-0.0010273680531116697,0.03720897383360271,0.0014387726799535321,-0.00210973213489396,0.07443367340383931
417.413,139,417,413000000,,12.928352270216019,0.9992882185495289,0.0007556010511885884,-0.001038437866398883,0.037701553308385476,0.0014318287601108562,-0.002132373733788384,0.07541951677010002
417.423,140,417,423000000,,12.966827501707368,0.9992694078580401,0.0007524641161410786,-0.0010496744147400448,0.03819662872186895,0.0014236444832806013,-0.002155299915338693,0.07641037528651717
417.433,141,417,433000000,,13.00508923674284,0.9992502557462463,0.0007484035261891631,-0.0010610498460777577,0.03869419263369172,0.001413575720476626,-0.0021784281234982217,0.07740623539574686
417.443,142,417,443000000,,13.04315233420973,0.9992307591191826,0.0007432475253065638,-0.0010726351210361346,0.039194222694076124,0.0014012732337151392,-0.002201883809777927,0.07840705323860246
417.453,143,417,453000000,,13.0810317407017,0.9992109146334475,0.0007371064782142689,-0.0010845399160204423,0.03969670771884754,0.0013869482289868883,-0.002225891481797193,0.07941280669249864
417.463,144,417,463000000,,13.118742483206878,0.9991907188468406,0.0007302952730807091,-0.0010968336468685396,0.040201629068346456,0.001371223421420907,-0.002250612019484066,0.0804234582858744
417.473,145,417,473000000,,13.156299456781252,0.9991701684553632,0.000723106985585952,-0.001109489236942535,0.04070897555793001,0.001354685439880117,-0.002276012949800954,0.08143898563963536
417.483,146,417,483000000,,13.193717277665256,0.9991492604501786,0.0007155859757819906,-0.001122394194467603,0.04121872856359663,0.0013374310156737627,-0.002301871779658571,0.08245935210630122
417.493,147,417,493000000,,13.231010336598997,0.9991279920558174,0.0007074852965703635,-0.0011354293050837528,0.04173087319597051,0.001318975771199887,-0.002327928464421758,0.08348452920291445
417.503,148,417,503000000,,13.268192844374358,0.9991063604838175,0.0006984638481624599,-0.0011485535822257978,0.0422453945651517,0.001298641111335781,-0.0023540703146640585,0.08451448860253787
417.513,149,417,513000000,,13.305278814017335,0.9990843626829887,0.0006883767057634923,-0.001161837413986492,0.04276227776994968,0.001276131138191135,-0.0023804225444672422,0.08554920140902866
417.523,150,417,523000000,,13.34228199094137,0.9990619952710347,0.0006774354533850839,-0.0011754293713129164,0.04328150789419136,0.001251855274494514,-0.002407296806933079,0.08658863778964072
417.533,151,417,533000000,,13.379215576837252,0.9990392547426226,0.0006660939372489265,-0.0011894566914840948,0.043803070014924485,0.0012267082161675047,-0.002434984178186772,0.087632767335411
417.543,152,417,543000000,,13.416092046251096,0.9990161378638839,0.0006546895043016128,-0.0012039067663994004,0.04432694921953582,0.0012013636663578732,-0.002463487844780232,0.08868156005658094
417.553,153,417,553000000,,13.452923647268724,0.998992641919205,0.0006431317259394286,-0.0012185926575587805,0.04485312316690714,0.0011756562733976387,-0.0024924257103962066,0.08973497225902634
417.563,154,417,563000000,,13.48972303077387,0.9989687645102384,0.0006309714867687175,-0.0012332713313219054,0.04538158815660349,0.0011487098935575686,-0.0025212707238193577,0.09079299858847123
417.573,155,417,573000000,,13.526502948818148,0.9989445030772413,0.0006177732914144512,-0.0012478285069631608,0.045912318129511666,0.0011196649419929212,-0.0025497524261592908,0.09185558871622228
417.583,156,417,583000000,,13.563275645380454,0.9989198544983573,0.0006035024048095569,-0.001262402429969917,0.046445305626885404,0.0010884395676691754,-0.002578140266669582,0.09292272842231959
417.593,157,417,593000000,,13.60005214946915,0.9988948151044791,0.0005886096318777766,-0.001277339399744328,0.0469805319871897,0.0010559018346016644,-0.0026071647479593008,0.09399437961087834
417.603,158,417,603000000,,13.636841727711772,0.9988693812477133,0.0005736857995249055,-0.0012929232208196903,0.0475179785474625,0.0010232039007675388,-0.0026374466719252254,0.09507050387022321
417.613,159,417,613000000,,13.673653070191262,0.9988435499902373,0.0005589596338595738,-0.0013090754177112406,0.04805763785229508,0.0009908079960358267,-0.002668850802444167,0.09615108648940271
417.623,160,417,623000000,,13.710496204055751,0.9988173192153719,0.0005441069128360487,-0.001325350995609891,0.04859948758408016,0.0009581076976474046,-0.0027004569733832806,0.09723608464183324
417.633,161,417,633000000,,13.74738261859059,0.9987906870134099,0.0005285438006123947,-0.001341273144504118,0.04914351661197423,0.0009239830711582988,-0.0027312546487805456,0.09832547865612426
417.643,162,417,643000000,,13.784323511472587,0.99876365085124,0.0005119295317238775,-0.0013567416891126433,0.04968970632467027,0.0008877645243805789,-0.00276100732947393,0.09941923294597364
417.653,163,417,653000000,,13.821327944046395,0.998736207187615,0.0004944627459603121,-0.0013721972171867162,0.050238045510428445,0.0008498060937184722,-0.002790611394267506,0.10051732499450637
417.663,164,417,663000000,,13.851204327565455,0.9987083553936696,0.0004750899395764348,-0.001386410132540515,0.050788511927171175,0.0008081284648776884,-0.0028175007165642807,0.10161971459015612
417.673,165,417,673000000,,13.895557358080005,0.9986800818084576,0.00045918744552443885,-0.001405365580812002,0.051341097567791705,0.0007728599134362879,-0.0028541754764856986,0.10272636830497414
417.683,166,417,683000000,,13.932809479237983,0.9986513944931523,0.0004418494322645935,-0.0014229282673733296,0.05189578435286878,0.0007348222766350069,-0.0028878828567504566,0.10383726768312053
417.693,167,417,693000000,,13.9701497704751,0.9986222886213699,0.00042428922564760813,-0.0014401987089363649,0.0524525535490686,0.0006963281820777183,-0.002920943321768066,0.1049523718983541
417.703,168,417,703000000,,14.007587805059769,0.9985927624499578,0.0004060328848829449,-0.0014566475213970938,0.0530113977568263,0.0006564880660775457,-0.0029522483746593498,0.10607166844840321
417.713,169,417,713000000,,14.045131575549787,0.9985628129198127,0.00038697459956771665,-0.0014725564637106032,0.05357229088060841,0.0006150632170064834,-0.0029823469018206428,0.10719510591205214
417.723,170,417,723000000,,14.082785094777385,0.9985324359228912,0.0003674125555305975,-0.0014888079609378156,0.05413522911775962,0.0005725554181803513,-0.003013030564352537,0.10832267634832968
417.733,171,417,733000000,,14.120586941024625,0.9985016275622353,0.0003477899800138466,-0.001506101119918249,0.054700186321036695,0.0005297721804378604,-0.0030457419014287,0.10945432667430897
417.743,172,417,743000000,,14.158586862353495,0.9984703852901077,0.0003283626838319296,-0.0015242933000687647,0.055267155040244896,0.0004872364532696457,-0.003080223650687053,0.11059004215295558
417.753,173,417,753000000,,14.19669787975108,0.9984387078424616,0.0003090433362756844,-0.0015425090715220076,0.05583611672003715,0.00044486839816889457,-0.0031147181242241473,0.11172978681714045
417.763,174,417,763000000,,14.234925756790023,0.9984065940926526,0.0002895201558768102,-0.0015598769319666598,0.056407056539899116,0.000402143535649884,-0.00314744998596983,0.11287353274824623
417.773,175,417,773000000,,14.273278233712158,0.9983740417474105,0.00026952539703585244,-0.001576295367732813,0.05697995588949444,0.00035854165741012415,-0.0031781851954091334,0.11402124414477229
417.783,176,417,783000000,,14.31175887810041,0.9983410470394388,0.0002490202472314212,-0.0015925580467911666,0.05755480352337674,0.00031389715860324826,-0.003208502263592372,0.11517289933749086
417.793,177,417,793000000,,14.350367939172477,0.9983076058156269,0.00022820036726617707,-0.001609644534045574,0.05813158444414822,0.00026848736306112444,-0.003240377730518107,0.11632846855465753
417.803,178,417,803000000,,14.389105989649698,0.9982737150651326,0.00020735937414117519,-0.001627801851892024,0.05871027999109764,0.0002228666171181675,-0.0032743377088348957,0.1174879144128656
417.813,179,417,813000000,,14.427977521937898,0.9982393733898163,0.00018669628764731978,-0.001646323189182025,0.059290879047212905,0.00017751224498705883,-0.003308994070154281,0.11865121482044569
417.823,180,417,823000000,,14.46698997615962,0.9982045800343389,0.00016619334999911072,-0.0016641915807760713,0.05987335935920366,0.0001325091856855896,-0.003342314647172495,0.11981832576226671
417.833,181,417,833000000,,14.496889579773315,0.9981693366131297,0.0001435349127613548,-0.0016792305630155503,0.06045771372091864,8.349989015827617e-05,-0.0033696748764833195,0.12098924059853826
417.843,182,417,843000000,,14.545467663130946,0.9981336302214177,0.00012480263754874262,-0.001697208916671555,0.061043919145095646,4.193109444039217e-05,-0.003403326048620592,0.12216389535641753
417.853,183,417,853000000,,14.575452999326643,0.9980974695366229,0.00010133939716902655,-0.0017122462871287931,0.06163196512665234,-8.765066730006805e-06,-0.0034304755935932185,0.12334229696418536
417.863,184,417,863000000,,14.62459562583338,0.9980608389297014,8.20529875326916e-05,-0.001731531945231974,0.06222183594445159,-5.1690756719218226e-05,-0.003466566369839663,0.12452438749832127
417.873,185,417,873000000,,14.664403012395871,0.9980237457588134,6.061585990912335e-05,-0.0017497637309943897,0.06281351356565004,-9.88260861400498e-05,-0.0035002336435372428,0.12571015105584965
417.883,186,417,883000000,,14.704368301107825,0.9979861863795099,3.952362351443856e-05,-0.001767610598269968,0.06340698673028951,-0.0001452705701039156,-0.003533121418309637,0.12689955760579147
417.893,187,417,893000000,,14.734499128220351,0.9979481627003841,1.655178075990826e-05,-0.0017827754095481568,0.06400223335379,-0.00019516881539543342,-0.0035603611127541512,0.12809256995386412
417.903,188,417,903000000,,14.774661834971646,0.9979096662082213,-4.242785820665528e-06,-0.001798768072624889,0.06459924558637459,-0.0002408675089533128,-0.003589475640348283,0.12928916098476717
417.913,189,417,913000000,,14.825238961259833,0.9978706931248749,-2.310904694832778e-05,-0.0018165042978648942,0.06519800096968066,-0.0002829864396209749,-0.003622267399400858,0.13048928800785575
417.923,190,417,923000000,,14.865875086371933,0.9978312459212488,-4.4621829852999664e-05,-0.0018333456591302793,0.065798492352965,-0.0003303150826036262,-0.0036528751919306934,0.13169295217066332
417.933,191,417,933000000,,14.906655234290769,0.9977913196506192,-6.62353487365126e-05,-0.0018508290255749272,0.06640069720015716,-0.0003779733623035189,-0.0036846944629087552,0.13290010120942428
417.943,192,417,943000000,,14.947582160123323,0.9977509136749386,-8.74986978748384e-05,-0.0018681552656601378,0.06700460070648724,-0.0004249567538945596,-0.0037161901692392973,0.13411070402479433
417.953,193,417,953000000,,14.98865994046078,0.9977100273209442,-0.00010819114832512116,-0.0018845941593109412,0.0676101880665365,-0.0004707256381828574,-0.0037459360930920393,0.13532473021120175
417.963,194,417,963000000,,15.019036677861845,0.9976686613001515,-0.00013082219181902315,-0.0018985471868522236,0.06821745202171546,-0.000520066225273457,-0.0037704022807478754,0.13654217371309318
417.973,195,417,973000000,,15.071281583279468,0.9976268041685568,-0.00014907638838672257,-0.0019154285140839285,0.06882636212801628,-0.0005611132382788722,-0.003801254037637758,0.13776295605817981
417.983,196,417,983000000,,15.112845145025096,0.9975844605818972,-0.00017010125261110164,-0.0019312107098708232,0.06943691883925912,-0.0006075798677325955,-0.0038294783346242145,0.1389871018569976
417.993,197,417,993000000,,15.154553620978978,0.9975416256785206,-0.00019139942445454402,-0.001947558326410462,0.07004909215305144,-0.0006547120924560308,-0.0038587358622066414,0.1402145441884489
418.003,198,418,3000000,,15.196408058058005,0.9974982987415677,-0.00021240439291247387,-0.0019638759892577997,0.0706628747031672,-0.0007012976449253005,-0.0038879175013322165,0.14144526643196084
418.013,199,418,13000000,,15.238411138202489,0.9974544793494352,-0.0002326731639438816,-0.0019794633388506974,0.07127825169488496,-0.0007463529424354724,-0.0039156900817007845,0.1426792371555991
418.023,200,418,23000000,,15.280563444757679,0.9974101660022516,-0.000252320039552763,-0.0019941440930464523,0.07189520825737879,-0.0007900781746756645,-0.003941688185104875,0.14391642747498898
418.033,201,418,33000000,,15.311133630546873,0.9973653581032407,-0.00027429646196313446,-0.0020069200303828496,0.07251372213376314,-0.0008382127428900252,-0.00396349489199932,0.14515680360045927
418.043,202,418,43000000,,15.365319101747973,0.9973200453870482,-0.0002921036055964411,-0.0020228826643105893,0.07313377780971832,-0.0008785307788880051,-0.003992208185232604,0.14640031693833228
418.053,203,418,53000000,,15.407943466521685,0.9972742326389427,-0.0003127026761323854,-0.002037769787558565,0.07375536831126064,-0.0009243011590734424,-0.004018314414109714,0.14764697594709572
418.063,204,418,63000000,,15.450709027718451,0.9972279167141795,-0.0003330893842314837,-0.002052677915475428,0.0743784786366266,-0.000969690269196579,-0.00404443710548974,0.14889674118318347
418.073,205,418,73000000,,15.493616046467237,0.9971810973472807,-0.00035263128438628054,-0.0020670018903936895,0.07500307909374934,-0.0010133460789879978,-0.004069464794418165,0.1501495503078214
418.083,206,418,83000000,,15.536664213013275,0.9971337734218939,-0.00037131072000674164,-0.0020804911548799334,0.07562916972968137,-0.0010551935900798197,-0.004092903576022211,0.1514054038605042
418.093,207,418,93000000,,15.5798515671954,0.9970859424457972,-0.00038979420580381334,-0.0020934466840772897,0.07625672813370661,-0.0010966049408595417,-0.004115255273867913,0.15266426079429715
418.103,208,418,103000000,,15.62317564145833,0.9970376014218423,-0.00040880124609121797,-0.00210638326380883,0.07688573930228765,-0.0011390920927303368,-0.004137436466337796,0.1539260957220323
418.113,209,418,113000000,,15.666634900552205,0.9969887481754733,-0.00042839173162228356,-0.0021195359628136752,0.07751619574054353,-0.0011828107115600072,-0.004159904415624638,0.15519089534629074
418.123,210,418,123000000,,15.710229434631911,0.9969393818497104,-0.00044787492535018793,-0.002132684782478418,0.0781480677012813,-0.0012263497249185564,-0.004182325970232048,0.1564585975561734
418.133,211,418,133000000,,15.753959262722738,0.9968895022170784,-0.0004664379588070962,-0.002145386827721297,0.07878134038752063,-0.001268018653749774,-0.004203946381124313,0.157729169357714
418.143,212,418,143000000,,15.797822792843911,0.9968391084408758,-0.00048394689411788256,-0.0021573825347765206,0.07941601385571168,-0.0013075078619047228,-0.00422427286188265,0.15900261079693204
418.153,213,418,153000000,,15.841817605430363,0.996788198476303,-0.0005011158495239265,-0.0021687990765779353,0.08005205826220736,-0.0013462589174108948,-0.004243448673618033,0.16027886586459167
418.163,214,418,163000000,,15.885941446005297,0.9967367697201323,-0.000518811912977821,-0.0021799720585411564,0.0806894660657952,-0.0013860524157282435,-0.004262004205905834,0.16155792473474787
418.173,215,418,173000000,,15.930192850205863,0.9966848201493305,-0.0005371963522115396,-0.0021911255075507475,0.08132822231642509,-0.0014272451433211,-0.004280357686504921,0.1628397595258539
418.183,216,418,183000000,,15.974571193463712,0.996632348836349,-0.0005555416862612285,-0.0022022122882109385,0.08196830469932619,-0.0014683789405540973,-0.004298531628030622,0.16412432316189893
418.193,217,418,193000000,,16.019075074655667,0.9965793554876833,-0.0005729120263706638,-0.0022129922674715783,0.08260969840129666,-0.0015075484570637246,-0.004316202037321304,0.165411582335242
418.203,218,418,203000000,,16.063701685382963,0.9965258394570856,-0.0005891035246781295,-0.002223238473519419,0.08325239603020379,-0.0015443087392597282,-0.004332954170551906,0.16670152179844439
418.213,219,418,213000000,,16.108448426156933,0.9964717991790072,-0.000604873361213093,-0.002232900067711822,0.08389637521434169,-0.0015801585348016508,-0.004348564236000163,0.16799410053684202
418.223,220,418,223000000,,16.153313613267024,0.9964172325618762,-0.0006211795651690387,-0.0022421002146005486,0.08454162098436763,-0.0016170257157560603,-0.004363117370474345,0.16928929380938143
418.233,221,418,233000000,,16.19829611765225,0.9963621378167339,-0.0006382279692411988,-0.002251024392835955,0.0851881183917379,-0.0016553500449295693,-0.0043769460483629175,0.17058707388530184
418.243,222,418,243000000,,16.243394643360606,0.9963065139127258,-0.0006552551894247688,-0.0022598088250403866,0.08583585999936129,-0.0016936324277648598,-0.004390449824838161,0.17188742393595033
418.253,223,418,253000000,,16.288606222959714,0.9962503603890286,-0.0006712673770902936,-0.0022684409115565824,0.08648481606538296,-0.001729889759504372,-0.004403775513940111,0.17319028064592373
418.263,224,418,263000000,,16.333926895079486,0.9961936767440842,-0.00068605665698585,-0.0022767320497089957,0.08713497919486898,-0.001763674722353205,-0.004416587436547381,0.17449562881603073
418.273,225,418,273000000,,16.37935444871318,0.996136461953582,-0.0007004188792256885,-0.0022844372405791263,0.08778633449483139,-0.001796528892816523,-0.0044282625213958315,0.1758034423002026
418.283,226,418,283000000,,16.424888039964973,0.9960787145274864,-0.0007153292834902382,-0.0022914572874018027,0.08843885957744335,-0.0018303753357717372,-0.0044384324189550295,0.1771136809567069
418.293,227,418,293000000,,16.4705268728066,0.9960204329319744,-0.0007309692417005201,-0.002297954966672576,0.08909254694778664,-0.0018656014549148505,-0.004447387039542949,0.1784263320011851
418.303,228,418,303000000,,16.51626876467417,0.9959616159701042,-0.0007465456255673037,-0.002304269969927344,0.08974738168619226,-0.0019006859820950442,-0.004455942601109708,0.1797413638509251
418.313,229,418,313000000,,16.56210924772355,0.9959022629609627,-0.0007610889434227676,-0.0023106086556613755,0.0904033414654816,-0.0019337343667883854,-0.004464685643430943,0.18105872881544152
418.323,230,418,323000000,,16.608043765881682,0.9958423735867143,-0.0007744593096624448,-0.002316779397462264,0.09106041889023603,-0.0019644335168376072,-0.0044732639285760545,0.18237841198558533
418.333,231,418,333000000,,16.654070566134607,0.9957819474389461,-0.0007874694839021998,-0.002322326377644571,0.09171859165385539,-0.001994318142816371,-0.004480625173929775,0.18370037170307468
418.343,232,418,343000000,,16.70018971561963,0.9957209836496361,-0.000801025936892367,-0.0023269596045973544,0.09237784485556612,-0.0020251374558617904,-0.004486025959794748,0.18502458214498896
418.353,233,418,353000000,,16.74640045644334,0.9956594808729254,-0.0008152237027525478,-0.0023308758798798886,0.09303817099704866,-0.0020571134598451933,-0.004489838577398375,0.18635103027323072
418.363,234,418,363000000,,16.792699336628917,0.9955974376722362,-0.0008292663127461959,-0.002334637959761772,0.09369954021490032,-0.0020887624439111566,-0.004493330516878613,0.1876796548950581
418.373,235,418,373000000,,16.83908038962368,0.9955348531871758,-0.0008422968435240858,-0.0023386135865074028,0.09436195249730428,-0.002118447026178223,-0.0044973962786729604,0.18901045451846166
418.383,236,418,383000000,,16.885538989659903,0.995471727415168,-0.0008542899894995206,-0.00234253169886535,0.0950253781082419,-0.002146066374676396,-0.00450150489778256,0.19034336923478407
418.393,237,418,393000000,,16.932074491393475,0.9954080606332095,-0.000866032962746881,-0.0023457177641262707,0.09568981713911524,-0.0021730587447977697,-0.004504166898793516,0.19167840192376037
418.403,238,418,403000000,,16.978687743921498,0.9953438525125344,-0.0008782851665353889,-0.0023477702014329917,0.09635523981939248,-0.00220085550844379,-0.00450443775097531,0.19301549557168454
418.413,239,418,413000000,,17.008749986765352,0.9952791032811459,-0.0008932797482639577,-0.002347488221497978,0.09702163878165845,-0.002233664110278036,-0.004499492196320842,0.1943546425641585
418.423,240,418,423000000,,17.072153613848826,0.9952138065822856,-0.0009035062158134696,-0.002350208368326462,0.09768899110957066,-0.0022575674792110834,-0.00450140961340062,0.19569578095670495
418.433,241,418,433000000,,17.119027897952723,0.9951479661880418,-0.0009150568724684916,-0.002351795028334396,0.09835728976955119,-0.002283891459192217,-0.004500778246119941,0.19703891193547324
418.443,242,418,443000000,,17.16595847383292,0.9950815810521544,-0.0009257580375664078,-0.0023533334164864313,0.09902651980581949,-0.0023085198058014865,-0.004500183469697827,0.19838400018946037
418.453,243,418,453000000,,17.2129553865882,0.9950146521687981,-0.0009363262801990608,-0.0023539414655292155,0.09969665901113291,-0.002332702645561959,-0.004497730457855287,0.19973100226541804
418.463,244,418,463000000,,17.26001285864528,0.9949471795333183,-0.0009473161738225964,-0.0023532317008140295,0.10036769997866454,-0.002357461990987745,-0.004492537708042477,0.2010799055317867
418.473,245,418,473000000,,17.30712419621399,0.9948791616140895,-0.0009585954012655823,-0.002351753528168812,0.10103962024260196,-0.002382639970764169,-0.00448572396963276,0.20243066679382632
418.483,246,418,483000000,,17.35428291146291,0.9948105964496511,-0.0009695399920000658,-0.0023504614509371677,0.10171239728607771,-0.002407185927145929,-0.004479314421180103,0.20378324198991798
418.493,247,418,493000000,,17.401482053335688,0.9947414834563595,-0.000979697853655391,-0.002349679599927466,0.10238603852782428,-0.0024302676803295005,-0.004474047703608264,0.2051376466168546
418.503,248,418,503000000,,17.448719823884844,0.9946718238794041,-0.0009892255674634385,-0.0023487162580949094,0.10306050686789911,-0.0024520563129717824,-0.004468518462609206,0.20649380503818426
418.513,249,418,513000000,,17.49599874907877,0.9946016192706855,-0.000998662129029822,-0.0023465985674862187,0.10373579504062086,-0.002473421606959208,-0.00446068224299756,0.20785170284263974
418.523,250,418,523000000,,17.54331993892269,0.9945308696444909,-0.0010083640245687657,-0.002343094248639266,0.10441188816908051,-0.0024950193822769707,-0.004450003424856019,0.20921131179291602
418.533,251,418,533000000,,17.590679243024187,0.9944595731203909,-0.0010181877815216155,-0.002339011302325237,0.10508877117254031,-0.0025167282627719494,-0.004438118726416196,0.2105726046221994
418.543,252,418,543000000,,17.63806831402811,0.9943877277138677,-0.0010276943854091126,-0.002335355796784381,0.10576642895021676,-0.002537885450107807,-0.004427121619419827,0.21193555351456903
418.553,253,418,553000000,,17.685480874781927,0.9943153335193621,-0.001036613901415333,-0.0023321931839885832,0.10644483916390365,-0.00255796979558026,-0.00441720085159103,0.21330011347862976
418.563,254,418,563000000,,17.732917225915635,0.9942423926125777,-0.0010450695612788654,-0.0023285775718046037,0.1071239945861317,-0.0025770258556058836,-0.004406451280560386,0.21466626838211075
418.573,255,418,573000000,,17.78038047931336,0.9941689068272536,-0.001053395851244816,-0.002323580094308831,0.10780388051412773,-0.0025955166638379538,-0.004392955972848389,0.21603398777416466
418.583,256,418,583000000,,17.827870045656727,0.9940948758002768,-0.001061812398297765,-0.002317281420792297,0.10848447455551162,-0.0026138906562161775,-0.004376828826383905,0.21740322858247776
418.593,257,418,593000000,,17.875379148700254,0.9940202972507386,-0.0010702604116289219,-0.002310738506561248,0.10916576155230309,-0.0026322562634714503,-0.0043601841839122635,0.2187739647668632
418.603,258,418,603000000,,17.922898604873662,0.9939451696002448,-0.0010785027739431225,-0.0023048150927967195,0.10984773386369816,-0.0026503307930813894,-0.004344791154823557,0.22014618421931867
418.613,259,418,613000000,,17.970424255537775,0.9938694939718684,-0.0010863415264605596,-0.0022992034485487004,0.11053036923897931,-0.002667655191307328,-0.004330082407032476,0.22151984107068415
418.623,260,418,623000000,,18.017958551504393,0.993793273154061,-0.00109376512121566,-0.0022927936025746733,0.11121365306247577,-0.0026839609399724428,-0.004313855868158356,0.22289490282029176
418.633,261,418,633000000,,18.06550405702598,0.9937165088356532,-0.0011009382687838971,-0.002284879065928374,0.11189757804787057,-0.0026994141055980696,-0.00429467264726191,0.2242713540443113
418.643,262,418,643000000,,18.113057444209957,0.9936391999637092,-0.0011080806652502071,-0.0022759419246622527,0.11258211424594797,-0.002714553599770599,-0.004273443105422103,0.2256491377229101
418.653,263,418,653000000,,18.16060960825869,0.993561344125548,-0.0011153046753670218,-0.0022671425401808933,0.11326725389576962,-0.002729861317123112,-0.004252448199803194,0.2270282441192187
418.663,264,418,663000000,,18.208152254876257,0.9934829407009861,-0.0011224896917555799,-0.0022589923469255196,0.1139529894296528,-0.0027452146214707015,-0.004232731246664123,0.22840866057650241
418.673,265,418,673000000,,18.255684378301556,0.9934039919917014,-0.0011293534208865821,-0.002250804388888341,0.11463929125792921,-0.002759897629926856,-0.0042129920416613675,0.22979032442396052
418.683,266,418,683000000,,18.30320954044853,0.9933245011200587,-0.001135707738068024,-0.0022414866177110334,0.11532615223841489,-0.002773284610250672,-0.004191105815321006,0.23117321758067227
418.693,267,418,693000000,,18.350728040657803,0.9932444691036199,-0.0011416747605317397,-0.002230738846250025,0.11601355753521769,-0.0027855439615824067,-0.00416645059551124,0.23255731049864517
418.703,268,418,703000000,,18.39823356761839,0.9931638941433354,-0.001147639306705188,-0.0022194113756560017,0.1167014845275728,-0.0027976326822246544,-0.004140627899211324,0.23394256314947776
418.713,269,418,713000000,,18.445716078314568,0.9930827742929373,-0.001153866755969859,-0.0022085152973263136,0.11738992546700935,-0.0028103127904160813,-0.004115583950415003,0.23532896597367978
418.723,270,418,723000000,,18.49317011398911,0.9930011103513023,-0.0011601670093524866,-0.0021980802570303226,0.11807885801836807,-0.0028232152504148885,-0.004091421295465247,0.23671647409606483
418.733,271,418,733000000,,18.54059769922728,0.9929189055872631,-0.0011660476551732194,-0.0021871814249036304,0.11876827503860946,-0.0028351442920898848,-0.0040664198431248355,0.2381050688039058
418.743,272,418,743000000,,18.58800181008465,0.9928361628183738,-0.0011712325716934915,-0.0021749909456388983,0.11945815443165274,-0.0028453519612138675,-0.004039003748156356,0.23949470208928444
418.753,273,418,753000000,,18.635379415620157,0.9927528820160443,-0.0011760209219740122,-0.002161695836220655,0.12014848865903809,-0.0028544721149426767,-0.004009476012732938,0.24088536183368667
418.763,274,418,763000000,,18.682721360935453,0.9926690611328729,-0.0011810329068872327,-0.002148271907329809,0.12083925502821907,-0.0028639674015173183,-0.003979626345848031,0.24227700923277057
418.773,275,418,773000000,,18.73001894826322,0.9925846994125525,-0.0011865046148717387,-0.0021353373989840634,0.12153043844220322,-0.002874456023386078,-0.003950623885017324,0.24366961807765478
418.783,276,418,783000000,,18.777270656523392,0.9924997991498201,-0.0011919674626141002,-0.002122491007518335,0.12222202417011917,-0.002884911416109875,-0.003921784498357672,0.2450631562438807
418.793,277,418,793000000,,18.824479820121717,0.9924143639758571,-0.0011967344403154615,-0.002108829919506433,0.12291399764549298,-0.002893748277896587,-0.0038914852001206146,0.24645758919890443
418.803,278,418,803000000,,18.87164656612863,0.9923283957795422,-0.0012006826107372707,-0.0020939687462288707,0.12360634408734146,-0.002900624205833633,-0.0038589948955869424,0.24785288616783904
418.813,279,418,813000000,,18.918764273117866,0.9922418936061119,-0.0012044712810148142,-0.0020784549234235603,0.12429904835589108,-0.0029069790297246876,-0.003825240158754628,0.24924902220836237
418.823,280,418,823000000,,18.965823311776244,0.9921548559518708,-0.001208824975291203,-0.002063096356049272,0.12499209523142876,-0.0029144496866045245,-0.003791644088171786,0.25064597338813605
418.833,281,418,833000000,,19.012818526230728,0.9920672837145234,-0.0012136634079046318,-0.002048034639495599,0.12568546978596723,-0.0029229127194057647,-0.0037585054613422653,0.25204371072745185
418.843,282,418,843000000,,19.059751519927,0.9919791802565028,-0.0012181539559739947,-0.0020326658644511937,0.12637914994911753,-0.002930564418068236,-0.0037248345262774762,0.253442184981731
418.853,283,418,853000000,,19.106624180646172,0.9918905487815601,-0.0012216440340437485,-0.0020163648786299653,0.12707312853228467,-0.0029359501306132955,-0.003689558644190072,0.25484137802818313
418.863,284,418,863000000,,19.15343271734533,0.9918013899836742,-0.0012244586116794403,-0.001999177122828723,0.12776739057340572,-0.002939722639849669,-0.003652689657576369,0.2562412620309817
418.873,285,418,873000000,,19.200168527912034,0.9917117026745852,-0.0012275835594793669,-0.001981715119647819,0.12846192085971747,-0.002943991316632776,-0.003615192541769341,0.2576418131420695
418.883,286,418,883000000,,19.246824220414247,0.9916214866919031,-0.0012315039825712484,-0.001964415779918232,0.12915668939854866,-0.0029498296554917925,-0.0035778074706591667,0.259042974634316
418.893,287,418,893000000,,19.293398650244278,0.9915307444719866,-0.0012356086455498384,-0.0019470987351799542,0.12985169633015956,-0.002955978897564883,-0.0035403321553779676,0.26044474523972583
418.903,288,418,903000000,,19.339893756905084,0.9914394796277062,-0.001238875685671856,-0.0019292518378062006,0.13054692704621626,-0.00296027880427742,-0.003502017206968633,0.2618470908617972
418.913,289,418,913000000,,19.386307868086643,0.9913476943398636,-0.0012410750368672331,-0.0019106140483308837,0.1312423667496159,-0.002962202859755629,-0.003462409330917904,0.26324998082496043
418.923,290,418,923000000,,19.432634288676994,0.991255388492308,-0.001243093798327642,-0.0018914261134237013,0.13193798543298743,-0.0029635704413561886,-0.0034217567480443467,0.2646533589744617
418.933,291,418,933000000,,19.478865200378657,0.9911625616154939,-0.0012458970609059998,-0.001872094175031648,0.13263378283378294,-0.0029664002105344862,-0.0033806096750255143,0.26605723091213146
418.943,292,418,943000000,,19.524997018662877,0.9910692151575087,-0.0012493678472288194,-0.001852745085356038,0.1333297291338876,-0.0029704929541922763,-0.0033392476876941135,0.26746153682235846
418.953,293,418,953000000,,19.57103046565462,0.9909753524161573,-0.0012524306807073131,-0.0018331696838120538,0.13402582456162387,-0.0029736605771882763,-0.00329754181365427,0.26886627416583436
418.963,294,418,963000000,,19.616964820569006,0.9908809764626157,-0.0012543147111825142,-0.0018130957473216033,0.13472203951141642,-0.0029743012287062336,-0.003255162245550558,0.2702713800593434
418.973,295,418,973000000,,19.66280474491736,0.9907860884577908,-0.001255508991226497,-0.0017924573511409066,0.13541837391721392,-0.0029733647222585416,-0.003211851165501489,0.2716768571429766
418.983,296,418,983000000,,19.708536413606478,0.9906906883715069,-0.0012571821374559717,-0.0017714024774907122,0.13611481264093914,-0.0029732048034433406,-0.003167586954476942,0.27308267995767194
418.993,297,418,993000000,,19.730201400785432,0.9905947783624247,-0.0012615906049622619,-0.001748058289989949,0.1368113259348664,-0.0029777773522802658,-0.0031180401141230885,0.2744887882865187
419.003,298,419,3000000,,19.799671722371553,0.9904983571943486,-0.0012624743000503866,-0.0017286794982795705,0.13750789847639167,-0.002976390097841535,-0.003077312887510786,0.2758951570488761
419.013,299,419,13000000,,19.84512057273824,0.9904014320652167,-0.001264174117029316,-0.0017070424997177142,0.13820453100637795,-0.0029759397984482853,-0.0030318901357586636,0.27730177831257785
419.023,300,419,23000000,,19.89044967010732,0.9903040038695067,-0.0012648254930678461,-0.0016850531356461034,0.1389011935887466,-0.0029732529198516905,-0.0029860626301598803,0.27870859371318385
419.033,301,419,33000000,,19.93564521958028,0.9902060734269836,-0.0012655064793189025,-0.0016625512776603294,0.13959787116922717,-0.0029704188405894117,-0.0029392169560973347,0.2801155762315526
419.043,302,419,43000000,,19.98069906308759,0.9901076415644215,-0.0012670896411027847,-0.00163954592085118,0.1402945635865171,-0.0029691658029880066,-0.0028911263410460464,0.2815227293677616
