Time,header.seq,header.stamp.secs,header.stamp.nsecs,header.frame_id,torques.x,torques.y,torques.z
35.947,92,35,947000000,,0.00015072955950068827,-0.0015402752636374543,0.005342685245018322
35.957,93,35,957000000,,0.00014856649116570383,-0.0015728390037931211,0.005414492458802655
35.967,94,35,967000000,,0.00013983030483665347,-0.0015974075015784974,0.005482746161328481
35.977,95,35,977000000,,0.00012914649312006097,-0.0016022650597587622,0.005540474773240607
35.987,96,35,987000000,,0.00012313924780886742,-0.001590602038153402,0.005588658768851656
35.997,97,35,997000000,,0.00012430283200453552,-0.001581049794231785,0.005635910322102875
36.007,98,36,7000000,,0.0001283460830378741,-0.0015930061624813182,0.005691988767688607
36.017,99,36,17000000,,0.00012761361494700364,-0.0016296106991774146,0.005759773801200484
36.027,100,36,27000000,,0.00011837933787099545,-0.0016730110622814598,0.005832708116211742
36.037,101,36,37000000,,0.0001045302217373581,-0.0016976344092840794,0.005900655419395727
36.047,102,36,47000000,,9.430267624069967e-05,-0.001690859821823717,0.0059578796855072865
36.057,103,36,57000000,,9.326384446462546e-05,-0.0016650104899131747,0.006007034633654359
36.067,104,36,67000000,,9.811040664809953e-05,-0.0016585626572177164,0.006064152515021264
36.077,105,36,77000000,,0.00010099118579077993,-0.0016708096541516602,0.006116382312521144
36.087,106,36,87000000,,9.126647996851291e-05,-0.001723204539826225,0.006185771157040455
36.097,107,36,97000000,,7.356912993548518e-05,-0.0017791096160694505,0.006263486462089482
36.107,108,36,107000000,,5.33283273613843e-05,-0.0017937469395426335,0.0063241443868737755
36.117,109,36,117000000,,4.811497184452314e-05,-0.0017693227038592535,0.0063809871843392785
36.127,110,36,127000000,,5.6572545503194e-05,-0.001728334457251146,0.0064324435188463785
36.137,111,36,137000000,,6.552711188539288e-05,-0.0017211769501437424,0.006493789190590783
36.147,112,36,147000000,,6.181776522930471e-05,-0.001749851295109176,0.0065490143044290875
36.157,113,36,157000000,,3.6809587426969724e-05,-0.0018193380654117858,0.006618370690851592
36.167,114,36,167000000,,4.733303674212482e-06,-0.0018745567376155159,0.0066879417414103534
36.177,115,36,177000000,,-1.3014658100368486e-05,-0.00187735568612325,0.006751845853089321
36.187,116,36,187000000,,-1.0782006645302953e-05,-0.0018133143300681088,0.006809348712554919
36.197,117,36,197000000,,2.0523299291821296e-05,-0.0017937581950968433,0.006864810853784325
36.207,118,36,207000000,,2.652177873840904e-05,-0.0017733005583969068,0.006923688538421447
36.217,119,36,217000000,,-4.020278274830095e-07,-0.0018131182866645966,0.006987913018088653
36.227,120,36,227000000,,-3.519211274914626e-05,-0.0019316378972254725,0.007054874065078316
36.237,121,36,237000000,,-8.255578156918108e-05,-0.001961631325154568,0.007120427306820705
36.247,122,36,247000000,,-9.021794652989684e-05,-0.001938697079857762,0.007182683821921083
36.257,123,36,257000000,,-6.171456724615281e-05,-0.0018690224078480758,0.007243018086991477
36.267,124,36,267000000,,-3.034904384392468e-05,-0.001818138246274865,0.007305244573744244
36.277,125,36,277000000,,-2.614485522487347e-05,-0.0018327156576953402,0.007366802560777561
36.287,126,36,287000000,,-8.3106158970764e-05,-0.0018925033073218095,0.007429982640595753
36.297,127,36,297000000,,-0.00013711355898865868,-0.002023055069086387,0.007492031843409869
36.307,128,36,307000000,,-0.00018580566486301904,-0.0020255053959275524,0.007553501000870398
36.317,129,36,317000000,,-0.00016857367045261082,-0.0019705227297452128,0.0076166429818527665
36.327,130,36,327000000,,-0.00011283495500429672,-0.001886241599046715,0.007682705691986742
36.337,131,36,337000000,,-7.462219380604743e-05,-0.0018488680880413713,0.00774963929323782
36.347,132,36,347000000,,-0.00010137010526073057,-0.001898366839675854,0.007813265982111602
36.357,133,36,357000000,,-0.00018795301698567882,-0.0019990388333552766,0.0078714324891928
36.367,134,36,367000000,,-0.000273830191548768,-0.002070061311631812,0.007927076916346231
36.377,135,36,377000000,,-0.00029346936503778166,-0.0020562281207961407,0.00798686914102534
36.387,136,36,387000000,,-0.0002357303437720008,-0.0019722912399903997,0.008055281277021516
36.397,137,36,397000000,,-0.0001568554765115921,-0.001891750141790516,0.00812926638031588
36.407,138,36,407000000,,-0.00013508597801906456,-0.001883907454199021,0.008200442011427325
36.417,139,36,417000000,,-0.00021264144460284072,-0.001971690072841457,0.00825878748741187
36.427,140,36,427000000,,-0.00033700731451110104,-0.0020711352412857843,0.008308154601326488
36.437,141,36,437000000,,-0.0004147349069259991,-0.0021053215831890832,0.008358732240106127
36.447,142,36,447000000,,-0.00038583618608369416,-0.002049481778103337,0.008422543543074326
36.457,143,36,457000000,,-0.00029609822075677664,-0.0019179131932192145,0.008501081479291642
36.467,144,36,467000000,,-0.00019590344344576357,-0.0019415217330854381,0.008589439463354566
36.477,145,36,477000000,,-0.00023326063180689795,-0.0019433378911411386,0.008649391401021053
36.487,146,36,487000000,,-0.0003568522188375851,-0.0020326208417450003,0.008700787578990805
36.497,147,36,497000000,,-0.0005117642133026721,-0.0021130180867846406,0.008737218305522316
36.507,148,36,507000000,,-0.0005421025334198939,-0.002097060839161168,0.008788973968672138
36.517,149,36,517000000,,-0.00044318337459853057,-0.0020126729441467092,0.008864887595860684
36.527,150,36,527000000,,-0.00030982351071548724,-0.0019342327644304323,0.00895543912058297
36.537,151,36,537000000,,-0.00027320142521933613,-0.001932162693683754,0.009036843754264242
36.547,152,36,547000000,,-0.0003738753821432875,-0.0020036507118199446,0.009103059679439697
36.557,153,36,557000000,,-0.0005742371200356908,-0.002090366128746205,0.009124320546615747
36.567,154,36,567000000,,-0.0006809051137205191,-0.0021075105711175434,0.009159983966525308
36.577,155,36,577000000,,-0.0006381379805618865,-0.002057077819409539,0.009223402205332961
36.587,156,36,587000000,,-0.0004582787598570858,-0.0019691869471732074,0.009318541968316692
36.597,157,36,597000000,,-0.00034613770853863184,-0.0019381708719401162,0.009415485736878098
36.607,158,36,607000000,,-0.00040491925465685583,-0.001982706089501951,0.009484667876276194
36.617,159,36,617000000,,-0.000586105306085835,-0.0020500645287329566,0.009523299311794891
36.627,160,36,627000000,,-0.0007791635252829734,-0.0020932151561931056,0.009552317365671435
36.637,161,36,637000000,,-0.0007983512540213386,-0.002055061751307376,0.009584609679165305
36.647,162,36,647000000,,-0.0006378213342849426,-0.0019902908010010676,0.0096737322998652
36.657,163,36,657000000,,-0.0004603010455258332,-0.001952800253148302,0.009783263300676361
36.667,164,36,667000000,,-0.0004351103604416045,-0.00196927398022309,0.009871692902611709
36.677,165,36,677000000,,-0.0006251484622864802,-0.0020281455016497997,0.009913534512337228
36.687,166,36,687000000,,-0.0008600320483758512,-0.002054374027199182,0.009924880969623502
36.697,167,36,697000000,,-0.000954203659841327,-0.0020336617415175054,0.009952164155297118
36.707,168,36,707000000,,-0.0008432840151818364,-0.0019879987410437914,0.0100221293665691
36.717,169,36,717000000,,-0.000603195912453079,-0.001961721939965349,0.01014073835791461
36.727,170,36,727000000,,-0.0005089354065079429,-0.001979326906242045,0.01024768381535338
36.737,171,36,737000000,,-0.0006441120516801997,-0.0020140040890923,0.010305327579363515
36.747,172,36,747000000,,-0.0009058117327132645,-0.0020198408014254756,0.010314684048941525
36.757,173,36,757000000,,-0.0010678814494999595,-0.0019859544085355637,0.010320398427193286
36.767,174,36,767000000,,-0.0010146439549115274,-0.0019518103654662224,0.010374375576333725
36.777,175,36,777000000,,-0.0007638826020859267,-0.0019520192841444828,0.010490401219181548
36.787,176,36,787000000,,-0.000609452356500879,-0.0019817414878614873,0.01061005523507855
36.797,177,36,797000000,,-0.0006789716615972924,-0.0020144288230971156,0.010689739909404132
36.807,178,36,807000000,,-0.000940290417972027,-0.001994259620079064,0.010703786614722328
36.817,179,36,817000000,,-0.0011589529380997114,-0.001933128461561165,0.010695155359146958
36.827,180,36,827000000,,-0.0011607152278273291,-0.0018974830265039977,0.010740096131171906
36.837,181,36,837000000,,-0.000924167157887173,-0.0019202473508478208,0.010835984295752825
36.847,182,36,847000000,,-0.0007189845043947034,-0.0019872720881447033,0.010970590808069131
36.857,183,36,857000000,,-0.0007358714721780209,-0.002024441890644426,0.011064911386813777
36.867,184,36,867000000,,-0.000977361881955868,-0.0019801792657752853,0.011088007470949037
36.877,185,36,877000000,,-0.0012295895121548746,-0.001879952378559095,0.011070655085626973
36.887,186,36,887000000,,-0.0012669673705710486,-0.0018204588640862317,0.011085692837205344
36.897,187,36,897000000,,-0.0010980631835227714,-0.0018570225851935584,0.011174188257750647
36.907,188,36,907000000,,-0.0008415567603223756,-0.0019775751776497244,0.011321054244541866
36.917,189,36,917000000,,-0.0008112976970819965,-0.002038026780916091,0.011430985685128217
36.927,190,36,927000000,,-0.0010237371532141413,-0.0019753076170977673,0.011464709316218248
36.937,191,36,937000000,,-0.0012876533122497765,-0.0018298768030726824,0.011443503926019912
36.947,192,36,947000000,,-0.0013619632222972627,-0.0017391505685868279,0.011442826150556848
36.957,193,36,957000000,,-0.001193986848733912,-0.0018002228069402334,0.011524797923783359
36.967,194,36,967000000,,-0.0009864918492781076,-0.0019409778729329028,0.011670189162249388
36.977,195,36,977000000,,-0.0009016928656401858,-0.0020490277041656036,0.011788650436027618
36.987,196,36,987000000,,-0.0010636505747055572,-0.0019886122754313985,0.011849183200942115
36.997,197,36,997000000,,-0.0013423157251315483,-0.0017798446044350507,0.0118100191530185
37.007,198,37,7000000,,-0.0014341917859817036,-0.0016529459698249411,0.011798708703172492
37.017,199,37,17000000,,-0.0012907360093172531,-0.0017246378069798584,0.011869970493997763
37.027,200,37,27000000,,-0.0010715246642889968,-0.0019265104619899892,0.01201111899157397
37.037,201,37,37000000,,-0.001002300801121047,-0.0020531978063116118,0.012139118746002518
37.047,202,37,47000000,,-0.001159741597777279,-0.001964637677179671,0.012189235215059
37.057,203,37,57000000,,-0.0013952409725174761,-0.001726045049179291,0.012168582322221082
37.067,204,37,67000000,,-0.001484775940852615,-0.0015653430987416558,0.01215183710268491
37.077,205,37,77000000,,-0.0013598823603606983,-0.0016490414433537794,0.012215707237085927
37.087,206,37,87000000,,-0.0011651154351631366,-0.0018952320276668646,0.012353818737680888
37.097,207,37,97000000,,-0.0011042931565890678,-0.0020509061372087694,0.012483318950878274
37.107,208,37,107000000,,-0.0012431222537616555,-0.001945128750291429,0.012536356580867491
37.117,209,37,117000000,,-0.001445926517522752,-0.0016618162116707586,0.012517571938192952
37.127,210,37,127000000,,-0.0015585611662047123,-0.0014173344899195911,0.012500551455304324
37.137,211,37,137000000,,-0.0013654809451438144,-0.0016341987675470846,0.012561781489929258
37.147,212,37,147000000,,-0.0012441065684720427,-0.0018698977153642415,0.012695893430372094
37.157,213,37,157000000,,-0.0012073055707343989,-0.0020410793238754294,0.012821612134947471
37.167,214,37,167000000,,-0.001315790123994775,-0.0019336435002968297,0.012878659231211936
37.177,215,37,177000000,,-0.0014919264547403692,-0.0015810086937427987,0.012856622142031312
37.187,216,37,187000000,,-0.001530099937070118,-0.0013868208021722026,0.012844345812803406
37.197,217,37,197000000,,-0.0014465945359881988,-0.0014984022188629066,0.012915807215141371
37.207,218,37,207000000,,-0.001325806624288521,-0.001820382843170464,0.01304083274634793
37.217,219,37,217000000,,-0.0013072066455401246,-0.002018393227144415,0.013162430195235926
37.227,220,37,227000000,,-0.0014159052538628204,-0.0018461689039685376,0.013199222157519383
37.237,221,37,237000000,,-0.0015221411219370254,-0.001486672709401567,0.013186334529837822
37.247,222,37,247000000,,-0.001522264477848911,-0.0013075146570892568,0.013183809435403525
37.257,223,37,257000000,,-0.001438319683818049,-0.0014954319246996413,0.013251532554132958
37.267,224,37,267000000,,-0.0013807577813208115,-0.0018173564978030752,0.013366310972184353
37.277,225,37,277000000,,-0.0014062455200942307,-0.001985171867643804,0.013486927561772213
37.287,226,37,287000000,,-0.0014904458573792962,-0.0017511469156094416,0.013515229672732552
37.297,227,37,297000000,,-0.001537601009151819,-0.0014040521553758418,0.01352863510166703
37.307,228,37,307000000,,-0.0014990451124898866,-0.0012365718104195367,0.013519980390548459
37.317,229,37,317000000,,-0.0014453745651522773,-0.0014855348782643715,0.013592610512679248
37.327,230,37,327000000,,-0.001447491095621988,-0.0018420779566799058,0.013702050560753841
37.337,231,37,337000000,,-0.0015015910573601707,-0.001917029270009642,0.013788563934823273
37.347,232,37,347000000,,-0.0015410084021849702,-0.0016188291746998392,0.013821989903130528
37.357,233,37,357000000,,-0.0015177552717730047,-0.001247156787720537,0.01382666013095162
37.367,234,37,367000000,,-0.001464331244632507,-0.001190673850404842,0.013854147305874715
37.377,235,37,377000000,,-0.0014605332134209345,-0.001501768660010444,0.013928325368929831
37.387,236,37,387000000,,-0.001523445591641021,-0.0018301009123112963,0.01402121722166852
37.397,237,37,397000000,,-0.0015788275154264035,-0.0018127327346707804,0.014090162756244796
37.407,238,37,407000000,,-0.001555619211195209,-0.0014566296470382254,0.014122470277283087
37.417,239,37,417000000,,-0.0014854582107678873,-0.0011474855831012608,0.014159726888074403
37.427,240,37,427000000,,-0.0014337281808977334,-0.0011516804942410448,0.014198642694411649
37.437,241,37,437000000,,-0.0014945832637239215,-0.001533268889193891,0.014253625172189203
37.447,242,37,447000000,,-0.001602285640671262,-0.0017906926270689569,0.014325932722730637
37.457,243,37,457000000,,-0.0016241188536758567,-0.0016615710439049777,0.014381091759563196
37.467,244,37,467000000,,-0.0015239840961978942,-0.0012752357078984191,0.014420505103080582
37.477,245,37,477000000,,-0.0014071476834691058,-0.0010386122710042468,0.014460411233365106
37.487,246,37,487000000,,-0.0014149404030224405,-0.0012002894443741009,0.014509717970631837
37.497,247,37,497000000,,-0.0015555475210520305,-0.0015590796312315173,0.014563558293214372
37.507,248,37,507000000,,-0.001671326366902562,-0.0017012255963368816,0.014614898961025389
37.517,249,37,517000000,,-0.001620285059911051,-0.0014641794023965127,0.014666269767332521
37.527,250,37,527000000,,-0.0014470729225494674,-0.0010969037640609397,0.014722380005443007
37.537,251,37,537000000,,-0.001342822418450573,-0.0009928350137344175,0.014778041357845233
37.547,252,37,547000000,,-0.0014382840614188478,-0.0012494355968797005,0.014821628301361125
37.557,253,37,557000000,,-0.001635626383829751,-0.0015516130333239687,0.014852920281046096
37.567,254,37,567000000,,-0.0017039821498601928,-0.0015487497887287619,0.014890820698994016
37.577,255,37,577000000,,-0.0015521309466262627,-0.0012387907675922244,0.014953319124076556
37.587,256,37,587000000,,-0.001340089002803542,-0.0009543548069980658,0.015030379621063501
37.597,257,37,597000000,,-0.0013096852109912864,-0.0009994816187847842,0.015089215820367548
37.607,258,37,607000000,,-0.0015077457910497756,-0.0012949317185387186,0.015111592436987765
37.617,259,37,617000000,,-0.0017081921970081445,-0.0014780616891438805,0.015120598901032014
37.627,260,37,627000000,,-0.001669552344204201,-0.001335292047414965,0.01516224677545896
37.637,261,37,637000000,,-0.001469030176639423,-0.0009652169663927075,0.015250258303507151
37.647,262,37,647000000,,-0.0011962483463516431,-0.000923877960248826,0.015340623392418784
37.657,263,37,657000000,,-0.0013347278632245409,-0.0010404679220736032,0.015382160989856068
37.668,264,37,667000000,,-0.0016068533207125118,-0.001293015658002493,0.015373144708165542
37.677,265,37,677000000,,-0.001734902417745489,-0.0013338676728172577,0.015376113144307708
37.687,266,37,687000000,,-0.001549562797979841,-0.0010907396700318892,0.015442618046472591
37.697,267,37,697000000,,-0.0012609209136928488,-0.0008519395517520485,0.015558286141385904
37.707,268,37,707000000,,-0.0011933454838909724,-0.0008598105884057503,0.015640941522541137
37.717,269,37,717000000,,-0.0014014472544713892,-0.0010433743558424472,0.015665928681133638
37.727,270,37,727000000,,-0.001738649100011882,-0.0011528520573292594,0.0156080912453303
37.737,271,37,737000000,,-0.0016141589963352843,-0.0011441400162914785,0.01562914804504264
37.747,272,37,747000000,,-0.0013557755869801832,-0.0008651531397737132,0.015742033603143954
37.757,273,37,757000000,,-0.0011280935053323221,-0.0007613533905264263,0.015867983225640852
37.767,274,37,767000000,,-0.0012396004300618151,-0.0008777232945723747,0.015911392537924316
37.777,275,37,777000000,,-0.0015563975831919298,-0.001033652448968852,0.0158672077752511
37.787,276,37,787000000,,-0.0016910633642255907,-0.0010204068417621701,0.015833785898190608
37.797,277,37,797000000,,-0.0014724698389179127,-0.0008493833385950062,0.015908710153225755
37.807,278,37,807000000,,-0.001145345093802028,-0.0007067938889833543,0.016057888267866704
37.817,279,37,817000000,,-0.001088992166829453,-0.0007348695139273513,0.0161556441731695
37.827,280,37,827000000,,-0.0013670615081894071,-0.0008586324221127389,0.016136132395616842
37.837,281,37,837000000,,-0.0016200393292495766,-0.0008876281191005236,0.016090105178569264
37.847,282,37,847000000,,-0.001582926325948049,-0.000788829419030913,0.016091033097694284
37.857,283,37,857000000,,-0.001217695627052786,-0.0006502238901658635,0.016218561328148386
37.867,284,37,867000000,,-0.0010072367627303935,-0.0006306135163733917,0.016364011455057878
37.877,285,37,877000000,,-0.0011719597423415452,-0.0007074172934972528,0.01639368274023791
37.887,286,37,887000000,,-0.0015003717298188617,-0.0007400903895598345,0.016316302375227566
37.897,287,37,897000000,,-0.0015788793354765494,-0.000663342360538301,0.016270013544199224
37.907,288,37,907000000,,-0.0013029522703838226,-0.0005616795260098079,0.016367525308972886
37.917,289,37,917000000,,-0.000992521667176781,-0.0005367419863531796,0.01653865021532814
37.927,290,37,927000000,,-0.001012408432445628,-0.0005842739753638891,0.016625230061512217
37.937,291,37,937000000,,-0.0013250374501107955,-0.000597365837758316,0.016572223074048858
37.947,292,37,947000000,,-0.0015280967093720108,-0.0005202818126490681,0.016484692966105146
37.957,293,37,957000000,,-0.0013621086698073135,-0.0004337170561303457,0.016522187755322517
37.967,294,37,967000000,,-0.0010445996412503861,-0.00042007264095593656,0.016674895189402912
37.977,295,37,977000000,,-0.0009021726517080211,-0.00047364219647969897,0.016824561661105353
37.987,296,37,987000000,,-0.0011414744881272031,-0.0004715321576846382,0.016815639731343788
37.997,297,37,997000000,,-0.0014174803368998308,-0.0003730357501343496,0.01671512960138976
38.007,298,38,7000000,,-0.0013730309763365142,-0.00027611168342135846,0.016692980764809056
38.017,299,38,17000000,,-0.0010549182759244425,-0.000284309455800455,0.01682821157420774
38.027,300,38,27000000,,-0.0008409065667900686,-0.0003563851445084711,0.016993911140499092
38.037,301,38,37000000,,-0.0009789900069527623,-0.0003583880442104196,0.017035182360960424
38.047,302,38,47000000,,-0.0012726940237428202,-0.00023459708415082332,0.01694753159465603
38.057,303,38,57000000,,-0.0013333198745825766,-0.00010432512434599973,0.01688110984552081
38.067,304,38,67000000,,-0.0011071533718236258,-0.00010044438937316162,0.016957490693044315
38.077,305,38,77000000,,-0.0008084485702632697,-0.0002179056950927993,0.017141757245947624
38.087,306,38,87000000,,-0.0008232802247639747,-0.00024969310032217976,0.01723046884213103
38.097,307,38,97000000,,-0.001114998372918648,-0.00010819242954622754,0.017169487454639764
38.107,308,38,107000000,,-0.0012493852441753477,6.772022106294659e-05,0.017080732721222267
38.117,309,38,117000000,,-0.001068509699955234,8.335445636673055e-05,0.01711969544128106
38.127,310,38,127000000,,-0.0007902198618541814,-5.148619019026115e-05,0.017277473408081116
38.137,311,38,137000000,,-0.0007449460960309456,-0.0001233124919382088,0.017394031252602637
38.147,312,38,147000000,,-0.0009623766342339611,1.1972739946570813e-05,0.017372449537204897
38.157,313,38,157000000,,-0.0011346176474398887,0.00023349623440050796,0.01728228987903137
38.167,314,38,167000000,,-0.0010254038577348,0.00029057037271910236,0.017280792166912022
38.177,315,38,177000000,,-0.0007869953316295805,0.00016939616038008689,0.017413993445948368
38.187,316,38,187000000,,-0.0006989315221661377,7.241730279570495e-05,0.017540432835127736
38.197,317,38,197000000,,-0.0007905089836295407,8.393058393762466e-05,0.017552483022839602
38.207,318,38,207000000,,-0.0010019760020020328,0.00039009525637787864,0.017476577159861766
38.217,319,38,217000000,,-0.0009497353977764619,0.0005000281368068255,0.017449681737509378
38.227,320,38,227000000,,-0.0007429854449590599,0.0003783641182285867,0.017534838057676996
38.237,321,38,237000000,,-0.000595683846952614,0.00020447933995994488,0.017681585430320532
38.247,322,38,247000000,,-0.000699867914184713,0.0002626791065362655,0.017710653045483322
38.257,323,38,257000000,,-0.0008647815342381021,0.0005428234637766785,0.017657173862053822
38.267,324,38,267000000,,-0.0008588854496466002,0.0007104674551055871,0.017623195108555673
38.277,325,38,277000000,,-0.0006605628693569602,0.0005789669539150476,0.01768499008040124
38.287,326,38,287000000,,-0.0005290973134536715,0.000374246176091578,0.01779646372610592
38.297,327,38,297000000,,-0.000592797545728596,0.00041185230222240914,0.017848995673358077
38.307,328,38,307000000,,-0.0007299808965498852,0.0006993321397279471,0.017820408363877785
38.317,329,38,317000000,,-0.0007295413452238323,0.000911545007679146,0.01778854054769658
38.327,330,38,327000000,,-0.0005778694318872989,0.0008136208194630166,0.01782894359322507
38.337,331,38,337000000,,-0.0004577216001498774,0.0005846861715236468,0.01791663663041913
38.347,332,38,347000000,,-0.0004947802751293324,0.000581208439218441,0.017971203117753028
38.357,333,38,357000000,,-0.0005997591409161179,0.000863787442656741,0.017965179355771185
38.367,334,38,367000000,,-0.0005988893361933839,0.0011145334651818763,0.017947866511529513
38.377,335,38,377000000,,-0.0004856074928427264,0.0010798809368735183,0.01798860756324919
38.387,336,38,387000000,,-0.0003751008563776683,0.0008074916807532193,0.01803480468528759
38.397,337,38,397000000,,-0.0003994818190598669,0.0007689436042862244,0.0180804547703979
38.407,338,38,407000000,,-0.00047341942490251924,0.0010389711386656116,0.018092213114171925
38.417,339,38,417000000,,-0.0004631011865899496,0.0013115025275797468,0.0181138281669163
38.427,340,38,427000000,,-0.0003561310589172725,0.0012838142819731452,0.01811720766218776
38.437,341,38,437000000,,-0.0003058181345449854,0.0011043913466536699,0.01815166194255078
38.447,342,38,447000000,,-0.0002824467096851292,0.0009250072128388077,0.018179458727135313
38.457,343,38,457000000,,-0.00037315560926299006,0.0012939168773613426,0.018203160202992712
38.467,344,38,467000000,,-0.00030159800693501174,0.0014569163811294244,0.018229677925711084
38.477,345,38,477000000,,-0.0002249766909157924,0.0015200117099196395,0.01825523366216601
38.487,346,38,487000000,,-0.0001734761423127483,0.0013252779455690605,0.0182840511150665
38.497,347,38,497000000,,-0.00020455135019390675,0.001206050884228279,0.018270963200662627
38.507,348,38,507000000,,-0.00022752158826738717,0.0014408450027924339,0.01830000449340647
38.517,349,38,517000000,,-0.00017577609654056818,0.001729401625696575,0.018365464517879678
38.527,350,38,527000000,,-8.459464926539217e-05,0.001755433814067669,0.01838554040925918
38.537,351,38,537000000,,-6.110549453890885e-05,0.0015390717703515475,0.01837526182968142
38.547,352,38,547000000,,-9.826547649048999e-05,0.0014520087737503573,0.018355323105738376
38.557,353,38,557000000,,-0.00010194820939688532,0.0016709835233866396,0.018385485917707927
38.567,354,38,567000000,,-3.9542685928481456e-05,0.002029092580118923,0.018460958516602143
38.577,355,38,577000000,,7.85265778542668e-05,0.0019334895523708284,0.018506127627628686
38.587,356,38,587000000,,6.407672003191427e-05,0.0017954749365116517,0.018478971692920624
38.597,357,38,597000000,,1.6315779173485747e-05,0.0017124948985382839,0.01843291020751531
38.607,358,38,607000000,,2.9116409283670076e-05,0.001918105708050629,0.018460975396983735
38.617,359,38,617000000,,0.00011658725179760271,0.0022666114009864385,0.018558056990674268
38.627,360,38,627000000,,0.000228782186739825,0.002173288048381254,0.018616022774379983
38.637,361,38,637000000,,0.00020905685143825668,0.002091564599165161,0.018600617257244316
38.647,362,38,647000000,,0.00014040109288567874,0.001985139847609408,0.018503031305589383
38.657,363,38,657000000,,0.00016792231169770547,0.0021805123543194613,0.01852787230860691
38.667,364,38,667000000,,0.00028173755727268373,0.0024376523413637157,0.018650459155215945
38.677,365,38,677000000,,0.0003729476371014849,0.0024829578618902515,0.01871405440576241
38.687,366,38,687000000,,0.00033778278328617416,0.0023281059350984123,0.018659253588265843
38.697,367,38,697000000,,0.0002753809830345231,0.0022736088724325393,0.01856619539197821
38.707,368,38,707000000,,0.00030971460055763617,0.002441369516606865,0.018579984053491157
38.717,369,38,717000000,,0.00045288807589271944,0.002702618898209696,0.018720750377548574
38.727,370,38,727000000,,0.0005342685642331294,0.0027393695668769783,0.01879966987838216
38.737,371,38,737000000,,0.0005007543835518229,0.0026368408494009572,0.018763002059296915
38.747,372,38,747000000,,0.0004479762711224484,0.0025184711106372424,0.01867381750009987
38.757,373,38,757000000,,0.0004694356664379174,0.0028221301833655735,0.01864131949145813
38.767,374,38,767000000,,0.0006220677710673964,0.002971859402158098,0.01878735439336528
38.777,375,38,777000000,,0.0006987831703708723,0.003003128127053804,0.01887141677772617
38.787,376,38,787000000,,0.0006395393818184885,0.0028950852557766238,0.018793119601398837
38.797,377,38,797000000,,0.0005820386081405795,0.00288294211694951,0.018676609862090566
38.807,378,38,807000000,,0.0006480036056312827,0.0030623284518579335,0.018689419552686673
38.817,379,38,817000000,,0.0008005518869965295,0.00325406207224442,0.01884557508361316
38.827,380,38,827000000,,0.0008679628791812455,0.003278356871486686,0.018929929740144773
38.837,381,38,837000000,,0.0008021429785589794,0.003194264287225403,0.018840638330140585
38.847,382,38,847000000,,0.0007494944901403809,0.003208550390967526,0.018706416164934125
38.857,383,38,857000000,,0.0008338977474673037,0.00346384436500653,0.018732354397916366
38.867,384,38,867000000,,0.0009844347674958004,0.0034696882706080935,0.01889376322006878
38.877,385,38,877000000,,0.0010422270984410725,0.0035648870922470764,0.01897406715469164
38.887,386,38,887000000,,0.0009737745173016737,0.003505106027814214,0.01887471661240476
38.897,387,38,897000000,,0.0009334954650894388,0.003540716803342944,0.018737190457079778
38.907,388,38,907000000,,0.001027701312530054,0.0037044759767730574,0.01876909002257865
38.917,389,38,917000000,,0.0011769451738645766,0.0038502066038693323,0.01893253902267285
38.927,390,38,927000000,,0.0012223406544307615,0.003866058251133177,0.019003656140091314
38.937,391,38,937000000,,0.0011559538549725096,0.003827766503643593,0.018895490340002288
38.947,392,38,947000000,,0.0011314435312896605,0.0038817550635149257,0.018760615043352646
38.957,393,38,957000000,,0.0012352042379657334,0.00403850256363905,0.01880023260332068
38.967,394,38,967000000,,0.001374548606891025,0.0041769670800981635,0.018962541641915295
38.977,395,38,977000000,,0.0014221909700597455,0.004202306648651415,0.01903805585105097
38.987,396,38,987000000,,0.0013495283850228378,0.004161057544630338,0.018903269109413805
38.997,397,38,997000000,,0.001342750413857871,0.004229179850802921,0.01877673825458095
39.007,398,39,7000000,,0.0014532079825833892,0.004379347118416101,0.018824309626269527
39.017,399,39,17000000,,0.0015823069665353042,0.004493129092006407,0.018974703398783023
39.027,400,39,27000000,,0.0016206461532058995,0.004608711985765756,0.019017100518773415
39.037,401,39,37000000,,0.0015439661584717456,0.004419020225682914,0.01889931992106743
39.047,402,39,47000000,,0.001583923277364145,0.0046846018959494475,0.01878650070908889
39.057,403,39,57000000,,0.0016672749702745869,0.004639027092898921,0.018839686664310788
39.067,404,39,67000000,,0.0017947644609258222,0.004835308477068935,0.01896488368111665
39.077,405,39,77000000,,0.0018132719082828714,0.004855761746936317,0.019000949118287067
39.087,406,39,87000000,,0.0017760182692295407,0.004863635890987888,0.018885412101987797
39.097,407,39,97000000,,0.0018044246935427259,0.004946470437551386,0.01878936999083644
39.107,408,39,107000000,,0.001918835607495994,0.00508841264115603,0.018846402804010693
39.117,409,39,117000000,,0.0020213223266819587,0.005191328805875467,0.018962560890038938
39.127,410,39,127000000,,0.002033410320589635,0.005215066097085691,0.018970658588779974
39.137,411,39,137000000,,0.0020101676301625244,0.005228122073678213,0.018861821521774458
39.147,412,39,147000000,,0.002053171812386845,0.0053141107248370215,0.018785541055556257
39.157,413,39,157000000,,0.002192553894155919,0.0055682320620233485,0.018841539692185987
39.167,414,39,167000000,,0.0022342407229259662,0.005463556887657811,0.018933233021584058
39.177,415,39,177000000,,0.0022674162380431485,0.005587129195775035,0.018926563164716574
39.187,416,39,187000000,,0.002260903142372821,0.005604346062478784,0.018839400555486493
39.197,417,39,197000000,,0.002311887050239361,0.005688109502759091,0.018773517944642014
39.207,418,39,207000000,,0.002422733969809501,0.005839821488150351,0.018822769179627344
39.217,419,39,217000000,,0.002505389057366148,0.0059507843345640524,0.01888833848751553
39.227,420,39,227000000,,0.0025168850797211233,0.005972195194277216,0.01887024025262611
39.237,421,39,237000000,,0.0025179982549167566,0.005977998400176089,0.01879115479559951
39.247,422,39,247000000,,0.002580852335918355,0.006070473358542986,0.018752822534819642
39.257,423,39,257000000,,0.0026911309237708314,0.006235920786293017,0.018789581363894903
39.267,424,39,267000000,,0.0027694863996031937,0.006353588668588147,0.018827353605812086
39.277,425,39,277000000,,0.002782006664166242,0.006366430388760258,0.018803151161249147
39.287,426,39,287000000,,0.002789952809372333,0.006362615681563395,0.018745417424846502
39.297,427,39,297000000,,0.0028547635836367303,0.006455921152519742,0.01872006875611915
39.307,428,39,307000000,,0.0029727296618021403,0.006647812257890632,0.018740190703407846
39.317,429,39,317000000,,0.003060745588760025,0.006788430703404607,0.018766967320228402
39.327,430,39,327000000,,0.00306228947958516,0.006767790187123368,0.018726368431289706
39.337,431,39,337000000,,0.0030736521202090663,0.00675832619435321,0.018693681062534738
39.347,432,39,347000000,,0.003147485554896419,0.006867325233379796,0.01867778591853989
39.357,433,39,357000000,,0.0032695195572056738,0.00707394726896509,0.01867350204659745
39.367,434,39,367000000,,0.0034010019259421175,0.007332817727521556,0.018659961145984803
39.377,435,39,377000000,,0.0033152763771726215,0.0070576625271152795,0.018641292839396854
39.387,436,39,387000000,,0.0033625666550629856,0.007150821507227013,0.01863150425265591
39.397,437,39,397000000,,0.0034464364904508334,0.007285794523909669,0.01861992715408745
39.407,438,39,407000000,,0.0035784571247267426,0.007504393565626258,0.018591319131434924
39.417,439,39,417000000,,0.0036687581736282093,0.007634753455549375,0.018555320924341524
39.427,440,39,427000000,,0.0036640623058282183,0.007589832616139394,0.01854881817906345
39.437,441,39,437000000,,0.0036625355405423016,0.007561497232306116,0.018561774581255807
39.447,442,39,447000000,,0.003759859081398397,0.007721070957180416,0.018546888596667057
39.457,443,39,457000000,,0.003919973805620672,0.007971379652118901,0.01848866658260626
39.467,444,39,467000000,,0.004007069643890281,0.008078659878023274,0.01843924903872205
39.477,445,39,477000000,,0.003983056504380118,0.008009576439249273,0.01844896485592067
39.487,446,39,487000000,,0.003971124232413325,0.007983614582233588,0.018481293360451817
39.497,447,39,497000000,,0.004078385217257568,0.008155571940241135,0.018461228644497566
39.507,448,39,507000000,,0.004278536499169292,0.008439420442275483,0.01837152418488623
39.517,449,39,517000000,,0.00438074371178103,0.00855764141678282,0.018328792193940114
39.527,450,39,527000000,,0.0043120780522218705,0.008436080369085275,0.018340942299628293
39.537,451,39,537000000,,0.00428927518485674,0.008420333200699523,0.01838815018775655
39.547,452,39,547000000,,0.004436877209738547,0.008640457346423177,0.018350685254244055
39.557,453,39,557000000,,0.0046601698785008775,0.008913277498827483,0.01823900538103604
39.567,454,39,567000000,,0.004758283493403384,0.00901230555147957,0.018190753845504132
39.577,455,39,577000000,,0.004650048269611083,0.008871574464383261,0.018224185191379107
39.587,456,39,587000000,,0.004618506906635846,0.008874423034306007,0.018281228405635834
39.597,457,39,597000000,,0.004786705532104359,0.00910159638711824,0.018235341369006015
39.607,458,39,607000000,,0.0050662407728645715,0.009393830432452269,0.01809252235455887
39.617,459,39,617000000,,0.005153670668073427,0.009471094348612326,0.018043178981383842
39.627,460,39,627000000,,0.004997861352418558,0.009320129800238688,0.018097124108937435
39.637,461,39,637000000,,0.004961719525873268,0.009348272702922695,0.01815891787194294
39.647,462,39,647000000,,0.005197309603795467,0.009617872705267372,0.018086883161553866
39.657,463,39,657000000,,0.005495207221982469,0.009874193995060163,0.017933570909312135
39.667,464,39,667000000,,0.005554024205365135,0.009910896429939435,0.01786943586821496
39.677,465,39,677000000,,0.005355540406449109,0.009782883996327686,0.017958681474868794
39.687,466,39,687000000,,0.005320479770434799,0.009841550369185941,0.018020903343416175
39.697,467,39,697000000,,0.0056125798302776924,0.010122541266947057,0.017931242808497325
39.707,468,39,707000000,,0.0059468871091317805,0.010354722071897537,0.01776344885945378
39.717,469,39,717000000,,0.005954853083625372,0.010353091712404595,0.017710999222245016
39.727,470,39,727000000,,0.005726215967039216,0.010263479588073651,0.017806904373207918
39.737,471,39,737000000,,0.00568776053125389,0.010344940845121378,0.01786403648054345
39.747,472,39,747000000,,0.006017667041218084,0.010616932699366822,0.017774264685396224
39.757,473,39,757000000,,0.006421449230845187,0.010855948842419198,0.01761012397854765
39.767,474,39,767000000,,0.006393144531906118,0.010819877748991217,0.017536078691247882
39.777,475,39,777000000,,0.0061131166362582675,0.010761845865295439,0.017640157886018522
39.787,476,39,787000000,,0.006096745757071063,0.010885814116725224,0.017694498187066893
39.797,477,39,797000000,,0.006515302241480789,0.011149353822571704,0.017576241987947643
39.807,478,39,807000000,,0.006923373887137141,0.011327701328274164,0.017408991675130485
39.817,479,39,817000000,,0.006846673711318295,0.011290722346294428,0.017350279711043304
39.827,480,39,827000000,,0.006516683169466562,0.01127851045210066,0.01745783312043162
39.837,481,39,837000000,,0.006515413720493444,0.011433272604780524,0.01750613328679321
39.847,482,39,847000000,,0.006998273897767434,0.011665879113234485,0.017379324329704363
39.857,483,39,857000000,,0.007425595441582518,0.0117734355149414,0.017192070330323064
39.867,484,39,867000000,,0.007316609254826153,0.011765970285863863,0.017153041120787204
39.877,485,39,877000000,,0.006939897056810383,0.011813264505399396,0.017259289327348486
39.887,486,39,887000000,,0.006954222619961847,0.011996258596950688,0.01730185936230379
39.897,487,39,897000000,,0.007447093254065785,0.012181064654048189,0.0171851065487169
39.907,488,39,907000000,,0.007958564325256347,0.01227031203500077,0.017008873835782028
39.917,489,39,917000000,,0.007810496954495276,0.012244847078006504,0.016942678232264863
39.927,490,39,927000000,,0.0073901385546339005,0.0123634340625007,0.017043511634408304
39.937,491,39,937000000,,0.0074114131238413455,0.012587020812199647,0.017095655527489297
39.947,492,39,947000000,,0.00801437794905037,0.012701213014928615,0.016949491879960383
39.957,493,39,957000000,,0.008490949014671055,0.012701219852560239,0.0167733933816664
39.967,494,39,967000000,,0.008324359757497816,0.012725030322990214,0.016719326956341728
39.977,495,39,977000000,,0.007906240981893428,0.012916182203886975,0.01679576014864043
39.987,496,39,987000000,,0.007889683545973232,0.013180831101159576,0.016858420647849832
39.997,497,39,997000000,,0.008538760708160464,0.01322374740238273,0.0167176713652874
40.007,498,40,7000000,,0.009050958107160665,0.013140734331104327,0.016536250608378898
40.017,499,40,17000000,,0.00886293129850859,0.013203558814114533,0.016483312866573608
40.027,500,40,27000000,,0.008514564672039118,0.013683960073356271,0.01655973901063261
40.037,501,40,37000000,,0.008274027680540546,0.01360120297531483,0.016592449378788832
40.047,502,40,47000000,,0.00907208551214993,0.013753402763600856,0.01647388441499692
40.057,503,40,57000000,,0.009617535994826374,0.013588450421519783,0.016298754029467486
40.067,504,40,67000000,,0.009489001758349998,0.013656878461105247,0.016227784940616916
40.077,505,40,77000000,,0.00891029240558275,0.014072585886578315,0.016295564759586958
40.087,506,40,87000000,,0.008922239320211037,0.014388508345897772,0.01632407897752688
40.097,507,40,97000000,,0.009612689216364854,0.014299490909175762,0.01621986716519702
40.107,508,40,107000000,,0.010192899568834712,0.014034027163830919,0.01605376596820594
40.117,509,40,117000000,,0.010023033271545873,0.014129446138445296,0.01597753175516153
40.127,510,40,127000000,,0.009491260487219743,0.014639132260193262,0.01601757309242377
40.137,511,40,137000000,,0.009475383119256853,0.015020138288224872,0.016043204266722497
40.147,512,40,147000000,,0.010162513013637815,0.014865097833027485,0.015955157894323734
40.157,513,40,157000000,,0.010777685180881843,0.014484275657071242,0.015801334945312617
40.167,514,40,167000000,,0.010644828430742364,0.014565208974248331,0.015712450405507707
40.177,515,40,177000000,,0.010110615877100564,0.015185539526335383,0.015728411175008172
40.187,516,40,187000000,,0.010060663577502325,0.01567633838882398,0.01575911651276264
40.197,517,40,197000000,,0.010719390585190934,0.015457998392711763,0.015679032637216
40.207,518,40,207000000,,0.011366001144897424,0.014945670791934117,0.015541058908755425
40.217,519,40,217000000,,0.0113631442294694,0.01497651236353425,0.015455188360338872
40.227,520,40,227000000,,0.010766224617035323,0.015695595940394897,0.01543029874206314
40.237,521,40,237000000,,0.01066725630896177,0.016296441810946548,0.015442175092737135
40.247,522,40,247000000,,0.01128479831445059,0.016086906419633274,0.015389926497725722
40.257,523,40,257000000,,0.01192632145672776,0.015489721540038753,0.015278288676698783
40.267,524,40,267000000,,0.012018688452686896,0.015363867974596882,0.015180474309189892
40.277,525,40,277000000,,0.011462878633911065,0.01615478710561848,0.015126044068469022
40.287,526,40,287000000,,0.011320178147171803,0.016918592909711205,0.015123227496565186
40.297,527,40,297000000,,0.011871349160193882,0.016753711922285267,0.01508647993509095
40.307,528,40,307000000,,0.012545120841320569,0.01595937142266934,0.014992087639497373
40.317,529,40,317000000,,0.012617803844728472,0.01572455430802793,0.01488430878827714
40.327,530,40,327000000,,0.012190613192795276,0.016551291046724773,0.01481845952967065
40.337,531,40,337000000,,0.012015772917605813,0.017507177409235457,0.014795148229523986
40.347,532,40,347000000,,0.012434634447476934,0.017534510986496298,0.014765275869825619
40.357,533,40,357000000,,0.01313432267459447,0.016684422538669568,0.014715604469066453
40.367,534,40,367000000,,0.01329759293620083,0.016080184575431318,0.01459977935619194
40.377,535,40,377000000,,0.01294480989559953,0.0168580663815184,0.01451124177557585
40.387,536,40,387000000,,0.012755552882643595,0.01801881232963945,0.014460520548657787
40.397,537,40,397000000,,0.0131437972211306,0.01817863842966385,0.014433177082936574
40.407,538,40,407000000,,0.013758807642722238,0.017214161275127843,0.014390542431112536
40.417,539,40,417000000,,0.01396418175022591,0.01647475876992685,0.01430880040586135
40.427,540,40,427000000,,0.013774317451150929,0.017025259363138017,0.01422323055286183
40.437,541,40,437000000,,0.013519919482658594,0.018441531199209417,0.014124410021496218
40.447,542,40,447000000,,0.013841623913570685,0.018899462568486923,0.014084929842258917
40.457,543,40,457000000,,0.014400082994722133,0.017979825968634035,0.01406213085170913
40.467,544,40,467000000,,0.014635376375644892,0.016942107601692864,0.014007274495078412
40.477,545,40,477000000,,0.014446922132528366,0.01727599510530081,0.01390423636559505
40.487,546,40,487000000,,0.014310203307004674,0.018716197083269243,0.013792574842607541
40.497,547,40,497000000,,0.014799004924653872,0.01970792159706154,0.013721424367691325
40.507,548,40,507000000,,0.01512096265869083,0.018825687125494695,0.013712614108589106
40.517,549,40,517000000,,0.015119375949349815,0.017388086178085085,0.013691041091347828
40.527,550,40,527000000,,0.015181879095268781,0.017426858786721667,0.013602661114765002
40.537,551,40,537000000,,0.015090073425980245,0.018823740626810772,0.01347065359615192
40.547,552,40,547000000,,0.0153774928566748,0.0200660858197836,0.013368082733677544
40.557,553,40,557000000,,0.015846740557547714,0.019704646069936042,0.013342998928144416
40.567,554,40,567000000,,0.016054818014494033,0.01826121905977416,0.013348302832052801
40.577,555,40,577000000,,0.015914561716374526,0.01764398471931007,0.013295253767205587
40.587,556,40,587000000,,0.015842691773978106,0.01878280969051537,0.01316097491030262
40.597,557,40,597000000,,0.01616822028344063,0.02037322773921073,0.013019031763996916
40.607,558,40,607000000,,0.016663789951047586,0.02054723681023937,0.012960189337485708
40.617,559,40,617000000,,0.016876454742736247,0.019338485267513,0.012968908735700318
40.627,560,40,627000000,,0.01692451220795458,0.01812168579501781,0.012969797824420795
40.637,561,40,637000000,,0.016339763382894695,0.018549710544235248,0.012861669939912062
40.647,562,40,647000000,,0.016920228125133774,0.02041059223597102,0.01268955923534417
40.657,563,40,657000000,,0.01751437100753891,0.021227728433823367,0.012578387373889569
40.667,564,40,667000000,,0.018016234041090512,0.020288331648149544,0.012581428277193189
40.677,565,40,677000000,,0.017283686557323975,0.018555827216442684,0.012617848001631729
40.687,566,40,687000000,,0.017257144154474203,0.018563351744877613,0.012555868000369945
40.697,567,40,697000000,,0.0175468074856307,0.020008627744479156,0.012395956439048887
40.707,568,40,707000000,,0.018323537679203746,0.021624095912834648,0.012215402143512733
40.717,569,40,717000000,,0.0187674067952784,0.02125857537733437,0.0121823536433298
40.727,570,40,727000000,,0.01854197558929602,0.019725326857312753,0.01220960998496434
40.737,571,40,737000000,,0.018024135220534004,0.01868508045443257,0.01222924747230712
40.747,572,40,747000000,,0.01817576511269652,0.019784160699757886,0.012096664271208972
40.757,573,40,757000000,,0.018957321973336466,0.021477148072262725,0.011901412459053927
40.767,574,40,767000000,,0.019736134932795902,0.022127285522042798,0.011763127250601729
40.777,575,40,777000000,,0.019730572305772902,0.02091201196921072,0.011790175399316694
40.787,576,40,787000000,,0.018961494781766192,0.01916660954959055,0.011858749672739316
40.797,577,40,797000000,,0.019023119621128293,0.019437494314740948,0.011803514527988163
40.807,578,40,807000000,,0.01928619796630392,0.021151779742361525,0.011605849219338785
40.817,579,40,817000000,,0.020599648009340055,0.022460059260844843,0.011403330867961027
40.827,580,40,827000000,,0.020869382507979806,0.021820009908282586,0.011350653890964166
40.837,581,40,837000000,,0.02030762381926689,0.02028248821796278,0.01142538325286852
40.847,582,40,847000000,,0.019497213835387918,0.019289458917974733,0.011465502281382248
40.857,583,40,857000000,,0.019839926878103233,0.020365355989707547,0.011366279560555272
40.867,584,40,867000000,,0.02146318000349787,0.02231734447922522,0.011117254767082476
40.877,585,40,877000000,,0.021778914051731556,0.02268422699527459,0.0109379272979719
40.887,586,40,887000000,,0.021618687869190144,0.02127026318277064,0.010961226003481836
40.897,587,40,897000000,,0.020552041699587926,0.0197562943128431,0.011064890381659314
40.907,588,40,907000000,,0.020267963807568453,0.01993716701484714,0.011053300440948748
40.917,589,40,917000000,,0.02166793102690283,0.021598587553980628,0.010861098073633436
40.927,590,40,927000000,,0.022597150561877853,0.02297042707735094,0.010606110977472891
40.937,591,40,937000000,,0.02322900237374722,0.022541551066128773,0.010494896494569054
40.947,592,40,947000000,,0.02210867317799698,0.02070465641732949,0.010587343597459248
40.957,593,40,957000000,,0.02104339019440261,0.01979375256123704,0.010687438005603404
40.967,594,40,967000000,,0.02143021387453405,0.020742493123486614,0.010616429591952331
40.977,595,40,977000000,,0.023108469396738236,0.02247271065263372,0.010369772691237938
40.987,596,40,987000000,,0.02437488319208204,0.023052869435118067,0.010129865430671108
40.997,597,40,997000000,,0.023975648245058028,0.02190615988170429,0.010087608522940604
41.007,598,41,7000000,,0.02264191541551457,0.020455035398233453,0.010192835442621031
41.017,599,41,17000000,,0.021767038334887502,0.020112301450498457,0.010297578414452268
41.027,600,41,27000000,,0.02288641000778561,0.021494098648901488,0.010169698364064698
41.037,601,41,37000000,,0.02485220720236701,0.022908114351801335,0.009886071711058377
41.047,602,41,47000000,,0.025657128226761267,0.022819848706666708,0.009668993132550686
41.057,603,41,57000000,,0.02458268216833555,0.02138383514555598,0.009684778264345452
41.067,604,41,67000000,,0.02294539752250601,0.02018073216585079,0.009843147304451069
41.077,605,41,77000000,,0.022751586211245664,0.02053491590884056,0.00989998928865928
41.087,606,41,87000000,,0.024505029675158694,0.022024939595713208,0.009723183132278702
41.097,607,41,97000000,,0.02649636929664407,0.0229777572033415,0.009413806294331986
41.107,608,41,107000000,,0.026841690505751366,0.022512813654140842,0.009220820399748138
41.117,609,41,117000000,,0.025111707161637957,0.020928830302054183,0.00928683422605853
41.127,610,41,127000000,,0.023529216383771954,0.02015272445403875,0.009467236316543694
41.137,611,41,137000000,,0.023918235640692415,0.02087488722610969,0.00950404732565634
41.147,612,41,147000000,,0.026137724032410197,0.022245226979159084,0.009287811558312166
41.157,613,41,157000000,,0.02798205086786641,0.022747677523627857,0.008957056358741963
41.167,614,41,167000000,,0.027653802606638158,0.02187947774641029,0.008783472185013365
41.177,615,41,177000000,,0.025663450716877784,0.0205657444104114,0.00888749604010245
41.187,616,41,187000000,,0.02425358351385269,0.020165938568659114,0.009089366637556962
41.197,617,41,197000000,,0.025165797421226415,0.02104905766267104,0.009116291164420835
41.207,618,41,207000000,,0.02772318477656002,0.022209260456042608,0.008878894821716303
41.217,619,41,217000000,,0.029329442463810213,0.022385551120917446,0.008550601196716896
41.227,620,41,227000000,,0.02853543844716172,0.021328918367192834,0.008350474743983195
41.237,621,41,237000000,,0.026590779321674172,0.02034150504559862,0.0084613088912602
41.247,622,41,247000000,,0.025059526292822445,0.020093343107745392,0.008711721606229903
41.257,623,41,257000000,,0.026149759649430473,0.020874322853491455,0.00874822491368404
41.267,624,41,267000000,,0.02910335146560523,0.02185393891435399,0.008479136852040037
41.277,625,41,277000000,,0.030562917849346238,0.021735187431224094,0.008098210178569437
41.287,626,41,287000000,,0.029633986965737692,0.020278802646719028,0.007943574522851247
41.297,627,41,297000000,,0.026842768352769303,0.020313889864642866,0.008048244591795862
41.307,628,41,307000000,,0.025915074220328637,0.019930723366708914,0.008329958848394065
41.317,629,41,317000000,,0.027548431828447302,0.020750962505355432,0.008395564364747126
41.327,630,41,327000000,,0.030122979768935815,0.021274127516132356,0.008153901802667793
41.337,631,41,337000000,,0.03173337819658616,0.02103433695261868,0.007705620817073622
41.347,632,41,347000000,,0.03042896621942274,0.020132115957581864,0.007493759433853313
41.357,633,41,357000000,,0.02788655650419041,0.019455175485393796,0.007642251999241435
41.367,634,41,367000000,,0.026757935299512717,0.019594094497858032,0.007942233494429561
41.377,635,41,377000000,,0.028399169525922287,0.020259455557111724,0.008050364182371005
41.387,636,41,387000000,,0.03137450995018452,0.02061262698655316,0.007800278800170193
41.397,637,41,397000000,,0.03288042148033513,0.020300059980025893,0.007395426318335941
41.407,638,41,407000000,,0.031510196293864715,0.019401182048633777,0.007078087902632885
41.417,639,41,417000000,,0.0288544738380154,0.018894340669010985,0.007199351521750139
41.427,640,41,427000000,,0.027556897728580273,0.01908587122039017,0.007537693948197842
41.437,641,41,437000000,,0.029090919293519556,0.01961575027673029,0.007721837381086234
41.447,642,41,447000000,,0.032150669679087016,0.019766722355895574,0.007521857054560139
41.457,643,41,457000000,,0.033869415580023814,0.019362910731726173,0.007097316025197371
41.467,644,41,467000000,,0.032695499519197035,0.018550522755234607,0.0066859273494708025
41.477,645,41,477000000,,0.029964217652120918,0.018177380522756553,0.006740912420394664
41.487,646,41,487000000,,0.028344178694343823,0.01840753227934479,0.007102915568811782
41.497,647,41,497000000,,0.029553645239309687,0.018833345866012936,0.0073863149437251455
41.507,648,41,507000000,,0.03262274840449638,0.01881863325498916,0.007280561578721525
41.517,649,41,517000000,,0.034748855727415144,0.017324530901399977,0.006861752111266982
41.527,650,41,527000000,,0.03410360499228653,0.018401661278973313,0.006318396018190788
41.537,651,41,537000000,,0.031222815474437324,0.017271852492094248,0.006279999249351076
41.547,652,41,547000000,,0.02918012102101867,0.01754298052531326,0.006627241421210768
41.557,653,41,557000000,,0.029826341160621783,0.017929321709205196,0.0070177328989233945
41.567,654,41,567000000,,0.0327422400976146,0.017805328797359157,0.007057433143438267
41.577,655,41,577000000,,0.03519161380158672,0.01719629367910922,0.006699402640990213
41.587,656,41,587000000,,0.03516545678444046,0.016390108865144082,0.006080011497158618
41.597,657,41,597000000,,0.03267317646382472,0.016140522692411015,0.005845269592233525
41.607,658,41,607000000,,0.030167784878205654,0.01646262510808469,0.006107743306927643
41.617,659,41,617000000,,0.03001086028356465,0.016886015139922425,0.006582740719364611
41.627,660,41,627000000,,0.03249457761731898,0.01674178282352514,0.0068131045223037805
41.637,661,41,637000000,,0.03542772280309693,0.015942935225844324,0.006540118701265635
41.647,662,41,647000000,,0.03618181195745138,0.015091794178345204,0.005933932917882624
41.657,663,41,657000000,,0.03421611855908645,0.014787721160563826,0.005491397868601347
41.667,664,41,667000000,,0.031403313192314625,0.015135104808210315,0.005573025808510952
41.677,665,41,677000000,,0.030290682623943327,0.01566689153735637,0.006058872040167392
41.687,666,41,687000000,,0.03197674781984793,0.015634425861977514,0.006489837835060852
41.697,667,41,697000000,,0.03504238818736082,0.014788077689095418,0.006453290377994537
41.707,668,41,707000000,,0.03676923089381278,0.01373542299173823,0.005912885871386791
41.717,669,41,717000000,,0.035711511289459444,0.013238130396907905,0.005285429761691996
41.727,670,41,727000000,,0.032916417273525664,0.013515425971232214,0.0050887425553020815
41.737,671,41,737000000,,0.03085792296790355,0.01417266963906837,0.00545236604908684
41.747,672,41,747000000,,0.03137006168186368,0.014400383650483918,0.0060257712592015535
41.757,673,41,757000000,,0.03407773362855637,0.013669827236816298,0.006294132410077092
41.767,674,41,767000000,,0.03634764632164926,0.010879411819015312,0.006088680517461935
41.777,675,41,777000000,,0.03704697180704926,0.01299053564358343,0.0051771436599609925
41.787,676,41,787000000,,0.034610052979195886,0.01166308628676204,0.004763281333450247
41.797,677,41,797000000,,0.03191831072787994,0.01234961152054147,0.004837318652456533
41.807,678,41,807000000,,0.031044220078771067,0.012920263167173485,0.005396627288888
41.817,679,41,817000000,,0.032765918274506055,0.012546311947195582,0.005948982347714225
41.827,680,41,827000000,,0.03562387075305156,0.011250014514523017,0.006004094666502464
41.837,681,41,837000000,,0.03715581416654782,0.010020797563745314,0.005528403171055088
41.847,682,41,847000000,,0.03613425071881593,0.00963977687119687,0.004710203419375473
41.857,683,41,857000000,,0.03344622194970752,0.010208992804468237,0.004365670781156288
41.867,684,41,867000000,,0.03134654896231391,0.01105557076000743,0.004672230939925587
41.877,685,41,877000000,,0.03156264656809123,0.011238158571398755,0.005343860755799739
41.887,686,41,887000000,,0.03389499714056384,0.010240384754459448,0.005814095303478923
41.897,687,41,897000000,,0.03636417555404404,0.008666260843099337,0.0056610263327508525
41.907,688,41,907000000,,0.03691052580016941,0.007691385685644004,0.004950928675927549
41.917,689,41,917000000,,0.035113050935400646,0.007848472642937313,0.004227071536919303
41.927,690,41,927000000,,0.032446612228653735,0.008744437828795387,0.004054628180626126
41.937,691,41,937000000,,0.031049351355664532,0.009486644635905856,0.0045374093045927495
41.947,692,41,947000000,,0.03200405459672851,0.009170888467474419,0.00526374060830066
41.957,693,41,957000000,,0.034263466845287714,0.00781792722659434,0.005633430032841369
41.967,694,41,967000000,,0.036376352561634843,0.006101748570904059,0.005315986131108501
41.977,695,41,977000000,,0.03618288131671785,0.005516535733083058,0.004504348844118163
41.987,696,41,987000000,,0.03403404324969487,0.00609806738893747,0.0038218132010752544
41.997,697,41,997000000,,0.031604511416764076,0.007143767223513776,0.003784893448604337
42.007,698,42,7000000,,0.030766828509358357,0.007649322660526938,0.004389375857009397
42.017,699,42,17000000,,0.03208343470445797,0.006869970566884062,0.005144322030564089
42.027,700,42,27000000,,0.034382385927581374,0.00510008469692399,0.005443721215128422
42.037,701,42,37000000,,0.03578116677072545,0.0036225621815694,0.005007975442667911
42.047,702,42,47000000,,0.035160812441039385,0.00341793591916756,0.004131957026680839
42.057,703,42,57000000,,0.03294470270376764,0.004313042550405285,0.0034738874349078686
42.067,704,42,67000000,,0.030995049628083544,0.0052374862890312195,0.0034838009360734965
42.077,705,42,77000000,,0.03025419216622695,0.0056472129359846045,0.004197282817698485
42.087,706,42,87000000,,0.03163480817858397,0.00450954326545113,0.0049806998881756935
42.097,707,42,97000000,,0.03367255660069408,0.002573924840192099,0.0052522734098894245
42.107,708,42,107000000,,0.03472959189158418,0.0012446958900352446,0.004760376374408196
42.117,709,42,117000000,,0.03396133571412903,0.0013460474799972953,0.003839323222396421
42.127,710,42,127000000,,0.0320601963436391,0.0023067987326138946,0.0031952496735844
42.137,711,42,137000000,,0.029859790520521828,0.003552714105249851,0.0032221102328052827
42.147,712,42,147000000,,0.029435743171935286,0.0036043965402592364,0.003936984169196017
42.157,713,42,157000000,,0.030673625845196527,0.00222405896017998,0.0047636132635780586
42.167,714,42,167000000,,0.03242215979547361,0.0001819239107039745,0.00506893099518612
42.177,715,42,177000000,,0.03329727920556781,-0.0010545421700369419,0.004584038833194864
42.187,716,42,187000000,,0.032777012644242626,-0.0009130004370464792,0.0037348221279707716
42.197,717,42,197000000,,0.029464430000281042,-0.002334800815341918,0.0031902766710855163
42.207,718,42,207000000,,0.030013507693317322,0.0042309974760159135,0.002640391352630513
42.217,719,42,217000000,,0.028308543527799292,0.0016791561433906774,0.0035034642963679787
42.227,720,42,227000000,,0.029260102957496658,0.00011699589127095537,0.004476080471398475
42.237,721,42,237000000,,0.0305505803617862,-0.0018848540475997731,0.004880128926607956
42.247,722,42,247000000,,0.03151816212984712,-0.003269567788278559,0.0044738427782182915
42.257,723,42,257000000,,0.031029023008749504,-0.002867880436308136,0.003515162956655873
42.267,724,42,267000000,,0.029405452023191416,-0.0014228703633343389,0.0026729981934163188
42.277,725,42,277000000,,0.027644219695980618,-0.0001767972878327208,0.0025266992891488575
42.287,726,42,287000000,,0.02689286619589387,-0.00016700412749066202,0.0031523253675195444
42.297,727,42,297000000,,0.027426660925007586,-0.0017012828777490793,0.004086206775659823
42.307,728,42,307000000,,0.02858699722129329,-0.003989285364715184,0.004652184296905516
42.317,729,42,317000000,,0.029291952057743938,-0.0053661983907945954,0.004409876877701248
42.327,730,42,327000000,,0.02910066597525658,-0.005022819771009665,0.0034990575490686927
42.337,731,42,337000000,,0.027884423680198302,-0.0034517139141155067,0.002533664706317268
42.347,732,42,347000000,,0.02625617585702973,-0.0019795475178912246,0.002164972547561384
42.357,733,42,357000000,,0.02522946648235045,-0.0017457828596937905,0.0026205293081727364
42.367,734,42,367000000,,0.025295246222970455,-0.003153427654283221,0.0035613364262027224
42.377,735,42,377000000,,0.026018568265207192,-0.005505225013150818,0.004316440086397763
42.387,736,42,387000000,,0.02666810671332026,-0.0072339958730924065,0.004334937214329976
42.397,737,42,397000000,,0.026754604415058825,-0.0071571456319387446,0.0035663581060714758
42.407,738,42,407000000,,0.02613255440524983,-0.005847065141949865,0.0026193914212123983
42.417,739,42,417000000,,0.02466736316197318,-0.003731342163395141,0.0018620731123504604
42.427,740,42,427000000,,0.023446489805547602,-0.003067552148638851,0.0020325399864259087
42.437,741,42,437000000,,0.022991513624674994,-0.004153393924119042,0.002875786228624059
42.447,742,42,447000000,,0.023217914400329456,-0.0065191308467597705,0.003801085149224355
42.457,743,42,457000000,,0.023627196827073208,-0.008682287959617922,0.004157364568739953
42.467,744,42,467000000,,0.02142483292358246,-0.012420569654532709,0.004015003670014951
42.477,745,42,477000000,,0.025727125599257213,-0.00463069491538893,0.0022978725557458776
42.487,746,42,487000000,,0.022783699796594035,-0.005540220929141276,0.0017031791639083968
42.497,747,42,497000000,,0.021594951046828695,-0.004287282520275528,0.0014825981030971614
42.507,748,42,507000000,,0.0207130074099298,-0.004749693011522051,0.0020685994807777596
42.517,749,42,517000000,,0.020397719817424914,-0.006887436833308503,0.003052506904578965
42.527,750,42,527000000,,0.020441939537045706,-0.009510929574784069,0.003763021580602454
42.537,751,42,537000000,,0.020516534964177525,-0.010736517093306508,0.003687195529626589
42.547,752,42,547000000,,0.0205826516887382,-0.009867465369196991,0.002848845656770355
42.557,753,42,557000000,,0.020292997240647512,-0.007582331646038738,0.0017600628391586772
42.567,754,42,567000000,,0.019470201133398476,-0.005510938890300729,0.0010942617845903435
42.577,755,42,577000000,,0.018446645088479187,-0.005030069388268646,0.0012440058656956066
42.587,756,42,587000000,,0.017670755486160452,-0.006550521972536437,0.002078478067372881
