Time,header.seq,header.stamp.secs,header.stamp.nsecs,header.frame_id,position_controller_output.thrust.num,position_controller_output.orientation_set_point.w,position_controller_output.orientation_set_point.x,position_controller_output.orientation_set_point.y,position_controller_output.orientation_set_point.z,position_controller_output.euler_set_point.phi,position_controller_output.euler_set_point.theta,position_controller_output.euler_set_point.psi
25.928,93,25,928000000,,10.464412749804028,0.9998267001389273,0.0001561799385566778,-0.0005024159878463576,0.01860894610947891,0.00029360703521757206,-0.0010104706985279083,0.037219897413689286
25.941,94,25,938000000,,10.474662294620957,0.9998197280467127,0.00016100252861071273,-0.0005086478312921559,0.018979640780770194,0.00030263926554664386,-0.0010232239915742185,0.037961411492106814
25.949,95,25,949000000,,10.485080650890465,0.9998125569944627,0.00016494755555483074,-0.0005158860242996465,0.01935348883555975,0.0003098650576331522,-0.0010379634578733575,0.03870923927416015
25.958,96,25,958000000,,10.495596369015452,0.9998051847362686,0.0001702341472333774,-0.0005214549307094056,0.019730475908251558,0.00031982503971367276,-0.001049424480761019,0.03946335069031962
25.968,97,25,968000000,,10.506274924477419,0.9997976070146488,0.0001746569268806848,-0.0005280444245218513,0.02011058606369815,0.0003280047805623971,-0.0010629002105245144,0.04022371567105555
25.978,98,25,978000000,,10.517090744596144,0.9997898209137351,0.00017896523808009397,-0.0005347425727614254,0.020493804407815838,0.0003359376282747165,-0.0010765959272551976,0.04099030414683822
25.993,99,25,988000000,,10.527895912885558,0.9997818240419912,0.00018475998935048378,-0.0005393712744618687,0.020880116322554765,0.00034691530003981834,-0.0010862230269756742,0.041763086048137985
25.998,100,25,998000000,,10.53909208009288,0.999773610712502,0.00018755051314937575,-0.0005479963292470607,0.021269505112123766,0.00035170510746708727,-0.0011037229747868375,0.04254203130542513
26.008,101,26,8000000,,10.550340522214206,0.9997651797233423,0.00019120174388158028,-0.0005554069295746668,0.02166195692427021,0.0003582515215947096,-0.0011188368588371164,0.04332710984916999
26.018,102,26,18000000,,10.561683959599065,0.999756527452419,0.00019503175843826474,-0.0005624927161908377,0.02205745635466327,0.0003651544726617213,-0.00113331558091738,0.04411829160984287
26.03,103,26,28000000,,10.573153885821984,0.9997476504430354,0.0001987260571287608,-0.0005696833346109758,0.022455988120826546,0.00037176646654509964,-0.001148004582666086,0.04491554651791409
26.038,104,26,38000000,,10.584750339855164,0.999738545405393,0.0002023009641606458,-0.000576979043412456,0.022857537054820215,0.0003781197682437468,-0.0011629048448587767,0.04571884450385398
26.048,105,26,48000000,,10.596472342489937,0.9997292090495792,0.00020576549058632726,-0.0005843769469286329,0.023262087981294748,0.00038423216245529745,-0.0011780107482266711,0.04652815549813282
26.058,106,26,58000000,,10.60825020965323,0.999719638280635,0.0002093682284318982,-0.0005914522266210655,0.02366962579435455,0.0003906204411006592,-0.0011924844299787843,0.04734344943122095
26.068,107,26,68000000,,10.62036196224731,0.9997098290307787,0.00021215052567086126,-0.0005998576771036082,0.02408013501152125,0.0003952889232565453,-0.0012095847531982033,0.0481646962335887
26.079,108,26,78000000,,10.632378748883335,0.9996997791823188,0.00021552972423204104,-0.0006070963358434496,0.024493600874508595,0.0004011903962378878,-0.0012243866497716556,0.04899186583570635
26.088,109,26,88000000,,10.644590685704367,0.9996894846479475,0.00021855130444502566,-0.000614838364957821,0.024910007897098886,0.0004063359484315698,-0.0012401834437639296,0.04982492816804423
26.098,110,26,98000000,,10.6571141973524,0.9996789419055009,0.00022105354129316768,-0.0006234887376868543,0.025329340848588202,0.0004103803591541865,-0.0012577757357814538,0.05066385316107267
26.108,111,26,108000000,,10.669686013408924,0.99966814826839,0.00022367147244498628,-0.0006318176488216005,0.02575158471199585,0.00041465423072581685,-0.0012747360930530245,0.05150861074526197
26.118,112,26,118000000,,10.681957110118162,0.9996571010953431,0.0002269087859516921,-0.0006386247857154196,0.02617672440243227,0.0004202281096404499,-0.0012886914181542868,0.05235917085108245
26.128,113,26,128000000,,10.694653093097282,0.9996457955962336,0.00022947629891728252,-0.000646732977232387,0.026604744386246996,0.00042437807793481815,-0.0013052184902723576,0.053215503409004425
26.138,114,26,138000000,,10.707467549758146,0.9996342291213741,0.00023195381822128087,-0.0006549030984682315,0.027035629607500198,0.0004283269046539833,-0.0013218695279629388,0.05407757834949821
26.153,115,26,149000000,,10.720798664842787,0.9996223976797666,0.00023387517957836006,-0.0006643485649662659,0.02746936476038593,0.0004310756703917958,-0.0013410446180017457,0.05494536560303412
26.158,116,26,158000000,,10.733451702508345,0.9996103000479742,0.00023658971081545125,-0.0006714621260327976,0.027905934887055978,0.000435519880834888,-0.0013556058438709468,0.05581883510008248
26.168,117,26,168000000,,10.746622032924407,0.9995979308587307,0.0002387331660884846,-0.0006798589529282889,0.02834532450376869,0.00043873313985563734,-0.0013727055744738384,0.0566979567711136
26.178,118,26,178000000,,10.759911589434529,0.9995852875178293,0.00024076439080031165,-0.0006883242346578565,0.028787518478579428,0.0004416992333845286,-0.001389940022255407,0.05758270054659779
26.188,119,26,188000000,,10.773320221539969,0.9995723667282805,0.00024269090777207406,-0.0006968679288148778,0.029232501593889307,0.0004444323191972432,-0.0014073292390551937,0.05847303635700539
26.198,120,26,198000000,,10.78684706652579,0.9995591652043563,0.0002445219537988256,-0.0007054876010286672,0.029680258628069757,0.0004469506797034254,-0.0014248686268904735,0.05936893413280667
26.209,121,26,208000000,,10.800491190234958,0.9995456796701402,0.00024626206155899935,-0.0007141741436190114,0.03013077435193683,0.0004492636020113141,-0.0014425399930916244,0.06027036380447197
26.218,122,26,218000000,,10.814254025295567,0.9995319068568811,0.00024790634265741383,-0.0007229182222314267,0.030584033526277518,0.0004513615851060689,-0.0014603241291623631,0.061177295302471624
26.228,123,26,228000000,,10.828136605897027,0.9995178434982132,0.0002494457350440744,-0.0007317155495581293,0.03104002090626136,0.0004532265051019454,-0.0014782116363007522,0.0620896985572759
26.238,124,26,238000000,,10.842137378814536,0.9995034863219138,0.00025087619678849384,-0.0007405748558116452,0.03149872124954717,0.0004548494695685115,-0.0014962194175712434,0.06300754349935517
26.248,125,26,248000000,,10.856036623372368,0.9994888323446477,0.0002522535895022143,-0.0007491073382429106,0.031960119284115206,0.00045636671006645126,-0.0015135735251318486,0.06393080005917971
26.258,126,26,258000000,,10.870722974543783,0.9994738771831418,0.00025337542833554826,-0.0007588747693178718,0.032424199889512506,0.00045727298258007416,-0.0015333826079414387,0.0648594381672199
26.268,127,26,268000000,,10.88556156070142,0.9994586184150359,0.0002544341223841191,-0.0007686972922436908,0.03289094774641744,0.00045802695649224993,-0.0015533000508373902,0.06579342775394596
26.278,128,26,278000000,,10.89933440533919,0.9994430542851146,0.00025559395379148636,-0.000776617921727631,0.03336034738392054,0.0004590872978753266,-0.0015694248258569443,0.06673273874982825
26.288,129,26,288000000,,10.913932824688697,0.9994271792233386,0.0002565493723888314,-0.0007857571027674122,0.03383238386332568,0.00045963735501695473,-0.0015879740306289352,0.06767734108533706
26.298000000000002,130,26,298000000,,10.928648947541575,0.999410990877233,0.00025741102064804787,-0.0007949441420271707,0.03430704180142669,0.00045997505246256386,-0.0016066145378101297,0.06862720469094279
26.312,131,26,310000000,,10.94403211457977,0.9993944853984176,0.00025815925082205127,-0.0008049604749926038,0.03478430605412386,0.0004600065052066495,-0.0016269066178146551,0.06958229949711567
26.318,132,26,318000000,,10.958438529325223,0.9993776614605033,0.00025883064767035787,-0.0008134684575366616,0.03526416097824972,0.0004599672074317697,-0.0016441800415737404,0.07054259543432603
26.328,133,26,328000000,,10.974100015571198,0.9993605133213607,0.0002594121357619444,-0.000823584758454537,0.03574659183133304,0.00045961244691406216,-0.0016646631422374057,0.07150806243304422
26.338,134,26,338000000,,10.988705882137795,0.999343040375885,0.0002598651971340957,-0.000832185161177788,0.03623158277275808,0.0004590868469013285,-0.0016821083463045808,0.07247867042374054
26.355,135,26,352000000,,11.00243276255875,0.9993252391749239,0.00026012228218544363,-0.0008396535234780361,0.03671911853980225,0.0004582315252591456,-0.001697277653082055,0.07345438933688526
26.358,136,26,358000000,,11.019446614272644,0.9993071021269572,0.00026056796203598507,-0.0008510540854401292,0.03720918502069082,0.0004574414650961329,-0.0017203206753176618,0.07443518910294879
26.369,137,26,368000000,,11.03499836699937,0.9992886311456896,0.00026079107907524447,-0.0008605353251285846,0.037701765607744665,0.0004563244248308634,-0.0017395117797372865,0.07542103965240136
26.378,138,26,378000000,,11.050668117916194,0.9992698213794772,0.0002609219283433646,-0.0008700560599431931,0.0381968454512639,0.0004549967431655094,-0.0017587752230962652,0.07641191091571331
26.388,139,26,388000000,,11.066456958894003,0.9992506696937505,0.0002609588552388619,-0.000879607424157715,0.03869440925826542,0.0004534555747716051,-0.0017780928497431923,0.07740777282335495
26.398,140,26,398000000,,11.082364426630003,0.9992311729549295,0.00026090353582107956,-0.0008891914149736737,0.03919444173717326,0.00045170391510234776,-0.0017974684659032415,0.07840859530579665
26.408,141,26,408000000,,11.098388988991822,0.9992113280409891,0.00026076180171814975,-0.0008988087807237711,0.03969692759674775,0.00044975315572203916,-0.0018169037152512295,0.07941434829350864
26.418,142,26,418000000,,11.114531583654532,0.9991911318464975,0.0002605379162344904,-0.0009084558422289654,0.04020185154059215,0.0004476119067165346,-0.001836391287870593,0.08042500171696132
26.428,143,26,428000000,,11.131583989560697,0.9991705805024692,0.0002604034006857401,-0.0009189138672017433,0.04070919853954733,0.00044555912333945784,-0.0018575060998928966,0.08144052550662495
26.438,144,26,438000000,,11.148795048943477,0.9991496716824253,0.00026021691876799237,-0.0009293946173320266,0.04121895303986168,0.0004433747486747016,-0.0018786614965325848,0.08246088959296988
26.448,145,26,448000000,,11.163676955380575,0.9991284047415008,0.0002594067814226214,-0.0009375153831876746,0.041731098856033336,0.0004401150776147225,-0.0018950482927806865,0.08348606390646635
26.458,146,26,458000000,,11.180293977166173,0.9991067726504164,0.0002588510025922596,-0.0009472361877574061,0.042245622067054525,0.000437207230907817,-0.0019146519940481258,0.0845160183775848
26.468,147,26,468000000,,11.199211752141302,0.9990847718654688,0.00025875590443196075,-0.0009589656789544286,0.04276250760576069,0.0004350234441365604,-0.0019383073295472304,0.08555072293679541
26.484,148,26,481000000,,11.2165638354681,0.9990624030831321,0.00025818048247366237,-0.0009691121878103666,0.043281738760860035,0.0004319879475592046,-0.001958757355350176,0.08659014751456863
26.488,149,26,488000000,,11.235861000384945,0.9990396599091464,0.000258009949636809,-0.0009808860338618546,0.043803301497390555,0.0004295931087483744,-0.001982492773208726,0.08763426204137467
26.498,150,26,498000000,,11.251690788749654,0.9990165445206929,0.0002568631257127788,-0.0009894647596981824,0.04432717851113875,0.000425501526096808,-0.001999756698416674,0.0886830364476839
26.508,151,26,508000000,,11.26517143620632,0.9989930527469921,0.00025497544857749297,-0.000996046122858912,0.044853354867696045,0.00042008624652583996,-0.0020129606818812163,0.08973644066396662
26.518,152,26,518000000,,11.282501864954916,0.9989691759183711,0.00025394846192322486,-0.0010058421349956347,0.04538181746854766,0.00041608035468851146,-0.002032661262620099,0.09079444462069314
26.53,153,26,531000000,,11.300959894347992,0.9989449136707814,0.00025311990316750135,-0.001016431186746766,0.04591255001883939,0.00041237266576908183,-0.0020539617328185103,0.09185701824833382
26.538,154,26,538000000,,11.317521525340373,0.9989202658440192,0.00025163060104376215,-0.0010253542095703685,0.046445536027689284,0.0004074724478574002,-0.002071869917809536,0.09292413147735885
26.548000000000002,155,26,548000000,,11.335210824357537,0.9988952266966576,0.0002503767633888864,-0.0010351120705516868,0.046980761350903885,0.0004029404935128583,-0.0020914643194324062,0.0939957542382387
26.558,156,26,558000000,,11.353556349020344,0.9988697937780325,0.0002492068211907167,-0.0010452990132523018,0.04751821044361895,0.0003985097544710256,-0.002111920513887936,0.09507185646144359
26.568,157,26,568000000,,11.37094146287269,0.9988439656755222,0.00024763322255536317,-0.0010546562674375332,0.04805786732201737,0.00039332574110712687,-0.002130677158427601,0.09615240807744385
26.568,158,26,578000000,,11.38898247942675,0.9988177380779969,0.00024615929522599743,-0.0010644181008294877,0.048599717287880956,0.00038827661074281386,-0.002150247560958799,0.09723737901670985
26.588,159,26,588000000,,11.407143049604215,0.9987911086423413,0.00024461646068527537,-0.0010741554014330212,0.04914374476943411,0.0003830663652162889,-0.0021697581688059817,0.09832673920971186
26.598,160,26,598000000,,11.425428255828486,0.9987640745425902,0.00024300008060194214,-0.0010838693242653053,0.049689934406600994,0.0003776856240112244,-0.002189210549965321,0.0994204585869202
26.61,161,26,608000000,,11.445614020327827,0.9987366313766386,0.00024187435233216962,-0.0010948579683925739,0.05023827155935192,0.0003731309287558925,-0.002211254019208459,0.10051850707880516
26.618,162,26,618000000,,11.465975584997631,0.9987087778947891,0.00024069644054865852,-0.001105844844153756,0.05078874017241113,0.00036844329019909575,-0.0022332851000919822,0.10162085461583713
26.628,163,26,628000000,,11.488944562311913,0.9986805091479111,0.0002402617345360409,-0.0011185608059419599,0.051341325889496116,0.00036503357239457663,-0.0022588423833125788,0.10272747112848633
26.638,164,26,638000000,,11.502262625668969,0.9986518332993883,0.00023660006030615428,-0.001124361484254197,0.05189600831889451,0.00035586334666342967,-0.0022702504626378552,0.10383832654722315
26.649,165,26,648000000,,11.519250010279466,0.9986227356908812,0.00023404273762452996,-0.0011327441284151138,0.05245277758133362,0.00034861056486151966,-0.0022869224574726737,0.10495339080251785
26.659,166,26,658000000,,11.537578177291007,0.9985932158682967,0.00023178955687395392,-0.0011418969368816251,0.05301161728149852,0.00034186026616021484,-0.002305158188846081,0.10607263382484078
26.668,167,26,668000000,,11.556665380213705,0.9985632716432893,0.00022966326837107196,-0.0011514153434285467,0.0535725118184725,0.0003352990969501637,-0.0023241315133593816,0.10719602554466229
26.678,168,26,678000000,,11.575875993844608,0.9985329008846467,0.00022745988668777776,-0.0011608819655633585,0.054135445559764954,0.0003285635438328748,-0.002342987101614877,0.10832353589245261
26.688,169,26,688000000,,11.59520526034935,0.998502100870285,0.00022520512647593703,-0.0011703566769945732,0.0547004031568927,0.0003216985225052288,-0.002361847019772088,0.10945513479868216
26.698,170,26,698000000,,11.614648322514224,0.9984708689779536,0.00022289218967208764,-0.00117983947332974,0.055267369218185855,0.0003146903660307948,-0.0023807102671552357,0.11059079219382113
26.708,171,26,708000000,,11.638490918657768,0.9984391989660385,0.00022194607929506421,-0.0011920350031515378,0.05583633011350835,0.00031008251319742476,-0.0024051365752983866,0.11173047800833993
26.718,172,26,718000000,,11.656785627951697,0.9984070968426462,0.0002190564707819555,-0.0012005370902435047,0.05640726636875967,0.00030197792948335886,-0.0024219646230763878,0.11287416217270889
26.728,173,26,728000000,,11.673646458277043,0.998374556518648,0.0002155905427852867,-0.0012080126183775762,0.05698016428920398,0.00029281558362788976,-0.00243666930460616,0.11402181461739821
26.74,174,26,738000000,,11.693531494229342,0.9983415716293048,0.00021302495673205878,-0.0012172786605023282,0.057555010292415,0.0002852232319534899,-0.002455043555416172,0.11517340527287835
26.749,175,26,748000000,,11.713529312340825,0.9983081421508749,0.00021038879805808174,-0.0012264992185425194,0.058131787788514945,0.0002774693678845804,-0.0024733113880001183,0.11632890406961954
26.758,176,26,758000000,,11.733638986048046,0.9982742655655186,0.00020768731715785008,-0.001235698651507269,0.05871048138488744,0.0002695617225934052,-0.002491521750084273,0.1174882809380921
26.768,177,26,768000000,,11.753860053628433,0.9982399394142062,0.0002049313912251756,-0.001244871299065612,0.0592910756935263,0.0002615227088481318,-0.0025096643400575043,0.11865150580876632
26.781,178,26,778000000,,11.77499908695793,0.9982051606025882,0.0002023947170331912,-0.0012544789379206544,0.05987355564298801,0.00025384348735764633,-0.002528693576969892,0.1198185486121126
26.791,179,26,788000000,,11.79953770964296,0.99816992462959,0.00020089206017287662,-0.0012659822909605436,0.060457906812739486,0.00024797235616460443,-0.002551624691654908,0.12098937927860119
26.798000000000002,180,26,798000000,,11.815177696934851,0.9981342395189977,0.0001963741492608653,-0.00127204791124118,0.0610441088978877,0.00023671424172593637,-0.002563326926058899,0.12216396773870243
26.808,181,26,808000000,,11.835829928466813,0.9980980911366636,0.00019340278651517343,-0.0012809777333526303,0.061632152004915675,0.00022817183725460844,-0.0025809253861010365,0.12334228392288663
26.818,182,26,818000000,,11.855728372326501,0.9980614820411985,0.00019006729991401336,-0.0012893272445397691,0.06222201841313577,0.00021894935524688496,-0.002597311383367101,0.12452429776162412
26.828,183,26,828000000,,11.877460939379842,0.9980244077011419,0.00018724119919421342,-0.001298634098528185,0.06281369375380241,0.00021059928670369703,-0.002615662659288413,0.1257099791853852
26.838,184,26,838000000,,11.89843964703298,0.997986867997705,0.00018408530861683254,-0.0013073919776644199,0.06340716160613934,0.00020163411259009105,-0.0026328677457304,0.12689929812464013
26.848,185,26,848000000,,11.91952497420233,0.9979488599541542,0.00018089133317465453,-0.0013160947206732774,0.06400240690174064,0.00019257481710886727,-0.0026499485150191463,0.12809222450985935
26.858,186,26,858000000,,11.940715807970438,0.9979103813627627,0.00017765336796698176,-0.0013247229879995266,0.064599414213377,0.00018341227557478086,-0.002666865412516061,0.12928872827151308
26.871,187,26,865000000,,11.96201195277419,0.9978714300353433,0.00017435940527655636,-0.0013332644083759956,0.06519816810336192,0.00017412437199208585,-0.002683591972288302,0.13048877934007166
26.878,188,26,878000000,,11.983415548734143,0.9978320037902468,0.00017100362134542024,-0.0013417208403546635,0.06579865313886712,0.00016469952504981808,-0.0027001308862251577,0.1316923476460054
26.888,189,26,888000000,,12.004926563548011,0.9977921004613232,0.00016758459929385974,-0.001350101872273998,0.06640085388997252,0.0001551339173716038,-0.0027165008279425255,0.13289940311978463
26.899,190,26,898000000,,12.026542165397657,0.9977517179054883,0.000164106844776657,-0.001358418953707182,0.06700475493229176,0.00014543525796688534,-0.0027327249684602046,0.13410991569187963
26.908,191,26,908000000,,12.048261670332193,0.9977108540176156,0.0001605850123048106,-0.0013666738681888625,0.06761034085428005,0.00013563276024096578,-0.002748808580865994,0.13532385529276084
26.918,192,26,918000000,,12.070083588344872,0.9976695067454896,0.00015702781772848973,-0.0013748513124902636,0.06821759623692689,0.00012574610838757326,-0.0027647221042076298,0.1365411918528984
26.93,193,26,928000000,,12.092007144311289,0.9976276740737238,0.00015343079480155863,-0.001382932498021088,0.06882650564244215,0.00011576923889331497,-0.0027804272562069587,0.1377618953027627
26.938,194,26,938000000,,12.114034486734562,0.9975853539989219,0.00014978596145789322,-0.0013909115308356089,0.06943705362502403,0.00010568737894333794,-0.002795910978075376,0.13898593557282407
26.948,195,26,948000000,,12.13616729877769,0.9975425445314341,0.00014608421865437376,-0.0013987935271538678,0.07004922473390608,9.548201953469033e-05,-0.0028111819839013973,0.1402132825935529
26.958,196,26,958000000,,12.158403614989963,0.9974992436933451,0.0001423195021745216,-0.0014065952105450183,0.07066300351865587,8.51390470798318e-05,-0.002826272526991374,0.14144390629541934
26.969,197,26,968000000,,12.182878317674037,0.9974554478050137,0.00013915845221007338,-0.0014154487378870196,0.07127837528938968,7.582724647660425e-05,-0.002843535918144113,0.1426777766088938
26.978,198,26,978000000,,12.20319876835749,0.9974111602034037,0.0001346471607489921,-0.001421965940200935,0.0718953224118761,6.413202376832741e-05,-0.0028559342807755925,0.14391486346444665
26.988,199,26,988000000,,12.23336173234164,0.9973663675859039,0.00013306955497173045,-0.0014335083126027707,0.07251383423120754,5.754006751633722e-05,-0.00287876870079662,0.14515513679254813
26.998,200,26,998000000,,12.256104633509972,0.9973210822576306,0.00012916248251215563,-0.0014409781851737384,0.07313388943158587,4.686445130632181e-05,-0.0028931321917445734,0.1463985665236685
27.008,201,27,8000000,,12.28448645752325,0.9972752917064069,0.00012687678250203197,-0.0014512318446241192,0.07375547695131804,3.898973229262922e-05,-0.0029132751584868117,0.14764512258827817
27.018,202,27,17000000,,12.311957650338268,0.9972289995186862,0.00012423775265377356,-0.0014608378155295794,0.07437857915299166,3.0477028388865104e-05,-0.0029320651226800603,0.1488947749168474
27.028,203,27,28000000,,12.336241251931314,0.9971822058277857,0.00012057306542632426,-0.0014686231401500448,0.0750031798568531,2.0163907210011974e-05,-0.0029470607174237277,0.15014749343984657
27.038,204,27,38000000,,12.352620416087762,0.9971349126477974,0.00011446481987433515,-0.001472275653696784,0.07562926206881881,5.57951816575888e-06,-0.0029534329840871713,0.15140324808774597
27.049,205,27,48000000,,12.373534575303932,0.9970871081364241,0.00010958090397613371,-0.0014781912097737498,0.07625681432446225,-6.920922345675883e-06,-0.002964487720625065,0.15266200879101588
27.058,206,27,58000000,,12.39089198222434,0.9970387974815863,0.00010358779731057804,-0.0014820476036497515,0.07688581872452907,-2.133487523931047e-05,-0.0029712511581830845,0.15392374548012666
27.078,207,27,68000000,,12.409364792316909,0.9969899753726157,9.800029488393178e-05,-0.0014861367009286674,0.07751626152078996,-3.498905437558785e-05,-0.0029785244227411986,0.15518842808554856
27.078,208,27,78000000,,12.433942822408532,0.9969406358284917,9.411995180914314e-05,-0.0014932492863334965,0.07814812846054843,-4.5725469597476275e-05,-0.00299207684654277,0.15645602653775204
27.088,209,27,88000000,,12.456160644657816,0.9968907841841386,8.94792229341982e-05,-0.00149905854038477,0.07878140152151461,-5.7794100718700526e-05,-0.003002898397957193,0.1577265107672072
27.098,210,27,98000000,,12.47969938852889,0.9968404159844014,8.512193593855054e-05,-0.001505398553596622,0.07941606631844828,-6.94000061218084e-05,-0.0030148089063659475,0.1589998507043846
27.108,211,27,108000000,,12.50333046384804,0.9967895307712913,8.072107142446255e-05,-0.001511615413611434,0.08005210707844564,-8.10925315554507e-05,-0.003026453241477318,0.16027601627975432
27.118,212,27,118000000,,12.527052063359335,0.9967381270887656,7.629708308920947e-05,-0.0015177036644945293,0.08068950837575745,-9.282953016068193e-05,-0.0030378236366571817,0.16155497742378683
27.128,213,27,128000000,,12.55086332860857,0.996686203512519,7.185811454864672e-05,-0.0015236604138930776,0.08132825476521616,-0.00010459378820771881,-0.0030489155405510697,0.16283670406695233
27.139,214,27,138000000,,12.574764590907781,0.9966337586598751,6.739811587274804e-05,-0.0015294789853521533,0.0819683307809605,-0.00011639574879240136,-0.0030597145761349516,0.16412116613972136
27.15,215,27,148000000,,12.597427936225126,0.9965807922202289,6.253431078266583e-05,-0.001534513400429468,0.08260972058895256,-0.00012889106783949537,-0.0030688698615082078,0.16540833357256396
27.16,216,27,158000000,,12.628208168789898,0.9965272954327205,5.978631879354423e-05,-0.0015433512742640608,0.08325241107612105,-0.0001378186889598329,-0.0030859429507939027,0.16669817629595057
27.168,217,27,168000000,,12.64701775770687,0.9964732829555184,5.3735845110188454e-05,-0.0015461565677596836,0.0838963817347231,-0.00015234194336076587,-0.0030904288273425396,0.16799066424035153
27.178,218,27,178000000,,12.67127530750534,0.9964187396802707,4.911219875878059e-05,-0.0015514614556891048,0.08454162152055308,-0.00016445429500537166,-0.0031001195522582774,0.16928576733623718
27.19,219,27,189000000,,12.69283530260511,0.9963636708482594,4.3736790949669546e-05,-0.001555283601991898,0.08518811298410121,-0.00017782871036224718,-0.003106712864648933,0.17058345551407772
27.198,220,27,198000000,,12.722845718741919,0.9963080665151988,4.053691494722109e-05,-0.001562999670731635,0.0858358432447316,-0.00018754919352059946,-0.0031214224691872537,0.1718836987043435
27.208,221,27,208000000,,12.744551185219633,0.9962519387063,3.513387329442106e-05,-0.001566514450990456,0.08648479301024126,-0.00020095596138511277,-0.0031273683069736793,0.17318646683750488
27.218,222,27,218000000,,12.769141274431059,0.9961952774799274,3.041709369079017e-05,-0.0015712446889383305,0.08713494931207842,-0.00021321897243378903,-0.003135839000974584,0.17449172984403227
27.229,223,27,228000000,,12.793811704638184,0.9961380839704306,2.5646188626825386e-05,-0.0015758278079152823,0.08778629604164971,-0.00022557899931394186,-0.0031439921338626024,0.17579945765439575
27.238,224,27,238000000,,12.825863463638637,0.9960803514260738,2.2696476969847232e-05,-0.0015837403937664528,0.08843881927154314,-0.00023491440576342839,-0.0031590851297443896,0.17710962019906584
27.248,225,27,248000000,,12.84782370294493,0.9960220924557942,1.712415045869125e-05,-0.0015866648165900788,0.08909249991724612,-0.00024860905251184205,-0.003163762965928869,0.17842218740851268
27.258,226,27,258000000,,12.868296582247641,0.995963299277786,1.1209335494759504e-05,-0.0015887472160616926,0.08974732446341506,-0.0002628447711716128,-0.0031666851463220103,0.17973712921320675
27.27,227,27,268000000,,12.894785934998083,0.9959039652387203,6.754814810437041e-06,-0.0015934735344381606,0.0904032788026044,-0.00027465755860492814,-0.0031751198726452396,0.18105441554361829
27.278,228,27,278000000,,12.918333414033361,0.995844096385341,1.5062892548512135e-06,-0.0015965994198334122,0.09106034571912974,-0.0002877751909761313,-0.00318020790012787,0.1823740163302176
27.288,229,27,288000000,,12.943467487098442,0.995783688334669,-3.428678231260008e-06,-0.0016002664855506018,0.09171851057459547,-0.0003003780902859603,-0.0031864149721487715,0.18369590150347512
27.298000000000002,230,27,298000000,,12.968683420592045,0.9957227413954932,-8.41359702758964e-06,-0.001603773987540463,0.09237775763706332,-0.00031306290951526,-0.00319227942634753,0.18502004099386093
27.31,231,27,309000000,,12.995541072057248,0.9956612535372185,-1.3028750040847327e-05,-0.0016078673766656399,0.09303807176336772,-0.0003251318736877994,-0.0031993636140553367,0.18634640473184558
27.318,232,27,318000000,,13.031968742556465,0.9955992179809964,-1.539031738188618e-05,-0.0016161986122843503,0.09369943874331417,-0.00033352071180639244,-0.0032152935607913393,0.18767496264789923
27.329,233,27,328000000,,13.052752376459134,0.995536653181572,-2.1502989094657345e-05,-0.0016171068922708422,0.09436183908209324,-0.00034800219463659084,-0.003215725785785686,0.18900568467249226
27.338,234,27,338000000,,13.070257469121543,0.99547354892431,-2.8363246497664754e-05,-0.001616370884655952,0.09502525944573476,-0.0003636637334591726,-0.003212723998875184,0.190338540736095
27.348,235,27,348000000,,13.095813380643984,0.9954098961992025,-3.3423254708920576e-05,-0.0016190863638338368,0.09568968591716305,-0.0003764013647497437,-0.003216918205642359,0.19167350076917775
27.358,236,27,358000000,,13.12143505568853,0.9953457003823949,-3.852472875139022e-05,-0.0016216006668186976,0.09635510187531376,-0.0003891918694810815,-0.003220687962522389,0.1930105347022108
27.368,237,27,368000000,,13.15377099036919,0.9952809558627553,-4.2118123024862384e-05,-0.0016269812788185858,0.09702149274723691,-0.000399545131575575,-0.0032304398570412785,0.1943496124656645
27.378,238,27,378000000,,13.171195723113062,0.99521567817515,-4.9129217105104534e-05,-0.0016254167943651457,0.09768884030912064,-0.00041536067042749686,-0.003225687396062652,0.19569070399000912
27.388,239,27,388000000,,13.19869373229369,0.995149848233008,-5.384404165021669e-05,-0.0016282454951205105,0.09835713232525453,-0.00042746713802560435,-0.0032301102406014637,0.19703377920571502
27.398,240,27,398000000,,13.22628688724684,0.9950834730870157,-5.8578589498878145e-05,-0.0016308775425074424,0.09902635202849942,-0.0004395831929294693,-0.0032341225682132636,0.19837880804325253
27.408,241,27,408000000,,13.250520606927546,0.995016554823852,-6.409456050207802e-05,-0.0016317706916048945,0.09969648360283251,-0.00045291628223609364,-0.003234503338945313,0.19972576043309193
27.418,242,27,418000000,,13.276525327380543,0.994949089260215,-6.926288669929811e-05,-0.001633245319838247,0.10036751213737703,-0.0004656780861963995,-0.0032360940480044087,0.2010746063057036
27.429,243,27,429000000,,13.300831192004438,0.9948810785627602,-7.48497463412491e-05,-0.0016337543485571372,0.10103942182159935,-0.00047908290850035674,-0.0032356626725763647,0.20242531559155771
27.438,244,27,438000000,,13.328717906268,0.9948125185535663,-7.968178243300284e-05,-0.0016356690738783893,0.1017121977277281,-0.0004912744572888433,-0.0032381645824627824,0.20377785822112468
27.448,245,27,448000000,,13.358481794639959,0.9947434102229539,-8.4129646771388e-05,-0.0016382112543856697,0.10238582423410218,-0.0005028367062605228,-0.0032419780123415704,0.20513220412487485
27.458,246,27,458000000,,13.382951735481381,0.9946737584697379,-8.96999690162304e-05,-0.0016382150887842544,0.10306028535242845,-0.0005161169724044876,-0.003240495781583585,0.20648832323327845
27.468,247,27,468000000,,13.405617748501868,0.9946035606046794,-9.565882982599274e-05,-0.0016372044530124413,0.10373556595238358,-0.0005299606876609786,-0.00323689796354199,0.20784618547680586
27.478,248,27,478000000,,13.433788796653204,0.994532811318053,-0.00010052102889495791,-0.0016383639258711487,0.10441165103080714,-0.0005420743558772266,-0.0032378278864446425,0.20920576078592734
27.488,249,27,488000000,,13.463896834631486,0.9944615130073419,-0.00010502712322032917,-0.0016401393205256506,0.10508852487051644,-0.0005536134414399404,-0.003240042238487036,0.2105670190911133
27.498,250,27,498000000,,13.486655995885789,0.9943896720571167,-0.00011105269473657417,-0.001638514402101696,0.1057661715483395,-0.0005674610961207743,-0.0032351580045330516,0.21192993032283397
27.508,251,27,508000000,,13.513176224352213,0.9943172805509395,-0.00011629694340169623,-0.0016383701200575714,0.10644457626462331,-0.0005800664121131047,-0.0032333667208561227,0.21329446441155972
27.518,252,27,518000000,,13.537845595462757,0.9942443424890631,-0.00012192681714547356,-0.0016372141577028169,0.10712372329294736,-0.0005932221773707909,-0.0032294649318184935,0.21466059128776083
27.528,253,27,528000000,,13.566363863395964,0.994170854039032,-0.00012680886922661184,-0.001637460599538019,0.10780359744274405,-0.0006051908411872188,-0.003228495909347955,0.21602828088190767
27.539,254,27,538000000,,13.593026819825951,0.9940968191862855,-0.00013207798607298206,-0.0016366627516037097,0.10848418305980245,-0.0006177039070155503,-0.0032253513182214128,0.21739750312447043
27.548000000000002,255,27,548000000,,13.619735864422447,0.994022236713864,-0.00013736994285945634,-0.0016356502811280093,0.10916546475888501,-0.0006302139144008285,-0.0032217589680403388,0.21876822794591944
27.558,256,27,558000000,,13.656292846265009,0.9939471001301006,-0.00014078708227356328,-0.0016386096294606649,0.10984742728186,-0.0006398673027338807,-0.003226457979249232,0.22014042527672523
27.568,257,27,568000000,,13.677250767603171,0.9938714267615303,-0.0001472341554575341,-0.0016347443554231632,0.11053005473623873,-0.0006540438372900658,-0.0032169093596706973,0.2215140650473579
27.578,258,27,578000000,,13.700135352562052,0.99379520491631,-0.00015328130954296096,-0.0016315493828269782,0.11121333210007223,-0.0006675640338076308,-0.003208763562432292,0.22288911718828794
27.589,259,27,588000000,,13.725001567120218,0.9937184350307329,-0.0001589439501865041,-0.0016289287327312294,0.11189724396997221,-0.0006804398788429606,-0.003201827712883169,0.2242655516299854
27.607,260,27,604000000,,13.739694265254363,0.9936411253733866,-0.00016648310062622804,-0.0016217869540462477,0.11258177497784658,-0.000696019806290521,-0.003185467889587724,0.22564333830292085
27.608,261,27,608000000,,13.784981203779019,0.9935632497039433,-0.00016841055696961924,-0.0016271852834249278,0.11326690930575202,-0.0007032692244641061,-0.0031952777467636707,0.22702244713756442
27.618,262,27,618000000,,13.82228378688097,0.993484833580747,-0.0001718386119407293,-0.0016289949578872798,0.11395263179038106,-0.000712698338711432,-0.003197606094216253,0.22840284806438663
27.628,263,27,628000000,,13.870006563420077,0.9934058654688137,-0.00017340989726851767,-0.0016348861610698136,0.11463892675878028,-0.0007193797726726742,-0.003208457459283901,0.22978451101385763
27.638,264,27,638000000,,13.884973932343156,0.9933263737081548,-0.00018094364526889288,-0.0016269949600794407,0.11532577960978325,-0.0007347449201860307,-0.0031905444866234273,0.23116740591644774
27.648,265,27,648000000,,13.889184597653214,0.9932463438184861,-0.0001903308501915476,-0.0016147942559855656,0.11601317470394391,-0.0007527694965339093,-0.0031636204863809757,0.2325515027026274
27.658,266,27,658000000,,13.916310030380707,0.993165756068868,-0.00019566271989946706,-0.001611486997814789,0.1167010959584775,-0.0007647795053744233,-0.0031552845330305736,0.2339367713028669
27.669,267,27,668000000,,13.943468458203945,0.9930846253209978,-0.00020099182369811061,-0.0016078427686302737,0.11738952847239625,-0.0007766955111281385,-0.0031462643868976764,0.2353231816476364
27.678,268,27,678000000,,13.9706621164092,0.9930029519329763,-0.0002062564181861418,-0.0016040411047053757,0.11807845681079929,-0.0007884358217574216,-0.0031369313695969025,0.23671070366740635
27.688,269,27,688000000,,14.002242861621987,0.9929207338833614,-0.0002107330286157358,-0.0016018698126974184,0.1187678653054804,-0.0007989877044846579,-0.0031310079917549944,0.238099307292647
27.699,270,27,698000000,,14.02518318781205,0.9928379797720813,-0.00021665596036867063,-0.001596098394847871,0.11945773918922467,-0.0008115451764373798,-0.0031175767994019226,0.23948896245382884
27.708,271,27,708000000,,14.052483837695965,0.9927546827660937,-0.00022191005482349058,-0.0015917591922062105,0.12014806242546947,-0.0008231021239077242,-0.0031071336570782497,0.2408796390814218
27.718,272,27,718000000,,14.07980767218383,0.9926708462769726,-0.00022715603673985338,-0.001587117457783776,0.12083881996307859,-0.0008345572487146502,-0.0030960768714015986,0.24227130710589667
27.728,273,27,728000000,,14.107154148445515,0.9925864710819264,-0.00023236740242707323,-0.0015822128149412433,0.12152999643349997,-0.0008458662401407142,-0.0030844917408091293,0.24366393645772347
27.738,274,27,738000000,,14.134522054289613,0.9925015579861898,-0.0002375583824662851,-0.0015770930989497769,0.1222215764026888,-0.0008570678891121974,-0.0030724700296625826,0.24505749706737256
27.748,275,27,748000000,,14.161909857884032,0.9924161078801057,-0.00024275058317498486,-0.0015717768588904757,0.12291354445203587,-0.0008682086814732493,-0.003060043451957736,0.2464519588653142
27.758,276,27,758000000,,14.189316588282646,0.9923301217356446,-0.0002479414302605674,-0.0015662564339549477,0.12360588522376663,-0.0008792807208993819,-0.003047197551355219,0.24784729178201895
27.774,277,27,768000000,,14.214438781598416,0.9922436018679838,-0.0002534724731635588,-0.0015596215355029328,0.12429858359780807,-0.0008907345872812046,-0.003032041086814268,0.24924346574795692
27.778,278,27,778000000,,14.244181570245175,0.9921565455313355,-0.00025825338423856453,-0.0015545028322395702,0.12499162366119218,-0.0009010594682475115,-0.0030200658913827508,0.25064045069359847
27.788,279,27,788000000,,14.2716385512981,0.9920689576533415,-0.0002633648422687208,-0.0015482323542880033,0.12568499065580452,-0.0009117355518192113,-0.003005709026105627,0.2520382165494138
27.8,280,27,798000000,,14.299110338206754,0.9919808380436114,-0.00026846001873299767,-0.0015417221892674608,0.12637866899205716,-0.0009223002410711053,-0.0029908669580141246,0.2534367332458733
27.808,281,27,808000000,,14.328960813934614,0.9918921865763917,-0.00027320071226760934,-0.0015358912593196584,0.12707264303584315,-0.0009323150948455263,-0.002977448805204644,0.25483597071344766
27.818,282,27,818000000,,14.354095793244813,0.9918030082198006,-0.00027865334263003797,-0.0015280618022984463,0.12776689816066408,-0.0009432141518227564,-0.0029598715598556508,0.2562358988826065
27.828,283,27,828000000,,14.381608000044436,0.9917133005019928,-0.00028373162146014654,-0.0015208869276212332,0.1284614183588389,-0.000953515705017939,-0.002943674707574498,0.25763648768382064
27.838,284,27,838000000,,14.409130688736212,0.9916230660199983,-0.00028875841582112397,-0.0015134396267866923,0.12915618860965036,-0.0009636234758364722,-0.002926937592227475,0.25903770704756024
27.85,285,27,848000000,,14.436663866199305,0.9915323060964054,-0.0002937357987740271,-0.0015057271437804256,0.12985119357246241,-0.0009735422763971957,-0.0029096744319660277,0.2604395269042957
27.858,286,27,858000000,,14.464203419557442,0.9914410220589744,-0.00029869255455118864,-0.0014977807645914394,0.13054641785279056,-0.000983336200669557,-0.0028919401290957015,0.2618419171844971
27.868,287,27,868000000,,14.4942088839023,0.9913492140962556,-0.00030330391331278634,-0.0014905142678204543,0.13124184578361436,-0.00099260014656542,-0.0028756319283955558,0.2632448478186351
27.875,288,27,875000000,,14.524249033781025,0.9912568849008777,-0.0003079164070990492,-0.00148302232471129,0.13193746234060505,-0.001001785182661667,-0.0028588646552317573,0.2646482887371796
27.888,289,27,888000000,,14.55183325997612,0.9911640371847488,-0.00031285768133622197,-0.0014743898019987467,0.1326332525666661,-0.001011297044955861,-0.0028397374499911036,0.2660522098706014
27.898,290,27,898000000,,14.574417619517826,0.9910706736935129,-0.00031842120627380386,-0.0014636775107419759,0.133329201605523,-0.0010214619752109526,-0.0028163097458412086,0.2674565811493703
27.909,291,27,907000000,,14.601983730908984,0.9909767912553766,-0.0003232322554092039,-0.0014545082687888581,0.13402529283610162,-0.0010305173307634558,-0.002796128922258594,0.2688613725039571
27.918,292,27,918000000,,14.629547871480844,0.9908823938420287,-0.0003280202143208914,-0.0014450978827132426,0.13472151152929904,-0.0010394346431813045,-0.0027754649038749554,0.27026655386483184
27.928,293,27,928000000,,14.659662386522697,0.9907874819643898,-0.0003324684732294338,-0.0014363549716239264,0.13541784199939638,-0.0010478315558041674,-0.002756204214386638,0.2716720951624649
27.938,294,27,938000000,,14.687230341980518,0.9906920596325968,-0.0003372527259467267,-0.0014264763351709586,0.13611426966628973,-0.001056558911526172,-0.002734591148250641,0.27307796632732667
27.952,295,27,948000000,,14.712202139745784,0.9905961285720615,-0.0003423517056634898,-0.0014154579275970308,0.13681077929830152,-0.0010655684690213064,-0.0027106227985480747,0.2744841372898873
27.958,296,27,958000000,,14.757932661662773,0.9904996806208345,-0.00034473250891991884,-0.0014113521518447321,0.13750735229297986,-0.0010710615870112472,-0.0027010844866430244,0.27589057798061695
27.968,297,27,968000000,,14.7672689972365,0.9904027419885819,-0.0003516671120654065,-0.0013944234345938272,0.13820398176255927,-0.0010820179391141005,-0.00266488115009342,0.2772972583299866
27.978,298,27,978000000,,14.794780608525317,0.9903052912415699,-0.00035624452508788444,-0.001383557434449792,0.13890064433836583,-0.0010899397324280764,-0.0026413263792384543,0.2787041482684658
27.988,299,27,988000000,,14.830232848729382,0.9902073349223236,-0.0003598506442942915,-0.0013750958052968227,0.1395973262103152,-0.0010965768817884772,-0.0026227945367498576,0.28011121772652553
27.998,300,27,998000000,,14.84976582972834,0.99010888454058,-0.0003654200588578978,-0.0013610186421489027,0.14029401573212194,-0.001105500775797275,-0.0025925837085982095,0.28151843663463544
28.008,301,28,8000000,,14.879919801908025,0.9900099314990929,-0.0003696482851220039,-0.0013502565374299046,0.14099069366660358,-0.0011126620606444714,-0.0025693036547891983,0.28292577492326637
28.03,302,28,22000000,,14.9181758529242,0.9899104790387497,-0.0003728564564690622,-0.001341899526020311,0.14168734514062403,-0.0011184532620403024,-0.0025510654894052094,0.2843332025228884
28.03,303,28,28000000,,14.953813284635338,0.9898105333960789,-0.0003763406403593816,-0.0013323882902310804,0.14238395656581548,-0.0011244371297862918,-0.002530456890214689,0.2857406893639719
28.038,304,28,38000000,,14.962290463813076,0.9897101055649499,-0.0003829095402425427,-0.0013138037440894729,0.14308051664228053,-0.0011339020808852666,-0.0024909984709557674,0.2871482053769871
28.048,305,28,48000000,,14.986955433261606,0.9896091816092542,-0.0003876026527659223,-0.0013003118503485654,0.1437770031261528,-0.0011410638762050839,-0.0024621468841406137,0.2885557204924045
28.058,306,28,58000000,,15.01156984716568,0.9895077699119359,-0.00039231983451471137,-0.0012864901826651232,0.14447340347643423,-0.001148137928943243,-0.002432626899085792,0.2899632046406944
28.068,307,28,68000000,,15.041709360084743,0.9894058708738134,-0.00039635710632441874,-0.0012740866426848092,0.14516970167601131,-0.0011542372489926817,-0.0024061018444013044,0.2913706277523269
28.078,308,28,78000000,,15.069075453599678,0.9893034895728029,-0.0004006082525823898,-0.0012605423938787713,0.14586588382818097,-0.001160390084511058,-0.002377250063472518,0.29277795975777254
28.097,309,28,88000000,,15.110436354292569,0.989200622759128,-0.0004032248429267591,-0.0012511836428683186,0.14656193189969557,-0.001164495813435989,-0.0023571506362675514,0.29418517058750143
28.097,310,28,98000000,,15.129377343589697,0.9890972847024241,-0.00040820107223064076,-0.0012346240065803766,0.14725783670059484,-0.0011711206901555773,-0.0023221069782726166,0.29559223017198416
28.108,311,28,108000000,,15.17933436070304,0.9889934608386595,-0.0004098413540870241,-0.0012273281205937281,0.14795357418501218,-0.0011738393942119596,-0.002306366029486783,0.29699910844169064
28.118,312,28,118000000,,15.223757279346973,0.9888891652978065,-0.0004120662785708659,-0.0012180153567345757,0.14864913520293416,-0.0011770929640904765,-0.0022864597791999812,0.29840577532709167
28.128,313,28,128000000,,15.239842826443825,0.9887844073502955,-0.0004173497919266892,-0.001199763482097778,0.149344508327768,-0.0011836973752423414,-0.00224795894153646,0.2998122007586572
28.142,314,28,142000000,,15.244190309243786,0.9886791841056902,-0.0004237248772513334,-0.0011777289993227787,0.15003967584522213,-0.001191271255379092,-0.002201642984480646,0.30121835466685765
28.148,315,28,148000000,,15.294513474989362,0.9885734816162645,-0.00042521922338854915,-0.0011692389596083578,0.15073461285970244,-0.0011932135878084812,-0.0021835684834451115,0.3026242069821634
28.159,316,28,158000000,,15.3101375166954,0.9884673256454082,-0.00043007645936086255,-0.0011501635189361404,0.15142931780052832,-0.0011985730498491165,-0.0021435473870758414,0.3040297276350447
28.168,317,28,168000000,,15.331426914191843,0.988360707197527,-0.000434356768933621,-0.0011326404286256064,0.15212376845141914,-0.0012032083477522065,-0.0021067641714514447,0.30543488655597195
28.178,318,28,178000000,,15.387875475029054,0.988253621702699,-0.00043517006019045963,-0.0011249587192306472,0.1528179449096119,-0.001203947456798451,-0.0020904869911407987,0.3068396536754153
28.188,319,28,188000000,,15.409160256655326,0.9881460901398194,-0.0004395014766973659,-0.001106912309343347,0.15351184359839817,-0.0012084344701331557,-0.002052646218727882,0.30824399892384535
28.198,320,28,198000000,,15.427358272330027,0.9880381069039722,-0.0004440692985991647,-0.0010876894189165661,0.15420544426122243,-0.0012129727919362547,-0.0020124027400777885,0.3096478922317321
28.214,321,28,205000000,,15.430396654503312,0.9879296775019621,-0.0004497826619185029,-0.0010640758102777727,0.15489873385246275,-0.001218357920847543,-0.001963123875423118,0.31105130352954596
28.218,322,28,218000000,,15.448149306966522,0.9878207977017462,-0.0004540184406332555,-0.0010444346370586954,0.1555916921028566,-0.0012219909828742788,-0.0019221467014142587,0.31245420274775737
28.228,323,28,228000000,,15.47487593452115,0.9877114720954047,-0.0004574589934014597,-0.001026974987233886,0.1562843048574418,-0.001224677619146575,-0.001885723748913788,0.3138565598168364
28.243,324,28,238000000,,15.501572045662028,0.9876017057234975,-0.0004608559669046398,-0.0010092208213980333,0.1569765585593899,-0.001227134705788554,-0.0018487302950755944,0.3152583446672537
28.248,325,28,248000000,,15.528239146500075,0.9874915015728212,-0.0004641562276359185,-0.0009912122445526238,0.15766843811853207,-0.0012292687592751538,-0.0018112627509524807,0.3166595272294793
28.258,326,28,258000000,,15.55487321632673,0.9873808626721644,-0.00046735332987176916,-0.0009729746687826076,0.15835992842234878,-0.0012310741125850077,-0.0017733739854092039,0.3180600774339838
28.268,327,28,268000000,,15.58146629625431,0.9872697921238145,-0.000470481196371292,-0.0009544799614809687,0.1590510143798119,-0.0012326079253672836,-0.001734998313710422,0.3194599652112371
28.278,328,28,278000000,,15.608015988228669,0.9871582930804799,-0.00047356346065423175,-0.0009356894454177856,0.15974168092687568,-0.001233903492467803,-0.0016960523582652837,0.32085916049171015
28.288,329,28,288000000,,15.634522001617054,0.9870463687213156,-0.0004766026648910685,-0.0009165882211151675,0.16043191300360754,-0.00123495987119128,-0.0016565063535658705,0.32225763320587264
28.298000000000002,330,28,298000000,,15.660983560151182,0.9869340222465115,-0.0004795784126616606,-0.0008971966699361084,0.1611216955440947,-0.0012357421298395354,-0.0016164075663080164,0.3236553532841949
28.308,331,28,308000000,,15.687395293005144,0.9868212568804207,-0.00048247002958375865,-0.0008775605074396914,0.1618110134668618,-0.001236223122016833,-0.0015758534491949418,0.32505229065714775
28.319,332,28,319000000,,15.72007300093895,0.9867080750005743,-0.0004847574238288515,-0.0008592060974559008,0.16249985078080273,-0.0012358716306180976,-0.0015380257771973474,0.326448415255201
28.328,333,28,328000000,,15.740063858546058,0.9865944827054338,-0.0004879934037894097,-0.0008375431210449298,0.16318819528126308,-0.0012362591937496049,-0.001493361873819571,0.3278436970088254
28.34,334,28,340000000,,15.76631228285167,0.9864804806464902,-0.0004906586377671201,-0.0008170877592938642,0.16387602913533292,-0.0012358541485910427,-0.0014512683820393614,0.3292381058484909
28.348,335,28,348000000,,15.792503425134448,0.9863660731596261,-0.0004932580217704475,-0.0007963128592998562,0.16456333826831918,-0.001235155300214794,-0.001408568068469369,0.33063161170466815
28.358,336,28,358000000,,15.847532682987273,0.9862512602284558,-0.0004935296975918666,-0.0007819367120269188,0.1652501034831712,-0.0012319203009569962,-0.0013792609054213087,0.33202418450782706
28.368,337,28,368000000,,15.857630504582104,0.9861360542452013,-0.0004972119000503077,-0.0007568839666897379,0.16593632039036205,-0.0012318276406376298,-0.0013277705007060069,0.3334157941884384
28.379,338,28,379000000,,15.877210233575017,0.9860204520018505,-0.0005000278859632513,-0.0007339209805480094,0.16662196603741683,-0.0012306514775281409,-0.00128069128517363,0.33480641067697203
28.388,339,28,388000000,,15.906427239643312,0.9859044573488582,-0.0005020551099271524,-0.000712823065767391,0.167307025565566,-0.001228478604930523,-0.001237556497354265,0.3361960039038988
28.399,340,28,399000000,,15.925785364472892,0.9857880758924707,-0.0005047506792981467,-0.0006892405992515078,0.16799148669610853,-0.0012267286830647945,-0.0011893029746404757,0.3375845437996884
28.408,341,28,408000000,,15.977855238352117,0.9856713074547755,-0.0005049735212392229,-0.0006724138558296586,0.16867532872872273,-0.0012223161981253507,-0.001155205196400688,0.3389720002948116
28.418,342,28,418000000,,16.026710403756624,0.9855541591426104,-0.0005053762031417301,-0.0006545198542036219,0.16935854154826763,-0.0012178493571679224,-0.0011189502092058602,0.3403583433197384
28.428,343,28,428000000,,16.02285569066627,0.9854366384186136,-0.0005094147658890177,-0.0006251492295100815,0.17004111663730018,-0.0012165950771301213,-0.001058847197085922,0.34174354280493957
28.443,344,28,440000000,,16.015161525966395,0.9853187444917129,-0.0005134703172650023,-0.0005953017830730979,0.17072303218164497,-0.0012151282115472667,-0.0009978017575549725,0.34312756868088506
28.448,345,28,448000000,,16.047283534509024,0.9852004787654125,-0.0005147936139429356,-0.0005731172183876894,0.17140426822162586,-0.0012108201501531924,-0.0009527952146832782,0.34451039087804514
28.458,346,28,458000000,,16.07602498174656,0.9850818480972897,-0.0005162615633484467,-0.0005499067657580939,0.17208481520975494,-0.0012063817856252954,-0.0009057249185643068,0.34589197932689036
28.473,347,28,473000000,,16.101347573087054,0.9849628563191813,-0.0005178362754574529,-0.0005257415288465778,0.17276465817115608,-0.0012017588353156273,-0.0008567442464505181,0.34727230395789094
28.482,348,28,481000000,,16.143534179842067,0.9848435064241725,-0.0005182309048676612,-0.0005045215549946025,0.17344377979296394,-0.0011957656150439384,-0.0008139817905695259,0.3486513347015172
28.488,349,28,488000000,,16.165387544241696,0.9847238040538647,-0.000519825778316135,-0.0004791771196849377,0.17412216946768796,-0.0011906409826225792,-0.0007626879216338668,0.3500290414882396
28.498,350,28,498000000,,16.190550713654858,0.9846037521250945,-0.0005211353690421055,-0.00045420909011624277,0.17479980953426397,-0.0011850155822488524,-0.0007122432824743383,0.3514053942485279
28.508,351,28,508000000,,16.20191118947542,0.9844833552212305,-0.0005232096712127046,-0.00042645291083402535,0.17547668700400978,-0.0011798480407487068,-0.000656049432638463,0.35278036291285325
28.523,352,28,514000000,,16.22684062172554,0.9843626166679335,-0.000524320527264021,-0.0004008330400893238,0.17615278404702514,-0.0011734592479287155,-0.0006044091159569426,0.3541539174116852
28.528,353,28,528000000,,16.2516879136308,0.9842415410044402,-0.0005253163432724651,-0.00037492801022495853,0.17682808722861657,-0.0011666723828030897,-0.0005522581048295896,0.35552602767549474
28.538,354,28,538000000,,16.276453266735,0.9841201323860116,-0.0005262115961947972,-0.0003487724929964447,0.17750258164782573,-0.0011595272918251672,-0.0004996602511162148,0.3568966636347515
28.548000000000002,355,28,548000000,,16.3081016366658,0.9839983949768965,-0.0005266260913932963,-0.00032349401592948903,0.17817625178309557,-0.0011516767304969786,-0.00044897067389073535,0.3582657952199263
28.562,356,28,558000000,,16.325735920420275,0.9838763331630087,-0.0005277399651154931,-0.0002956353398419088,0.17884908479493877,-0.0011442102814258712,-0.00039296561880663116,0.3596333923614892
28.568,357,28,568000000,,16.35024366177386,0.98375395111707,-0.0005283436274222608,-0.00026859639510599454,0.17952106386310648,-0.0011359579927369416,-0.0003387679162020834,0.36099942498991067
28.578,358,28,578000000,,16.3746619088818,0.9836312532058523,-0.000528823667779937,-0.0002412514492897151,0.18019217480221256,-0.0011272785049883825,-0.0002840251610555742,0.36236386303566104
28.588,359,28,588000000,,16.402525604506216,0.983508243817809,-0.0005290113557550604,-0.00021416191839348695,0.18086240246128354,-0.001118041999545536,-0.0002299034970666225,0.3637266764292107
28.604,360,28,594000000,,16.426772100243916,0.9833849272834372,-0.0005292919325120094,-0.00018626195934315934,0.18153173262072275,-0.001108620573436287,-0.0001741678444270824,0.36508783510102943
28.608,361,28,608000000,,16.44736023199194,0.983261307996769,-0.0005296640937495566,-0.00015756942927225114,0.18220015045083124,-0.0010990149954193187,-0.00011685409137986939,0.3664473089815882
28.618,362,28,618000000,,16.47141269201889,0.9831373905603302,-0.0005297573756096535,-0.00012907386907741868,0.18286764060184132,-0.0010888556526988695,-6.0043730966355405e-05,0.367805068001357
28.628,363,28,628000000,,16.495372630619393,0.9830131794503826,-0.0005297191330950097,-0.00010027043877399371,0.18353418855986764,-0.001078248094648543,-2.6911831337619873e-06,0.36916108209080617
28.639,364,28,638000000,,16.5192325700869,0.9828886792244846,-0.0005295368796206241,-7.119324561142608e-05,0.18419977951822572,-0.0010671793728967815,5.5131082676266466e-05,0.37051532118040614
28.65,365,28,650000000,,16.557434759140314,0.9827638949140779,-0.0005285812230859541,-4.369860683819224e-05,0.1848643977233955,-0.0010550979185173352,0.00010954087300918701,0.371867755200627
28.658,366,28,658000000,,16.584765164505924,0.9826388303904043,-0.0005280361289625555,-1.4474898188526143e-05,0.18552803016606934,-0.0010431088108244565,0.00016748381245690187,0.37321835408193943
28.668,367,28,668000000,,16.593846510378135,0.982513489920005,-0.0005282372523469888,1.727765240656118e-05,0.18619066247290803,-0.0010315667879177827,0.00023065674308715331,0.3745670877548133
28.678,368,28,678000000,,16.613643282194626,0.9823878792586849,-0.0005278061720635318,4.797580703578594e-05,0.18685227802890197,-0.001019092214091472,0.0002915052780032497,0.3759139261497193
28.688,369,28,688000000,,16.63696897449405,0.9822620029364136,-0.0005270579375019566,7.853327493946193e-05,0.1875128625716117,-0.0010059662042946086,0.0003519407963479144,0.37725883919712744
28.698,370,28,698000000,,16.65651317407361,0.9821358654232849,-0.0005263168005813432,0.00010976484536906628,0.1881724017797489,-0.0009925200315653757,0.00041368458752336524,0.3786017968275084
28.709,371,28,708000000,,16.679612236217853,0.9820094718215556,-0.0005253280884599879,0.0001408523512862534,0.18883088053537203,-0.0009785600369095302,0.0004750330350763086,0.3799427689713323
28.718,372,28,718000000,,16.706303785855575,0.9818828269958879,-0.0005240966806475039,0.00017186399326184315,0.18948828416554028,-0.0009640709223298201,0.0005361209943134763,0.38128172555906936
28.731,373,28,731000000,,16.72919218375426,0.9817559354872689,-0.0005228973056175035,0.00020356668567124203,0.19014459833119057,-0.0009493011681538778,0.0005985578358816634,0.3826186365211899
28.735,374,28,738000000,,16.7519663373759,0.9816288023996553,-0.0005215576978905393,0.00023556566681450273,0.1907998081388003,-0.0009340606888494539,0.0006615023524288083,0.3839534717881645
28.748,375,28,748000000,,16.77462780239323,0.9815014326924566,-0.0005200756629500082,0.00026784662643329854,0.19145389889512432,-0.0009183498251026219,0.0007249247854499926,0.3852862012904631
28.758,376,28,758000000,,16.797174898935054,0.9813738313447986,-0.0005184699210109441,0.00030040913999480954,0.1921068559289865,-0.000902204717980836,0.0007888306720225445,0.3866167949585564
28.768,377,28,768000000,,16.819599780472476,0.9812460033661644,-0.0005167544888466438,0.00033327219138178213,0.19275866458443283,-0.0008856447868746034,0.0008532619255661563,0.3879452227229144
28.78,378,28,778000000,,16.845677599788303,0.9811179540181377,-0.0005147951992719443,0.00036615062040608977,0.1934093100729359,-0.0008685162223808837,0.0009176063925216684,0.3892714545140075
28.788,379,28,788000000,,16.86408421136109,0.9809896877999744,-0.0005129609831287421,0.0003999155488469289,0.1940587781284121,-0.0008512051385024251,0.000983715380702658,0.3905954602623061
28.798000000000002,380,28,798000000,,16.882343975946824,0.9808612102646197,-0.0005109739631495576,0.00043393037697267797,0.19470705382256312,-0.0008334110253862671,0.0010502316124109796,0.39191720989828044
28.808,381,28,808000000,,16.908079682249987,0.9807325269724483,-0.0005086124197915869,0.00046770274991798417,0.19535412231580884,-0.0008148907647291913,0.0011161018970509272,0.3932366733524009
28.818,382,28,818000000,,16.93753485279993,0.9806036429060275,-0.0005060154787759113,0.000501564773149112,0.19599996913403298,-0.0007957885235263143,0.0011820307991044763,0.3945538205551379
28.828,383,28,828000000,,16.966904617567074,0.980474563089928,-0.0005033033838689598,0.0005357824623796386,0.19664457977903047,-0.0007762355794812635,0.0012485862406879527,0.39586862143696167
28.838,384,28,838000000,,16.973116760971894,0.9803452916067696,-0.000501137893957873,0.0005716080959997082,0.19728794020272414,-0.0007570343121722187,0.0013184839188368816,0.3971810459283421
28.848,385,28,848000000,,16.99452650535823,0.980215835760848,-0.000498379740876182,0.0006068375404802129,0.1979300348342704,-0.0007368174527608394,0.001386952617436023,0.39849106395975015
28.858,386,28,858000000,,17.011933498638488,0.9800861999209988,-0.0004955862901942337,0.0006425125463489908,0.19857084956325516,-0.0007162668641415844,0.0014562538559639098,0.3997986454616558
28.878,387,28,878000000,,16.998067401588354,0.9799563883171937,-0.0004934405777212291,0.000679603424175814,0.19921037034226802,-0.0006963332629174851,0.001528560989792879,0.4011037603645295
28.878,388,28,878000000,,17.05797480514099,0.979826410814682,-0.0004892787345917369,0.0007142344106948158,0.1998485805442317,-0.000673339894108028,0.00159521547598084,0.40240637859884126
28.888,389,28,888000000,,17.07887164100592,0.979696268001977,-0.0004859790603351173,0.0007506462481505751,0.20048546784633003,-0.0006512373644323795,0.0016656749045834236,0.4037064700950619
28.899,390,28,898000000,,17.099632985696942,0.9795659670441144,-0.00048253797500960057,0.0007873485729608616,0.20112101692328554,-0.000628651854281823,0.0017366176619161185,0.4050040047836612
28.908,391,28,908000000,,17.124184995223047,0.9794355135891379,-0.0004788665597642396,0.0008242363797246805,0.20175521317078812,-0.0006054508831584383,0.0018078013981731394,0.4062989525951101
28.919,392,28,918000000,,17.14074710981431,0.9793049127721553,-0.00047523244639974336,0.0008615800455618159,0.20238804227095097,-0.000582049002885286,0.0018798629788342564,0.40759128345987833
28.928,393,28,928000000,,17.161092455492135,0.9791741705428899,-0.000471364420765306,0.0008991343588233942,0.2030194894945585,-0.0005580132267112105,0.0019522118481766736,0.4088809673084365
28.938,394,28,938000000,,17.181295832589747,0.9790432923587798,-0.00046734771586244507,0.0009370002583776691,0.2036495403969995,-0.0005334690680544996,0.00202507931501143,0.4101679740712547
28.948,395,28,948000000,,17.20532820554919,0.978912283928316,-0.00046310892961562455,0.0009751470463387109,0.20427818041241014,-0.0005082846523930083,0.002098374483462166,0.4114522736788038
28.958,396,28,958000000,,17.237196891662666,0.978781150940973,-0.00045858374166216006,0.0010135939531412648,0.2049053949775706,-0.0004823256628225879,0.00217210758553478,0.4127338360615533
28.968,397,28,968000000,,17.241046204348546,0.9786498986034623,-0.0004544601670350535,0.001052361123213089,0.2055311703013822,-0.00045692993531907736,0.0022465995628682517,0.4140126311499742
28.978,398,28,978000000,,17.260664565506513,0.9785185332990245,-0.000449875150908932,0.0010913776180831451,0.20615549106819636,-0.0004304365411139774,0.0023213570024024303,0.41528862887453644
