Time,header.seq,header.stamp.secs,header.stamp.nsecs,header.frame_id,torques.x,torques.y,torques.z
7192.677,89,7192,677000000,,0.0002707734013273218,-0.0013990232096743854,0.005168423642881781
7192.687,90,7192,687000000,,0.00025287787214717494,-0.0014926838308903635,0.005239408106935147
7192.697,91,7192,697000000,,0.00014746157733603083,-0.0016118013971649617,0.00529831263214188
7192.707,92,7192,707000000,,4.727893128403035e-05,-0.001670997828090181,0.005355438528811258
7192.717,93,7192,717000000,,2.3839451716458723e-05,-0.0016319047866448456,0.005406876408093612
7192.727,94,7192,727000000,,0.00010054314181911203,-0.0015309677063666584,0.005457863664240523
7192.737,95,7192,737000000,,0.000220572853388887,-0.0014588325219006318,0.005514839573629945
7192.747,96,7192,747000000,,0.0002846739584542368,-0.001486501645148177,0.005579965280179947
7192.757,97,7192,757000000,,0.00023372785180796374,-0.0016027222677845274,0.005648808787526014
7192.767,98,7192,767000000,,0.00010146344418856401,-0.0017243516495494171,0.005714433915649687
7192.777,99,7192,777000000,,-6.68468262529137e-06,-0.0017681684490755175,0.005774715536398305
7192.787,100,7192,787000000,,-2.24077696589462e-05,-0.0017161745185542846,0.005831418131009626
7192.797,101,7192,797000000,,9.32672732426871e-05,-0.0015866830989051555,0.005875566952620089
7192.807,102,7192,807000000,,0.0002206267071927227,-0.001541636518001498,0.005939570658058881
7192.817,103,7192,817000000,,0.00028272589765585915,-0.0015917570097282242,0.006000316677406193
7192.827,104,7192,827000000,,0.0001928186322122186,-0.0017256238398876648,0.006070959330191374
7192.837,105,7192,837000000,,2.9067925531495666e-05,-0.0018344551240297385,0.00613801728221437
7192.847,106,7192,847000000,,-8.21459095887272e-05,-0.0018400935809842628,0.006197048146102054
7192.857,107,7192,857000000,,-5.3298918183628484e-05,-0.0017468239638312516,0.006249207784502707
7192.867,108,7192,867000000,,9.43552885707616e-05,-0.0016405871278829638,0.0063010435345106615
7192.877,109,7192,877000000,,0.00023900195213260157,-0.0016215156067891892,0.006360084392970449
7192.887,110,7192,887000000,,0.00025293839065446507,-0.001716583921415378,0.006428150111417657
7192.897,111,7192,897000000,,0.00011453144359554028,-0.0018549773116897717,0.006499903404483008
7192.907,112,7192,907000000,,-7.049648398685776e-05,-0.0019310142371735679,0.006567876723852923
7192.917,113,7192,917000000,,-0.00015753319259746072,-0.0018916194830086404,0.006627591090435081
7192.927,114,7192,927000000,,-7.854374491798645e-05,-0.0017783064721178504,0.0066802652182949744
7192.937,115,7192,937000000,,8.22938607918122e-05,-0.0017079193355802648,0.00674051809342507
7192.947,116,7192,947000000,,0.00023022209563505552,-0.001724542275761177,0.006792621889798189
7192.957,117,7192,957000000,,0.0001981767235422954,-0.0018433303127158422,0.006867570106953078
7192.967,118,7192,967000000,,-3.0085507746654247e-06,-0.0019729806424503187,0.006933673774021751
7192.977,119,7192,977000000,,-0.00018896730070297905,-0.001997520967840034,0.007002432520793224
7192.987,120,7192,987000000,,-0.00022530608638139606,-0.0019122747918174727,0.0070628951937895335
7192.997,121,7192,997000000,,-8.652813790491098e-05,-0.001798008666911882,0.007116161145170687
7193.007,122,7193,7000000,,0.00010906453566133373,-0.001762220001059434,0.007169215403684985
7193.017,123,7193,17000000,,0.00018819390980343785,-0.001845618308865742,0.007229394434755309
7193.027,124,7193,27000000,,6.971440520239433e-05,-0.0019832249471773145,0.007298267374268507
7193.037,125,7193,37000000,,-0.00015769011225121677,-0.0020626216104365084,0.007371198446360564
7193.047,126,7193,47000000,,-0.00031131251318609416,-0.0020230431802763025,0.007441059298116938
7193.057,127,7193,57000000,,-0.0002711661983037396,-0.0019059825309365793,0.007502424109161647
7193.067,128,7193,67000000,,-7.724891151240503e-05,-0.0018205581079012146,0.007555972939697454
7193.077,129,7193,77000000,,0.0001004255706331931,-0.0018504868976718248,0.00760871152625001
7193.087,130,7193,87000000,,9.714230803361951e-05,-0.0019773804340214828,0.007668289311683995
7193.097,131,7193,97000000,,-0.0001004609944325086,-0.002094828194135455,0.007737173167837738
7193.107,132,7193,107000000,,-0.00033427137343658767,-0.00210496186442288,0.007811483892352907
7193.117,133,7193,117000000,,-0.00041434488463257957,-0.0020048119112948716,0.007883209415341902
7193.127,134,7193,127000000,,-0.00028363806081278505,-0.0018881956137114003,0.007945314132766902
7193.137,135,7193,137000000,,-6.199769831807345e-05,-0.0018653777586491525,0.007997928986506522
7193.147,136,7193,147000000,,5.0509618806567884e-05,-0.001964776615018175,0.00804878643802216
7193.157,137,7193,157000000,,-4.059561926963229e-05,-0.0020929140913445135,0.008108047869329869
7193.167,138,7193,167000000,,-0.00031719718677097793,-0.002160398091457194,0.008177172241773226
7193.177,139,7193,177000000,,-0.0005046536862962946,-0.002088589034464353,0.008254756849645278
7193.187,140,7193,187000000,,-0.000473723811683461,-0.0019562545457369957,0.008328877370331045
7193.197,141,7193,197000000,,-0.0002650881833406372,-0.0018865387435198578,0.008390256866172048
7193.207,142,7193,207000000,,-6.939464450157234e-05,-0.001949090825153398,0.008439377184201412
7193.217,143,7193,217000000,,-7.121634678088029e-05,-0.002093649314653546,0.008486606885577494
7193.227,144,7193,227000000,,-0.00028957734317600016,-0.002191173141288698,0.008544624656919225
7193.237,145,7193,237000000,,-0.0005466306598913035,-0.0021539806575278054,0.008619033496685852
7193.247,146,7193,247000000,,-0.0006257019835992285,-0.0020179187548712385,0.008702061058520519
7193.257,147,7193,257000000,,-0.00047340861093019817,-0.0019087537136424646,0.008777500546989963
7193.267,148,7193,267000000,,-0.00023882371024854925,-0.0019301470977137962,0.00883441242512277
7193.277,149,7193,277000000,,-0.00013980795150233397,-0.0020692887682090574,0.008876480989193955
7193.287,150,7193,287000000,,-0.0002859657534646806,-0.002204436477656419,0.008928238056780374
7193.297,151,7193,297000000,,-0.000562235500597477,-0.002202448231789674,0.008981719444043666
7193.307,152,7193,307000000,,-0.0007378593787956625,-0.0020712593883014264,0.0090652322995874
7193.317,153,7193,317000000,,-0.0006874082384580474,-0.0019375231276976858,0.009153013622322724
7193.327,154,7193,327000000,,-0.0004307235160093489,-0.00190789592050301,0.009226198354420904
7193.337,155,7193,337000000,,-0.00025670067622655024,-0.0020324672809984724,0.009272592479682361
7193.347,156,7193,347000000,,-0.0003132541082765722,-0.002191897956195471,0.009305219488900552
7193.357,157,7193,357000000,,-0.000573099708930186,-0.002234261478741322,0.009349258875791163
7193.367,158,7193,367000000,,-0.000816852546377045,-0.0021151014478514906,0.009422963541680568
7193.377,159,7193,377000000,,-0.0008323659364245736,-0.0019456756072063536,0.00951891033162025
7193.387,160,7193,387000000,,-0.0006555593081206739,-0.0018869418159723212,0.009616894159816154
7193.397,161,7193,397000000,,-0.00040504658216781515,-0.00198719601917123,0.009668389875483954
7193.407,162,7193,407000000,,-0.0003815846478179209,-0.0021662501763464372,0.00969842152929223
7193.417,163,7193,417000000,,-0.0006219374310288713,-0.0022034401185719505,0.00972497661109681
7193.427,164,7193,427000000,,-0.0008532632327024514,-0.0021913806362568013,0.009780728564683634
7193.437,165,7193,437000000,,-0.0009699161650317444,-0.0019564387663431344,0.00987439521397814
7193.447,166,7193,447000000,,-0.0008094603126602022,-0.0018533176277829933,0.009979231717871033
7193.457,167,7193,457000000,,-0.0005679743844863529,-0.001934793985798937,0.010057849829548875
7193.467,168,7193,467000000,,-0.00048151114652717256,-0.002127370974199066,0.010094505243992774
7193.477,169,7193,477000000,,-0.0006447739717829128,-0.0022497448541762416,0.010108754596775344
7193.487,170,7193,487000000,,-0.0009309262384276863,-0.002171730675952103,0.010143084683853323
7193.497,171,7193,497000000,,-0.0010845945113283626,-0.0019594097810437636,0.01022520753050439
7193.507,172,7193,507000000,,-0.0009728098600458447,-0.0018175238607149433,0.010338614471159102
7193.517,173,7193,517000000,,-0.0007277013251546685,-0.0018765362362664268,0.01043725089852532
7193.527,174,7193,527000000,,-0.0005970877351403499,-0.0020792395058470774,0.010487743217443082
7193.537,175,7193,537000000,,-0.0006923026282551298,-0.0022301437090639937,0.010504101884573852
7193.547,176,7193,547000000,,-0.000991294256203072,-0.002182944888681383,0.010511079328884447
7193.557,177,7193,557000000,,-0.001182324731065683,-0.0019545393863256615,0.010575315941585749
7193.567,178,7193,567000000,,-0.0011133707306949614,-0.0017744063268239666,0.010689536958402966
7193.577,179,7193,577000000,,-0.000899868411021575,-0.0017960758275297308,0.01080291185977695
7193.587,180,7193,587000000,,-0.0007162399265894105,-0.002026640558160261,0.010873846144778855
7193.597,181,7193,597000000,,-0.0007976719218370865,-0.002213296820365962,0.01088578849177857
7193.607,182,7193,607000000,,-0.0010584398861105074,-0.00218174123372923,0.01088357160789337
7193.617,183,7193,617000000,,-0.001266310582580462,-0.0019394309817471894,0.01092728727260345
7193.627,184,7193,627000000,,-0.0012272390850460889,-0.0017234895076078875,0.011035620593704233
7193.637,185,7193,637000000,,-0.0010294275977311914,-0.0017340514942838228,0.01116969439740487
7193.647,186,7193,647000000,,-0.0008297353783597524,-0.0019711441971925355,0.011250624110908254
7193.657,187,7193,657000000,,-0.0008912956415986959,-0.0021833507317743856,0.011269881752466663
7193.667,188,7193,667000000,,-0.001137125634757293,-0.0021678802262191385,0.011257103645657579
7193.677,189,7193,677000000,,-0.001337055553534557,-0.0019439515197699803,0.011293093280326186
7193.687,190,7193,687000000,,-0.001318540186410114,-0.0016622794293198655,0.01137933712793033
7193.697,191,7193,697000000,,-0.001125444513415039,-0.001655024391993806,0.011509253216239846
7193.707,192,7193,707000000,,-0.000932610581855278,-0.0019165700816639647,0.011617675688704629
7193.717,193,7193,717000000,,-0.0009900625748747122,-0.002150339966912285,0.011646406973387443
7193.727,194,7193,727000000,,-0.0012254976075402831,-0.0021415261189160102,0.011628044415831063
7193.737,195,7193,737000000,,-0.0014202096768159104,-0.0018684934184864342,0.01163614424385833
7193.747,196,7193,747000000,,-0.0013863929488287857,-0.0015959109874182256,0.01172285782107237
7193.757,197,7193,757000000,,-0.001174209408819299,-0.0016051285428375177,0.011861581419211446
7193.767,198,7193,767000000,,-0.001021148029992032,-0.0018691801548231122,0.011975683912236567
7193.777,199,7193,777000000,,-0.0010905570678621849,-0.002118443812632173,0.012013465673822292
7193.787,200,7193,787000000,,-0.0013207142513498782,-0.0021037123805036392,0.011993108147133858
7193.797,201,7193,797000000,,-0.0014903677002697463,-0.0018089166184936212,0.011989825399970925
7193.807,202,7193,807000000,,-0.0014503073607949279,-0.001533338469417228,0.012061149855425748
7193.817,203,7193,817000000,,-0.0012196287477503434,-0.0015410389443777878,0.012204514822697188
7193.827,204,7193,827000000,,-0.0010931996555965412,-0.001831485642095896,0.012325693384911855
7193.837,205,7193,837000000,,-0.001189332583598762,-0.0020874521602268757,0.012369900132804553
7193.847,206,7193,847000000,,-0.0014172146703863903,-0.002051558993705895,0.012349864025218404
7193.857,207,7193,857000000,,-0.00154971466127317,-0.001730180737745516,0.012340158593040235
7193.867,208,7193,867000000,,-0.0014518236754069202,-0.0014395463280218008,0.012409144499309382
7193.877,209,7193,877000000,,-0.0012409486491108223,-0.0014894190413558559,0.012544793085148203
7193.887,210,7193,887000000,,-0.0011553351838816358,-0.0018088390422691379,0.012668086201892158
7193.897,211,7193,897000000,,-0.001290936340031376,-0.0020585634813508227,0.01271570374496873
7193.907,212,7193,907000000,,-0.001514126897733553,-0.001983672832428785,0.0126970298805004
7193.917,213,7193,917000000,,-0.0015936903719021647,-0.0016331183867137075,0.012685863527351656
7193.927,214,7193,927000000,,-0.0014449791875341992,-0.00135969941345303,0.012751263900830732
7193.937,215,7193,937000000,,-0.0012412980820007238,-0.001457909434726328,0.012882967609380977
7193.947,216,7193,947000000,,-0.0012135922296648434,-0.001803954488183953,0.013003461064082938
7193.957,217,7193,957000000,,-0.0013964107886836794,-0.0020261043873701593,0.013050560207799215
7193.967,218,7193,967000000,,-0.0016038953764741135,-0.0018933224319036717,0.013034226507066695
7193.977,219,7193,977000000,,-0.0016125491813267197,-0.0015184486706896806,0.013026258595273076
7193.987,220,7193,987000000,,-0.0014098511753067896,-0.0012885643338926933,0.01309148175827051
7193.997,221,7193,997000000,,-0.0012302034638329055,-0.0014526188101940515,0.013217842225737138
7194.007,222,7194,7000000,,-0.0012784337731420686,-0.0018138198597982948,0.013331063620143087
7194.017,223,7194,17000000,,-0.001486714996357877,-0.001977741370137108,0.013392339573957652
7194.027,224,7194,27000000,,-0.0016784115956533683,-0.001775428859457984,0.013361992054244749
7194.037,225,7194,37000000,,-0.0015980856912874847,-0.0013929281806800723,0.013361326121760816
7194.047,226,7194,47000000,,-0.001350446332308607,-0.0012386942802246259,0.013428549970848766
7194.057,227,7194,57000000,,-0.0012224034499107841,-0.0014780120823077295,0.01354752694689772
7194.067,228,7194,67000000,,-0.0013614424373550944,-0.0018296288436690125,0.013649696882155702
7194.077,229,7194,77000000,,-0.0016675557162926426,-0.0018501073545612444,0.013688964816070286
7194.087,230,7194,87000000,,-0.0016776581051792345,-0.001680078682535422,0.013682348216314122
7194.097,231,7194,97000000,,-0.0015400201329156319,-0.0012695216725951046,0.013691939968880774
7194.107,232,7194,107000000,,-0.0012753126279338456,-0.0012232172479308891,0.013761202960669032
7194.117,233,7194,117000000,,-0.0012346094809122987,-0.0015309236307086609,0.013869911897828439
7194.127,234,7194,127000000,,-0.001468371085040973,-0.0018332599567733178,0.013958924370152448
7194.137,235,7194,137000000,,-0.0017228439268699724,-0.0017955137017898436,0.013994894847962845
7194.147,236,7194,147000000,,-0.001716725771366012,-0.0014524762021350369,0.013997674733692083
7194.157,237,7194,157000000,,-0.001441497256777584,-0.0011684267127035318,0.014018227394135642
7194.167,238,7194,167000000,,-0.0012057265341219748,-0.0012541091532286307,0.014086922662390486
7194.177,239,7194,177000000,,-0.001287567988301555,-0.0015983881322611695,0.014182363477335834
7194.187,240,7194,187000000,,-0.0015982270000125802,-0.001799674501830068,0.014258941917892865
7194.197,241,7194,197000000,,-0.001793545814915574,-0.0016302928462434633,0.014295447655920907
7194.207,242,7194,207000000,,-0.0017262998744521987,-0.0012421421630743814,0.01431411984362262
7194.217,243,7194,217000000,,-0.0012775861768243803,-0.001169118376851744,0.014352107701721033
7194.227,244,7194,227000000,,-0.0011688525322329695,-0.001326678386820617,0.01440151626982242
7194.237,245,7194,237000000,,-0.0013915873122028527,-0.001646942291249598,0.014482512468893542
7194.247,246,7194,247000000,,-0.0017294828568166982,-0.001698415645683733,0.014551188478310656
7194.257,247,7194,257000000,,-0.0018006350655184185,-0.0014170158234647103,0.014593499071246581
7194.267,248,7194,267000000,,-0.001516868574076238,-0.0011151786155290493,0.014618654457909082
7194.277,249,7194,277000000,,-0.0011906959930344614,-0.0011283606643197692,0.014650190989013222
7194.287,250,7194,287000000,,-0.0012022247325885098,-0.0014246502553611354,0.014703138447908165
7194.297,251,7194,297000000,,-0.0015473953148309328,-0.0016413156948212914,0.014772402838679803
7194.307,252,7194,307000000,,-0.0018278802905970393,-0.0015164390733874052,0.014841104032963808
7194.317,253,7194,317000000,,-0.0017196561196566077,-0.0011877039040467901,0.014892485718125511
7194.327,254,7194,327000000,,-0.0013400578885210063,-0.001027742784328227,0.014923161183019406
7194.337,255,7194,337000000,,-0.0011670304772219457,-0.001154552115914101,0.014948452713065215
7194.347,256,7194,347000000,,-0.0012761404755297827,-0.001545729018539974,0.014988884807894958
7194.357,257,7194,357000000,,-0.0017154992179280598,-0.0015328232824728097,0.01505532518033824
7194.367,258,7194,367000000,,-0.0018388566710328012,-0.0012623291156183267,0.015132717175541223
7194.377,259,7194,377000000,,-0.001545273757261076,-0.0009955062596029398,0.015191230509163047
7194.387,260,7194,387000000,,-0.0011704017378977969,-0.0010354047024580572,0.015216470571599616
7194.397,261,7194,397000000,,-0.0011451566494124726,-0.001315395132416425,0.015227643754574945
7194.407,262,7194,407000000,,-0.001508973851826997,-0.0014755648971397674,0.015262458766515925
7194.417,263,7194,417000000,,-0.0018304885227065526,-0.001303414811912566,0.015339056384891808
7194.427,264,7194,427000000,,-0.0017546538644127249,-0.0010137913467751353,0.015426214632004661
7194.437,265,7194,437000000,,-0.0013588539988833213,-0.0008903470769621309,0.015500211853138405
7194.447,266,7194,447000000,,-0.0010759394707450728,-0.0011252028011297021,0.01549030238086857
7194.457,267,7194,457000000,,-0.0012854928331940104,-0.001368416019343668,0.015487772367754787
7194.467,268,7194,467000000,,-0.0016999806692038117,-0.0013050450021684658,0.015532079611270962
7194.477,269,7194,477000000,,-0.00181137012279031,-0.0009918015547747943,0.015630429419682138
7194.487,270,7194,487000000,,-0.0014877766752281732,-0.0007943219031929139,0.01572504731992178
7194.497,271,7194,497000000,,-0.001117523618338826,-0.0009356598283504643,0.015758737456382718
7194.507,272,7194,507000000,,-0.0011257477958735976,-0.001225309754414153,0.015739083282189675
7194.517,273,7194,517000000,,-0.0015060992699028576,-0.0012744824052066785,0.015736909319647406
7194.527,274,7194,527000000,,-0.001794078724623766,-0.0009884605392104168,0.015810600828230093
7194.537,275,7194,537000000,,-0.0016628835705789768,-0.0007121064671187707,0.01592370079800709
7194.547,276,7194,547000000,,-0.001217044574231009,-0.0007433473182096795,0.01600890289604819
7194.557,277,7194,557000000,,-0.0010471787922689733,-0.0010461479064355066,0.016004214221658854
7194.567,278,7194,567000000,,-0.0013080456599797673,-0.0012089542903276742,0.015966500667486692
7194.577,279,7194,577000000,,-0.00168360553299155,-0.0009829595518937105,0.015991524736630458
7194.587,280,7194,587000000,,-0.0016942374329526279,-0.0006220428120542763,0.016105406871208375
7194.597,281,7194,597000000,,-0.001329395692073404,-0.0005531863156552591,0.01622591974118215
7194.607,282,7194,607000000,,-0.0010392443919598055,-0.0008357407519459977,0.016261949842721335
7194.617,283,7194,617000000,,-0.0011535159152010358,-0.0011013530269983036,0.016216716230962394
7194.627,284,7194,627000000,,-0.0015266648915917957,-0.0009715614498162057,0.016190230081874542
7194.637,285,7194,637000000,,-0.0016818742513021437,-0.0005639160298367736,0.01626806728951402
7194.647,286,7194,647000000,,-0.001412388553206017,-0.0003705023526588967,0.016408848809261502
7194.657,287,7194,657000000,,-0.0010647262114347913,-0.0005994990018158358,0.016494941181576413
7194.667,288,7194,667000000,,-0.0010493979018905586,-0.0009444247378772467,0.01647201471172142
7194.677,289,7194,677000000,,-0.0013649812809968058,-0.0009384835862846931,0.016411236079609554
7194.687,290,7194,687000000,,-0.0016059929232512709,-0.000527707452491811,0.016435747775453643
7194.697,291,7194,697000000,,-0.001445333908828511,-0.00020692902947942905,0.01656767517196474
7194.707,292,7194,707000000,,-0.0010913369896463135,-0.000349299449781102,0.01669560166166691
7194.717,293,7194,717000000,,-0.000981607515842454,-0.0007412414000220151,0.016714978172784455
7194.727,294,7194,727000000,,-0.0012235993474317153,-0.0008673783846082025,0.016646786926450576
7194.737,295,7194,737000000,,-0.0014962893463982918,-0.0005038239743915958,0.016619324079372954
7194.747,296,7194,747000000,,-0.001426325079042153,-7.25120602203845e-05,0.016716713677224198
7194.757,297,7194,757000000,,-0.0010960614291457302,-9.929533353820217e-05,0.0168663023459351
7194.767,298,7194,767000000,,-0.0009280285436613943,-0.0005021692302406123,0.016933636306360415
7194.777,299,7194,777000000,,-0.0011063291981264066,-0.0007494966582656731,0.016883464359462273
7194.787,300,7194,787000000,,-0.0013613474204784471,-0.000519290747670539,0.016826112241848566
7194.797,301,7194,797000000,,-0.0013690173297307901,3.2766622648707846e-05,0.016868644858625676
7194.807,302,7194,807000000,,-0.0010692944495504007,0.00013836148655695655,0.017015559291127545
7194.817,303,7194,817000000,,-0.0008700938177531425,-0.00023961621628290253,0.017123751017512436
7194.827,304,7194,827000000,,-0.0009781181926912974,-0.00057028605264044,0.017118757557820885
7194.837,305,7194,837000000,,-0.001270796865232362,-0.0004209854562115458,0.017030195540506516
7194.847,306,7194,847000000,,-0.0012896440639130348,0.00011118124658697395,0.017030973013638494
7194.857,307,7194,857000000,,-0.0010097327131346025,0.0003471188633198427,0.01715405249381573
7194.867,308,7194,867000000,,-0.0007940306268008243,2.686167043276319e-05,0.017287500683734244
7194.877,309,7194,877000000,,-0.0009065391258604857,-0.0003861341287761366,0.017311851079882246
7194.887,310,7194,887000000,,-0.0011495394470733811,-0.00036478672702801166,0.017252583867949884
7194.897,311,7194,897000000,,-0.0012152837995620944,0.00013759114080512876,0.01722235872144036
7194.907,312,7194,907000000,,-0.0009267927233303117,0.0005327444801412871,0.01729081760896932
7194.917,313,7194,917000000,,-0.0006955486277484769,0.0002915216118220306,0.017430920598090465
7194.927,314,7194,927000000,,-0.000800980586593759,-0.0001591400529033312,0.01749147688577295
7194.937,315,7194,937000000,,-0.001076147631676096,-0.00020652730515660628,0.017442164670240786
7194.947,316,7194,947000000,,-0.0011201148651529993,0.00026634615282934075,0.017384631036673478
7194.957,317,7194,957000000,,-0.0008297658816097855,0.0006877062189209873,0.017431911481033416
7194.967,318,7194,967000000,,-0.0005756381902495818,0.0005341571180198173,0.01756166582233376
7194.977,319,7194,977000000,,-0.0006822939277624553,7.6012954822186e-05,0.017648591452917608
7194.987,320,7194,987000000,,-0.0009825782522656242,-4.918703687109992e-05,0.017627750469533437
7194.997,321,7194,997000000,,-0.0010417745474034688,0.00036670490139724545,0.017565713248313502
7195.007,322,7195,7000000,,-0.0007642256656733513,0.0008103111045877031,0.017575152164031913
7195.017,323,7195,17000000,,-0.00044000479540595185,0.0007576749929420531,0.017685936072509706
7195.027,324,7195,27000000,,-0.0005486923968942761,0.0003148083684510419,0.01778614040740898
7195.037,325,7195,37000000,,-0.0008841416976325567,0.00013700627746224975,0.017794501188527923
7195.047,326,7195,47000000,,-0.0009656794052678871,0.0004959335380606636,0.017741157236401763
7195.057,327,7195,57000000,,-0.0006302675604192135,0.000967502004653459,0.01772927460293341
7195.067,328,7195,67000000,,-0.0003086171870450902,0.0009908870193733232,0.017800362100385162
7195.077,329,7195,77000000,,-0.00037166117505288323,0.0005876825023682844,0.017904162080047567
7195.087,330,7195,87000000,,-0.0007819067000372404,0.0003387159329803363,0.017941916813816672
7195.097,331,7195,97000000,,-0.0008915839981554283,0.0006512240874839441,0.01790606981421782
7195.107,332,7195,107000000,,-0.0005351100756646586,0.001109711904184291,0.017880905837057107
7195.117,333,7195,117000000,,-0.00015689415163417622,0.0011386261904435008,0.01793005828224324
7195.127,334,7195,127000000,,-0.00025670128669773155,0.0007645539524190529,0.018020417000621698
7195.137,335,7195,137000000,,-0.000672391013244265,0.00056175226209937,0.01807132526097744
7195.147,336,7195,147000000,,-0.000812593386819899,0.0008426701048738497,0.018057416334551338
7195.157,337,7195,157000000,,-0.0004863377582232127,0.0012475167671798957,0.01803320287916337
7195.167,338,7195,167000000,,-1.4398557077033076e-05,0.0013132692122901737,0.018052178132067963
7195.177,339,7195,177000000,,-0.00010301911318438347,0.0009761444993552847,0.01812439074486221
7195.187,340,7195,187000000,,-0.0005082836209391449,0.000806927199046512,0.018200219374290734
7195.197,341,7195,197000000,,-0.0007278279340530659,0.0010613767736847213,0.01819389908847359
7195.207,342,7195,207000000,,-0.0003421931926630964,0.0014520414552643183,0.018171315168569804
7195.217,343,7195,217000000,,0.00011930551354176189,0.001479460655586163,0.01817293114406797
7195.227,344,7195,227000000,,8.097818827799859e-05,0.001219618734986351,0.018235255111140113
7195.237,345,7195,237000000,,-0.0004408797299170053,0.0010340654798032868,0.01828559380143063
7195.247,346,7195,247000000,,-0.0006341880124832007,0.001305172817023075,0.01831587078850503
7195.257,347,7195,257000000,,-0.00023802878206817866,0.0016534419939955797,0.018304574424819177
7195.267,348,7195,267000000,,0.0002509473703458071,0.0016472739430894074,0.018290719539344937
7195.277,349,7195,277000000,,0.00022450492173999408,0.0013968328304581146,0.018313841328531356
7195.287,350,7195,287000000,,-0.0002740882364135946,0.0012784820925528775,0.01837177630087254
7195.297,351,7195,297000000,,-0.0005315257469120025,0.0015759607072448087,0.018424412189900454
7195.307,352,7195,307000000,,-0.00012634780687225243,0.0018779250496203633,0.018427481156459688
7195.317,353,7195,317000000,,0.00037783331999606247,0.0018216869039980378,0.01840348732506745
7195.327,354,7195,327000000,,0.0003141489897979563,0.0015614449499832806,0.01840541902464807
7195.337,355,7195,337000000,,-0.00020130072219702903,0.0015509331999489985,0.018456761914564433
7195.347,356,7195,347000000,,-0.00041000596522941226,0.0018724076890538318,0.018520371233078287
7195.357,357,7195,357000000,,3.619284043296221e-06,0.002124204347162418,0.018538944895437264
7195.367,358,7195,367000000,,0.0005075847838041485,0.0020055802442019628,0.018508833694854714
7195.377,359,7195,377000000,,0.0004383034061314909,0.0017605632090118228,0.018489104019979486
7195.387,360,7195,387000000,,-7.847395894131449e-05,0.0018296382887854066,0.01853000964261566
7195.397,361,7195,397000000,,-0.0002739971259171146,0.0021892586881809566,0.018605023795991278
7195.407,362,7195,407000000,,0.0001478718865132978,0.0023868230150677367,0.0186384130158825
7195.417,363,7195,417000000,,0.0006368099353329162,0.0021987932325357017,0.018605228873590788
7195.427,364,7195,427000000,,0.0005532585641214036,0.0019696549158572016,0.01856667482820087
7195.437,365,7195,437000000,,4.697320186352221e-05,0.0021259784729137313,0.01859616523035296
7195.447,366,7195,447000000,,-0.00013397474091399853,0.002499622160939563,0.018672903025668708
7195.457,367,7195,457000000,,0.00030951963541450694,0.002664229988141277,0.018725986811797372
7195.467,368,7195,467000000,,0.0007676825391843801,0.0024038428611132937,0.018691197587608514
7195.477,369,7195,477000000,,0.0006617704153185352,0.002195132190736303,0.018636973819512043
7195.487,370,7195,487000000,,0.00017885671780424695,0.0024437954627293864,0.018655607486576926
7195.497,371,7195,497000000,,5.6378404042070046e-05,0.002879316730507037,0.018744207091772026
7195.507,372,7195,507000000,,0.0004881932895587088,0.0029487577020084013,0.018801153882780086
7195.517,373,7195,517000000,,0.0008996012085548915,0.0026176429792939336,0.018765732333199177
7195.527,374,7195,527000000,,0.0007657624289298734,0.0024389331727050156,0.01869900055716192
7195.537,375,7195,537000000,,0.00032063836065316113,0.002782944474920941,0.01870827716311806
7195.547,376,7195,547000000,,0.0002554221917506762,0.003244981507658643,0.0187998297164148
7195.557,377,7195,557000000,,0.0006834995457318726,0.003238700212430817,0.018864046054019097
7195.567,378,7195,567000000,,0.0010252744223635027,0.002900336897106183,0.01885332713917603
7195.577,379,7195,577000000,,0.0008701594818126142,0.002704342592084099,0.01875188543247174
7195.587,380,7195,587000000,,0.00047846511375158624,0.003142789395358643,0.018753716353878135
7195.597,381,7195,597000000,,0.0004799450479896929,0.0036169400099402044,0.018846114486698862
7195.607,382,7195,607000000,,0.0008936002277177618,0.003527871183278278,0.01891415604644896
7195.617,383,7195,617000000,,0.0011670455761022352,0.003079931418377139,0.018877329018316808
7195.627,384,7195,627000000,,0.0009765223191298064,0.003000341461637373,0.01879577165715425
7195.637,385,7195,637000000,,0.0006550777350225266,0.0035281464857291477,0.01879215864279168
7195.647,386,7195,647000000,,0.0007286348091615585,0.0039944992695624005,0.018883323214149907
7195.657,387,7195,657000000,,0.0011140721360696846,0.0038170767564994833,0.01895177368585935
7195.667,388,7195,667000000,,0.0013007412701598676,0.0033326001484459966,0.018914201125430432
7195.677,389,7195,677000000,,0.0010919715491635573,0.0033245334869341663,0.018830056953831033
7195.687,390,7195,687000000,,0.0008572356738058393,0.003931093588247919,0.01882288895496341
7195.697,391,7195,697000000,,0.0010014891788944266,0.004368458030710921,0.018910572338970952
7195.707,392,7195,707000000,,0.0013414902681856576,0.004101876293200487,0.01897648597172809
7195.717,393,7195,717000000,,0.0014343406271414504,0.0036018411415274718,0.01893834169746118
7195.727,394,7195,727000000,,0.0012212809362277407,0.003678488167684922,0.018854626064283328
7195.737,395,7195,737000000,,0.0010879467609103538,0.004347761017673547,0.018845225188874087
7195.747,396,7195,747000000,,0.0012950697227900362,0.00473412729509988,0.018927235178029928
7195.757,397,7195,757000000,,0.0015708350210204174,0.004382768416042107,0.018988149145485037
7195.767,398,7195,767000000,,0.0015683451722708572,0.0038913881678414967,0.01895025544027397
7195.777,399,7195,777000000,,0.0013896483923644298,0.004013927002638525,0.01887593366502046
7195.787,400,7195,787000000,,0.0013477240168471756,0.004774125225344516,0.01885843909018305
7195.797,401,7195,797000000,,0.0016032908400918924,0.005089367904072788,0.018932410695940503
7195.807,402,7195,807000000,,0.001796485574568679,0.0046636251425349025,0.018986713363360608
7195.817,403,7195,817000000,,0.0017038985072006232,0.004206520434970437,0.018950201564955613
7195.827,404,7195,827000000,,0.0015425612339003763,0.004473682228538823,0.01887481803328608
7195.837,405,7195,837000000,,0.0016403513935677066,0.00519893985903393,0.018861826606260935
7195.847,406,7195,847000000,,0.001923714573022724,0.0054270435923953406,0.018925637153793615
7195.857,407,7195,857000000,,0.0020171509254819885,0.004944899177222325,0.018972432468824817
7195.867,408,7195,867000000,,0.0018460787780056726,0.0045477321621298404,0.018939095515102013
7195.877,409,7195,877000000,,0.0017453324495028798,0.004907297454653178,0.01887037319005568
7195.887,410,7195,887000000,,0.001960483821660688,0.0056187976292853365,0.018854412486508543
7195.897,411,7195,897000000,,0.002270820976712273,0.0058578483627587125,0.018906144957527144
7195.907,412,7195,907000000,,0.0022080313351273396,0.005138351255059001,0.018945487349481437
7195.917,413,7195,917000000,,0.0020309814583323836,0.004941129856353568,0.01893940504141146
7195.927,414,7195,927000000,,0.0019788649180324668,0.005357047974499707,0.018855380579930987
7195.937,415,7195,937000000,,0.0023028314935456752,0.0060260446936389765,0.018834659074306
7195.947,416,7195,947000000,,0.002565161282042277,0.006061254196662171,0.01887295604363928
7195.957,417,7195,957000000,,0.0024619910112014236,0.005598643254213776,0.018905189110217983
7195.967,418,7195,967000000,,0.002163975561827759,0.005319980608697885,0.018885792838274747
7195.977,419,7195,977000000,,0.0022481488760732597,0.0058177956254069395,0.018830344267209087
7195.987,420,7195,987000000,,0.002665150656245621,0.006418527273545236,0.01880261727114722
7195.997,421,7195,997000000,,0.002876128318506885,0.006364144527487941,0.018827278680138837
7196.007,422,7196,7000000,,0.0026591439926821657,0.005985831960306044,0.018857416647936113
7196.017,423,7196,17000000,,0.0023241141225952213,0.005650662707528442,0.018844345634805363
7196.027,424,7196,27000000,,0.002551256783842078,0.006285745959049907,0.01879368750633822
7196.037,425,7196,37000000,,0.0030390191484464496,0.006797474537088771,0.018756784705004314
7196.047,426,7196,47000000,,0.003175570295530208,0.006669418791389627,0.01876829612090312
7196.057,427,7196,57000000,,0.002819051344194663,0.006227693945118596,0.018797264208469312
7196.067,428,7196,67000000,,0.0025867201427476386,0.006217493629011949,0.01881166929189672
7196.077,429,7196,77000000,,0.0028858778810127717,0.006752797264795748,0.01874462147828113
7196.087,430,7196,87000000,,0.003418095471874035,0.007159918782703682,0.01869679676766474
7196.097,431,7196,97000000,,0.0034615790932258543,0.006981922060430063,0.018696812525509324
7196.107,432,7196,107000000,,0.003016473032687013,0.006621045046526905,0.018727232238744097
7196.117,433,7196,117000000,,0.0028161629453837423,0.006710271128413994,0.01873177442643084
7196.127,434,7196,127000000,,0.00324939650923432,0.007212355348450276,0.018682481103526258
7196.137,435,7196,137000000,,0.0037978374192358666,0.007511081563005748,0.018622556144605822
7196.147,436,7196,147000000,,0.0037371499024110334,0.007311539617137638,0.018613523774161488
7196.157,437,7196,157000000,,0.0032264661226068274,0.007051645701485058,0.018647800022519406
7196.167,438,7196,167000000,,0.0030953388184567746,0.007207411790434432,0.018675830167330716
7196.177,439,7196,177000000,,0.003635100807664998,0.007661888558933303,0.01860579907784579
7196.187,440,7196,187000000,,0.004172751850178808,0.007856109627486672,0.018533887589843014
7196.197,441,7196,197000000,,0.004068527422193258,0.007718545821553604,0.018531729348041204
7196.207,442,7196,207000000,,0.003516267026050641,0.0075435346500760565,0.01856852018044246
7196.217,443,7196,217000000,,0.0033967764482019016,0.007724065779069922,0.018590304531622366
7196.227,444,7196,227000000,,0.003977900928911482,0.00809174068206277,0.018537175258355413
7196.237,445,7196,237000000,,0.004540434068980294,0.008198576338697281,0.018430676148768633
7196.247,446,7196,247000000,,0.004273283507313658,0.008048868308584447,0.018412705362696985
7196.257,447,7196,257000000,,0.003773714381483742,0.008162797653750333,0.018458077726861755
7196.267,448,7196,267000000,,0.0036856553948827107,0.008129275187038949,0.018491807592753703
7196.277,449,7196,277000000,,0.004450595462550701,0.008522358812383763,0.018406513417006845
7196.287,450,7196,287000000,,0.004907136677913011,0.008565403852747254,0.018318762029239058
7196.297,451,7196,297000000,,0.0045491631436744345,0.00846597759748285,0.01829663507091862
7196.307,452,7196,307000000,,0.003999980258887286,0.008550223881994105,0.018347434286079357
7196.317,453,7196,317000000,,0.0041424090941196414,0.008789110987555164,0.018362430438934266
7196.327,454,7196,327000000,,0.004871236271106808,0.008939600395289979,0.018284125798873497
7196.337,455,7196,337000000,,0.005261183898516704,0.008912062416322867,0.01818596192676981
7196.347,456,7196,347000000,,0.004840157126069932,0.00891785901601095,0.01817085506165319
7196.357,457,7196,357000000,,0.00437089628287324,0.009110773422752284,0.018233232378732266
7196.367,458,7196,367000000,,0.004547352612454686,0.009314766283253924,0.018234296575956165
7196.377,459,7196,377000000,,0.005293997045758604,0.00935092566375677,0.018146322757224238
7196.387,460,7196,387000000,,0.005618821210376947,0.009291829799292255,0.018045264918417472
7196.397,461,7196,397000000,,0.005153700960355286,0.009401550365124857,0.018034384328714945
7196.407,462,7196,407000000,,0.004685264184028133,0.00967846676485096,0.018089257796315573
7196.417,463,7196,417000000,,0.004977825844316061,0.00983931653640459,0.018090108956816262
7196.427,464,7196,427000000,,0.005721628571586287,0.00976273791327212,0.01799371870197916
7196.437,465,7196,437000000,,0.005984435110330943,0.009691784713021121,0.017893262778819884
7196.447,466,7196,447000000,,0.005499048127485928,0.009912900435548842,0.017887239593206254
7196.457,467,7196,457000000,,0.0050853853756182435,0.010263183981584293,0.01793940611180876
7196.467,468,7196,467000000,,0.005426225861731936,0.01036040909175822,0.0179295611547962
7196.477,469,7196,477000000,,0.006149845262254584,0.010177028158018893,0.01782687423975582
7196.487,470,7196,487000000,,0.006360591505349854,0.010110808584108616,0.017730311902759983
7196.497,471,7196,497000000,,0.005878615077464774,0.010444724200366438,0.01772861705490598
7196.507,472,7196,507000000,,0.005521485134313558,0.010854289431174651,0.01777448867105832
7196.517,473,7196,517000000,,0.005889685935858228,0.010880484547801567,0.01775276647178878
7196.527,474,7196,527000000,,0.0065798768991123776,0.010598360978167768,0.017646368182569448
7196.537,475,7196,537000000,,0.006752434977911663,0.010547449259023397,0.017556625106134302
7196.547,476,7196,547000000,,0.006295320169293006,0.010989913576539988,0.01755807437537941
7196.557,477,7196,557000000,,0.005991681863683697,0.011448016314327725,0.017594093615903007
7196.567,478,7196,567000000,,0.006365992117960062,0.011402510964894894,0.01755988489858595
7196.577,479,7196,577000000,,0.007013107393654837,0.011030204306721227,0.017452874971354185
7196.587,480,7196,587000000,,0.007163614823720778,0.010998371097483174,0.017372212694024163
7196.597,481,7196,597000000,,0.006749800991376386,0.011540727773458052,0.017374868045552955
7196.607,482,7196,607000000,,0.0064938047514043785,0.01204153671960984,0.017398307496135988
7196.617,483,7196,617000000,,0.006854071733939984,0.01193009406225169,0.017351414934103145
7196.627,484,7196,627000000,,0.007414962691913643,0.011517934637877312,0.017252770504670435
7196.637,485,7196,637000000,,0.0075982089555721565,0.011457900237877945,0.017176758904967032
7196.647,486,7196,647000000,,0.007310457090386263,0.012048283094554506,0.017188191433111673
7196.657,487,7196,657000000,,0.0070239585318861986,0.01263202900257873,0.017186578035402196
7196.667,488,7196,667000000,,0.007352038987148731,0.01246694395546629,0.017127950751853645
7196.677,489,7196,677000000,,0.007909561921077515,0.01196792549466745,0.017044546024159526
7196.687,490,7196,687000000,,0.008048316786047309,0.011923506089535893,0.01697002582784044
7196.697,491,7196,697000000,,0.007765117266927487,0.012627751191773505,0.01696970442859647
7196.707,492,7196,707000000,,0.007585481402777856,0.013218487383203793,0.016960193403038205
7196.717,493,7196,717000000,,0.0078670670129423,0.013017080721858703,0.016890230971155253
7196.727,494,7196,727000000,,0.008349042286841295,0.012416254913318932,0.016797453270052425
7196.737,495,7196,737000000,,0.008522316046396753,0.012391885926299228,0.016751840288274387
7196.747,496,7196,747000000,,0.008321231133564729,0.013152531256535979,0.01674779706637358
7196.757,497,7196,757000000,,0.00817450014924851,0.013799377950428977,0.01671993284147844
7196.767,498,7196,767000000,,0.00839821590476155,0.013585106993868987,0.016638836226024856
7196.777,499,7196,777000000,,0.00881395280170455,0.012918707844401503,0.01655418098711029
7196.787,500,7196,787000000,,0.009012713444391094,0.012858198673905547,0.016521328045142235
7196.797,501,7196,797000000,,0.008902521742802197,0.013654487360160677,0.0165134918110656
7196.807,502,7196,807000000,,0.00879102282697642,0.014369629358645667,0.016466436466176737
7196.817,503,7196,817000000,,0.008950869160435602,0.014171959061243628,0.01637454254570129
7196.827,504,7196,827000000,,0.009292535448993368,0.013446845114817127,0.01629844169563322
7196.837,505,7196,837000000,,0.009515930069565928,0.013322762286368358,0.01627906438544594
7196.847,506,7196,847000000,,0.009503045790435413,0.014128927143321361,0.016268541364498335
7196.857,507,7196,857000000,,0.009434935371162209,0.014924225662044427,0.016203185680013107
7196.867,508,7196,867000000,,0.00953119550937364,0.014778044812647141,0.01609999275991551
7196.877,509,7196,877000000,,0.009789215348153616,0.01400561982816326,0.01603183818411395
7196.887,510,7196,887000000,,0.010028118143626972,0.013788227893616774,0.016026299643187244
7196.897,511,7196,897000000,,0.010115501902468982,0.014571750274963649,0.016014791188671867
7196.907,512,7196,907000000,,0.010104901728583896,0.015455346848294674,0.015932313717977716
7196.917,513,7196,917000000,,0.010149566407734767,0.015471593242760895,0.01582077570260112
7196.927,514,7196,927000000,,0.01031135231358622,0.014597128028276956,0.015754318316340235
7196.937,515,7196,937000000,,0.010547189609946973,0.014257783196606803,0.015762440191307375
7196.947,516,7196,947000000,,0.010731612403650786,0.014978345106337991,0.015753075258171535
7196.957,517,7196,957000000,,0.010797552154706362,0.015950483785611144,0.015655841513599424
7196.967,518,7196,967000000,,0.01080241352013978,0.016030432169724766,0.015525819068872512
7196.977,519,7196,977000000,,0.010864774416946032,0.015233723156473922,0.015465408855782004
7196.987,520,7196,987000000,,0.011070228395546259,0.014749990215535183,0.0154871138498521
7196.997,521,7196,997000000,,0.011352357684831864,0.015298011627276642,0.015496854040369934
7197.007,522,7197,7000000,,0.011503650505318102,0.016407157536785975,0.01537505734228805
7197.017,523,7197,17000000,,0.011504228311248192,0.0166636636957656,0.015228584143209305
7197.027,524,7197,27000000,,0.011465033306692067,0.015915485821551653,0.015165403572246187
7197.037,525,7197,37000000,,0.011604935866032163,0.01527738421266477,0.015199339972813837
7197.047,526,7197,47000000,,0.01193502773086305,0.015715088505374373,0.01520624521268886
7197.057,527,7197,57000000,,0.012216816786343546,0.01680103602814369,0.015091509066336318
7197.067,528,7197,67000000,,0.01228168050219627,0.01729502148723257,0.014934092755080593
7197.077,529,7197,77000000,,0.012125834543628996,0.016629555195855034,0.014854500016569473
7197.087,530,7197,87000000,,0.012160166291244745,0.015847352728163823,0.014897167965478348
7197.097,531,7197,97000000,,0.012506869609274133,0.01605735168893117,0.014920165855337331
7197.107,532,7197,107000000,,0.012913502884167117,0.017126393017251842,0.014805964024068302
7197.117,533,7197,117000000,,0.013044099395403106,0.017822035204988127,0.01462267206131558
7197.127,534,7197,127000000,,0.012861302315849258,0.017373153932610064,0.01453348768185795
7197.137,535,7197,137000000,,0.012757043469705399,0.01648642703048682,0.014580375027566497
7197.147,536,7197,147000000,,0.013058418731990817,0.01641782276645741,0.014623264101373285
7197.157,537,7197,157000000,,0.013576187975638762,0.017385659904486195,0.014518747826441506
7197.167,538,7197,167000000,,0.013855075241177066,0.018297725198090035,0.014318679957763472
7197.177,539,7197,177000000,,0.013680660678729958,0.018115628854896846,0.014204184283913979
7197.187,540,7197,187000000,,0.013423602440946054,0.01720036309025356,0.014247483700364164
7197.197,541,7197,197000000,,0.013602627667044936,0.01682748116382817,0.014313122122535453
7197.207,542,7197,207000000,,0.014184872558304489,0.017590401554444916,0.014229205500444231
7197.217,543,7197,217000000,,0.014655378092154161,0.018664052469292928,0.014017336435147017
7197.227,544,7197,227000000,,0.014579882600989687,0.01881596948440468,0.01386992143292435
7197.237,545,7197,237000000,,0.014193228267211224,0.01798448781147577,0.013898298162091371
7197.247,546,7197,247000000,,0.014171164145711797,0.01732492895560128,0.013986139277439188
7197.257,547,7197,257000000,,0.014730541812091949,0.017774176692742425,0.013934508535914717
7197.267,548,7197,267000000,,0.015401252121079612,0.018903305995503814,0.013721138678755492
7197.277,549,7197,277000000,,0.01576324817898568,0.01956216101761161,0.013533354629123766
7197.287,550,7197,287000000,,0.014888206175123271,0.01867566324534046,0.013535888141298255
7197.297,551,7197,297000000,,0.014812929391860408,0.017939512297822355,0.013638672844006694
7197.307,552,7197,307000000,,0.015224942739206515,0.017990321539672616,0.013629880531616637
7197.317,553,7197,317000000,,0.0162867228544682,0.019153372089219956,0.013428754036749554
7197.327,554,7197,327000000,,0.016262726598004176,0.019741088282763664,0.013208239172952805
7197.337,555,7197,337000000,,0.016128060486697345,0.019611362645512956,0.0131591424487076
7197.347,556,7197,347000000,,0.015637458525331334,0.018781096751858954,0.013247876828040503
7197.357,557,7197,357000000,,0.01572032258600317,0.018302269336387206,0.013309609559809437
7197.367,558,7197,367000000,,0.016557168714763964,0.019051589059039507,0.01314402541443942
7197.377,559,7197,377000000,,0.017337014008280513,0.02011538676487741,0.01289042639472563
7197.387,560,7197,387000000,,0.017264949546640953,0.020307718331606023,0.012781928764351705
7197.397,561,7197,397000000,,0.016702934504791645,0.019661956748980417,0.012863925345307994
7197.407,562,7197,407000000,,0.016307255688119703,0.01878146230274119,0.012964037870013928
7197.417,563,7197,417000000,,0.01695620012944286,0.01909146059506258,0.012855097560012164
7197.427,564,7197,427000000,,0.01801269995073794,0.02016696531306396,0.012591719519522508
7197.437,565,7197,437000000,,0.018456308544725943,0.02082638770131234,0.012426121332982138
7197.447,566,7197,447000000,,0.01779209690322997,0.020360938056633627,0.012457219963697358
7197.457,567,7197,457000000,,0.017107788308293282,0.019462243489937376,0.012584967677765839
7197.467,568,7197,467000000,,0.017333726307548775,0.019259249918760653,0.012551608050026747
7197.477,569,7197,477000000,,0.0184526676348899,0.02009080977645993,0.012309924040191765
7197.487,570,7197,487000000,,0.019374490244352147,0.02103140572872906,0.012066556651063385
7197.497,571,7197,497000000,,0.019154608992923563,0.021081059932526364,0.012033913064321503
7197.507,572,7197,507000000,,0.018230098340899326,0.02028385725947338,0.012168360196566398
7197.517,573,7197,517000000,,0.017859399686127233,0.019642837932818895,0.012218746010991552
7197.527,574,7197,527000000,,0.018695693370302482,0.020006110608914548,0.01203738532507269
7197.537,575,7197,537000000,,0.019973937027438514,0.02094410415691945,0.01178346991415363
7197.547,576,7197,547000000,,0.02048530492234474,0.02153441819928883,0.011622732653093385
7197.557,577,7197,557000000,,0.01968501165873813,0.02110775361940917,0.01171868454550554
7197.567,578,7197,567000000,,0.018739017737328674,0.020274308740086344,0.011839479984979081
7197.577,579,7197,577000000,,0.018922068618999678,0.020079098796484986,0.011754055031860786
7197.587,580,7197,587000000,,0.02019835681271525,0.020753284380746896,0.011511499423983624
7197.597,581,7197,597000000,,0.021495787570269376,0.021626422779797504,0.011266511204527183
7197.607,582,7197,607000000,,0.021316019930640976,0.02173367452482417,0.011255898845862922
7197.617,583,7197,617000000,,0.02011748929363576,0.02105274083172664,0.011404789264548621
7197.627,584,7197,627000000,,0.01944325213457738,0.02043122193907301,0.011432684854872545
7197.637,585,7197,637000000,,0.020572038116864946,0.02062896525234666,0.011224013116631144
7197.647,586,7197,647000000,,0.021723569804789376,0.021475294707678422,0.010931674756936311
7197.657,587,7197,657000000,,0.02303263878364897,0.02195892437087703,0.01081838076052441
7197.667,588,7197,667000000,,0.021678161344193987,0.021771611685693252,0.010923420675508257
7197.677,589,7197,677000000,,0.02067572059116,0.02111519131874331,0.011033704664692928
7197.687,590,7197,687000000,,0.02039957465324807,0.020728581290840712,0.010955143086509269
7197.697,591,7197,697000000,,0.021882012658757135,0.021193958144159943,0.010673072573497512
7197.707,592,7197,707000000,,0.023528147081585283,0.02186755966970138,0.010456136456544139
7197.717,593,7197,717000000,,0.02378394435535862,0.022116878022253848,0.010437256313886568
7197.727,594,7197,727000000,,0.022414737220379462,0.02169900248298083,0.010586501787396702
7197.737,595,7197,737000000,,0.02115216724925901,0.021127232810317198,0.010630316693644903
7197.747,596,7197,747000000,,0.02161696438755676,0.021091749213368136,0.01043713075691116
7197.757,597,7197,757000000,,0.023576314461548977,0.021592106154593758,0.01014411828847915
7197.767,598,7197,767000000,,0.025068893795837814,0.022070433188156383,0.009997481659281793
7197.777,599,7197,777000000,,0.024620701715291186,0.02209089916852664,0.010080618175871433
7197.787,600,7197,787000000,,0.022879927888492343,0.021659204230012864,0.010215251249879922
7197.797,601,7197,797000000,,0.021980726210461175,0.021335940553331257,0.010186356253359964
7197.807,602,7197,807000000,,0.02299617538306882,0.021374396785476934,0.009914529451135008
7197.817,603,7197,817000000,,0.025246037275477473,0.021762987557517707,0.009654369165196125
7197.827,604,7197,827000000,,0.026644672070104573,0.021852053686471144,0.009602526607637957
7197.837,605,7197,837000000,,0.02509640784067155,0.022132184143756152,0.009712044319895823
7197.847,606,7197,847000000,,0.023380774505242872,0.02164167458993181,0.009807383003727974
7197.857,607,7197,857000000,,0.022782103213408116,0.021433482902183925,0.009684858124054582
7197.867,608,7197,867000000,,0.024452960769417015,0.02152646599250097,0.009410288778287831
7197.877,609,7197,877000000,,0.026840103617583114,0.021720807462484126,0.00920397023989528
7197.887,610,7197,887000000,,0.027568323965400605,0.021842539684452822,0.009210324206753861
7197.897,611,7197,897000000,,0.026023605217071547,0.02180369319483438,0.00934092949549816
7197.907,612,7197,907000000,,0.02419401190974522,0.02169204810612421,0.00938214124096521
7197.917,613,7197,917000000,,0.02401432658739323,0.021239728949261943,0.009215018230075655
7197.927,614,7197,927000000,,0.025466049584410125,0.02180167722279619,0.008950193936778077
7197.937,615,7197,937000000,,0.02833834257189627,0.021479029106075114,0.008784430699015945
7197.947,616,7197,947000000,,0.028693065455449144,0.021510623560986642,0.00883094793768455
7197.957,617,7197,957000000,,0.02673675306435105,0.02159025210186752,0.008944715774070754
7197.967,618,7197,967000000,,0.024632376461017902,0.021621398707108445,0.008929867907894308
7197.977,619,7197,977000000,,0.024772018347325002,0.0215561682137494,0.008732843520418249
7197.987,620,7197,987000000,,0.026994036392699115,0.021338983372485007,0.008504532049986172
7197.997,621,7197,997000000,,0.029743265568784125,0.021050272394178653,0.008387083420724067
7198.007,622,7198,7000000,,0.02980637168240002,0.02103811081625791,0.008449884231106115
7198.017,623,7198,17000000,,0.02773650470513958,0.020870369915720582,0.008556862624386952
7198.027,624,7198,27000000,,0.02516977576630846,0.021921604108222883,0.008468491476352688
7198.037,625,7198,37000000,,0.025722648921799176,0.02147271878204947,0.008286726382558562
7198.047,626,7198,47000000,,0.028483826369241957,0.020985467755252965,0.008078376369610124
7198.057,627,7198,57000000,,0.03102461827979216,0.020442990366619743,0.008006645555870917
7198.067,628,7198,67000000,,0.030936575539997256,0.020397876068926166,0.008067890332127658
7198.077,629,7198,77000000,,0.028426775881943304,0.02087675760259138,0.008125062056919001
7198.087,630,7198,87000000,,0.026133630542210844,0.021360208416830145,0.008053257518642363
7198.097,631,7198,97000000,,0.02655308347517929,0.021296220276651356,0.00786417244235541
7198.107,632,7198,107000000,,0.029489557651678825,0.020548792071116147,0.007689277903086879
7198.117,633,7198,117000000,,0.032196084160960724,0.01969996766045818,0.007639492771362985
7198.127,634,7198,127000000,,0.03213354054954116,0.019578450659457083,0.007689351073282128
7198.137,635,7198,137000000,,0.029475007083281456,0.02027645076475215,0.0077171507779897775
7198.147,636,7198,147000000,,0.02695406208097881,0.021049185006258037,0.0076328879358124255
7198.157,637,7198,157000000,,0.027230457726521697,0.02105296630113714,0.007462361396680262
7198.167,638,7198,167000000,,0.029966714889449537,0.02020669789145242,0.007331637445877292
7198.177,639,7198,177000000,,0.03323377578566371,0.018850702968115276,0.0072866652751630715
7198.187,640,7198,187000000,,0.03341125355076449,0.018544262066219248,0.007321511299237227
7198.197,641,7198,197000000,,0.031127453305854334,0.019310971723210443,0.007325538174066337
7198.207,642,7198,207000000,,0.028038763209401362,0.020467697012131286,0.0072318274723023775
7198.217,643,7198,217000000,,0.027733676531114606,0.020738608996088752,0.007077945097072604
7198.227,644,7198,227000000,,0.03067723772976269,0.019606375311523025,0.006967242891777604
7198.237,645,7198,237000000,,0.03400181154027839,0.017968213158745115,0.006949975994738687
7198.247,646,7198,247000000,,0.03466662568576293,0.01731628669513116,0.006972632862839757
7198.257,647,7198,257000000,,0.03213898190779622,0.018240176567866615,0.006944540188051455
7198.267,648,7198,267000000,,0.028917144380070977,0.01976794392030065,0.006837772151691515
7198.277,649,7198,277000000,,0.028182773368119973,0.020355411054370685,0.006702535274868478
7198.287,650,7198,287000000,,0.03079872602238737,0.019237674343697345,0.0066217143388685494
7198.297,651,7198,297000000,,0.034188997469369826,0.01731079078236983,0.006620057567459957
7198.307,652,7198,307000000,,0.03588158754145562,0.015927193161128967,0.006649561500434992
7198.317,653,7198,317000000,,0.033792765726864904,0.016635522037634534,0.006600609957962294
7198.327,654,7198,327000000,,0.030241221904101268,0.01853205227666638,0.0064732705714691
7198.337,655,7198,337000000,,0.028618700639366633,0.019734376593862527,0.0063383585610525105
7198.347,656,7198,347000000,,0.030559232330250496,0.018946315754700606,0.006278706369158471
7198.357,657,7198,357000000,,0.034123334077706326,0.01682727560253922,0.006307463873659399
7198.367,658,7198,367000000,,0.03678827299796706,0.01454132435039274,0.006354558055223318
7198.377,659,7198,377000000,,0.03553836222919126,0.014650212561666364,0.006299893790257214
7198.387,660,7198,387000000,,0.031904361140059435,0.016706281492006498,0.006145057696436194
7198.397,661,7198,397000000,,0.029262961441545016,0.018692277217160814,0.00598789687019348
7198.407,662,7198,407000000,,0.030097499367431776,0.018651095945502,0.005928903917899607
7198.417,663,7198,417000000,,0.03379534793857407,0.016322253947551664,0.005989961222904672
7198.427,664,7198,427000000,,0.03712082328743079,0.013468259014818466,0.006075214606358726
7198.437,665,7198,437000000,,0.03714520503685049,0.012510019953322682,0.006045650155830286
7198.447,666,7198,447000000,,0.03391416527905049,0.014241082112260887,0.005870591440382663
7198.457,667,7198,457000000,,0.030621846765503405,0.016747191647708267,0.0056731870640014965
7198.467,668,7198,467000000,,0.029679117230005592,0.018096928238607975,0.005572926632844947
7198.477,669,7198,477000000,,0.032578987407812704,0.016411303660366448,0.005642351564232103
7198.487,670,7198,487000000,,0.03659473436041235,0.013008131478322913,0.005785692283537148
7198.497,671,7198,497000000,,0.03800243718231022,0.00917065840124886,0.005928430792862522
7198.507,672,7198,507000000,,0.03628068626742674,0.012566584262673439,0.005574113533414688
7198.517,673,7198,517000000,,0.0321149693410694,0.014240334187442572,0.005406377580907885
7198.527,674,7198,527000000,,0.029760997823890502,0.01676626841410207,0.0052343115675677196
7198.537,675,7198,537000000,,0.031116868731810132,0.016495419797311343,0.005264642018219148
7198.547,676,7198,547000000,,0.035104993808662846,0.013313199312960785,0.005450526542110557
7198.557,677,7198,557000000,,0.03833797209990648,0.009563659422894251,0.005600979390607514
7198.567,678,7198,567000000,,0.038042194285655154,0.008291735360546736,0.005530645299111643
7198.577,679,7198,577000000,,0.034500319056173144,0.010503840062445464,0.005249567578853605
7198.587,680,7198,587000000,,0.030748574946690883,0.014115716609817143,0.004964471721590841
7198.597,681,7198,597000000,,0.02985039306580857,0.015890917139565967,0.004868404912883494
7198.607,682,7198,607000000,,0.03283386944028952,0.01408248059495527,0.005048013759132256
7198.617,683,7198,617000000,,0.03700205641211248,0.009833174213819127,0.005303813602815649
7198.627,684,7198,627000000,,0.038951418315604405,0.006347179808619595,0.00539891085792701
7198.637,685,7198,637000000,,0.03703557601496493,0.006435620553228268,0.005198332113339055
7198.647,686,7198,647000000,,0.03287043143230725,0.009893088783373642,0.004830193480851104
7198.657,687,7198,657000000,,0.029888771041321392,0.013611446906177634,0.0045718562173601845
7198.667,688,7198,667000000,,0.03051991762628005,0.014339118608198207,0.004606087773921576
7198.677,689,7198,677000000,,0.03426622950889836,0.011202819428741507,0.004886033024438902
7198.687,690,7198,687000000,,0.0380495999976111,0.00633140761185487,0.00516674690380778
7198.697,691,7198,697000000,,0.03871231777332834,0.0034265740959247247,0.005176943820681236
7198.707,692,7198,707000000,,0.03569237775650224,0.004778557568334316,0.004858263066253634
7198.717,693,7198,717000000,,0.03143508461368387,0.009102693524419593,0.004438518334695289
7198.727,694,7198,727000000,,0.02931537514212255,0.012653802185921466,0.004231012175357532
7198.737,695,7198,737000000,,0.03098777995420821,0.012400064631223565,0.004375477620574662
7198.747,696,7198,747000000,,0.03434150208762179,0.006051116877901643,0.004928188272779358
7198.757,697,7198,757000000,,0.03815023636970001,0.002841166856958779,0.005037754401055277
7198.767,698,7198,767000000,,0.0388904087811268,0.0027448262305602364,0.004802067789178985
7198.777,699,7198,777000000,,0.03432409732948174,0.0030736335596786273,0.004535856348324618
7198.787,700,7198,787000000,,0.030209127370529526,0.007962301387350199,0.004085636847949938
7198.797,701,7198,797000000,,0.028770860275756656,0.011335321284938181,0.003925771357399868
7198.807,702,7198,807000000,,0.031068618025721514,0.010349746235935983,0.004158680768857304
7198.817,703,7198,817000000,,0.03526046956569164,0.005439652671347657,0.004591927691429654
7198.827,704,7198,827000000,,0.03796881685977231,-5.551566984453489e-06,0.004872405733164481
7198.837,705,7198,837000000,,0.0359511445415002,-0.004333564760797132,0.0049548361139013
7198.847,706,7198,847000000,,0.033855056803032864,0.0032489115223342897,0.004056491101492638
7198.857,707,7198,857000000,,0.02903442221511643,0.006423884694100509,0.00377057896803261
7198.867,708,7198,867000000,,0.02797278812851201,0.00977121893964299,0.003636494757630122
7198.877,709,7198,877000000,,0.030525157681073348,0.00843481887299611,0.003926984295305116
7198.887,710,7198,887000000,,0.03467232073144549,0.003063258241359671,0.00441416858080106
7198.897,711,7198,897000000,,0.03711451223254971,-0.002691994326285806,0.004715146189040891
7198.907,712,7198,907000000,,0.035863378473249906,-0.004656873063013796,0.004563384042032698
7198.917,713,7198,917000000,,0.0317885182728868,-0.0014226721014145849,0.004032942243222912
7198.927,714,7198,927000000,,0.027834560336583127,0.004330298630407258,0.0035017152353638017
7198.937,715,7198,937000000,,0.0267821724218862,0.008049563987150829,0.0033464874971819995
7198.947,716,7198,947000000,,0.029278230988929493,0.0068291095559056434,0.0036564329828590344
7198.957,717,7198,957000000,,0.03335196659785386,0.0012790889210534783,0.004189524236177838
7198.967,718,7198,967000000,,0.03569405844799103,-0.004534253016867277,0.0045337214512353825
7198.977,719,7198,977000000,,0.034691024398742186,-0.007396298630347345,0.004421648881911951
7198.987,720,7198,987000000,,0.03069337290906499,-0.004381497544576562,0.0038736661573683115
7198.997,721,7198,997000000,,0.026686986919889473,0.0015532110080397072,0.0032994694093330264
7199.007,722,7199,7000000,,0.02517788172548554,0.005922519907757413,0.003039574343508012
7199.017,723,7199,17000000,,0.027344447777641983,0.005574156520834805,0.0033319508478678586
7199.027,724,7199,27000000,,0.03129987350511085,0.00022929462237016637,0.003895212622154392
7199.037,725,7199,37000000,,0.03389530235508629,-0.005940918473031849,0.004309649111047489
